{"3C0bnFhjkgYP9mWORKg6cA": {"name": "Chili Man", "latitude": 35.226911, "longitude": -80.843823, "address": "S Tryon", "city": "Charlotte", "state": "NC", "stars": 5.0, "review_count": 172, "is_open": 1}, "e1tqT4QNOUqDiOvmaIcxfQ": {"name": "Chef Alyssa's Kitchen", "latitude": 35.186099, "longitude": -80.878288, "address": "4001-C Yancey Rd, Ste 100", "city": "Charlotte", "state": "NC", "stars": 4.5, "review_count": 58, "is_open": 1}, "FoZQW4WpXAEOOVZ9MepnZA": {"name": "Switchin' Kitchens", "latitude": 35.0394091, "longitude": -80.79371, "address": "8025 Ardrey Kell Rd", "city": "Charlotte", "state": "NC", "stars": 4.5, "review_count": 11, "is_open": 1}, "7HbKKqXtZUjf6uVSHZ8wyw": {"name": "Let's Meat Kbbq", "latitude": 35.2190478215, "longitude": -80.8576791734, "address": "1400 S Church St, Ste B", "city": "Charlotte", "state": "NC", "stars": 4.5, "review_count": 354, "is_open": 1}, "iYT30UPGmLdmTRaAKz0Vvw": {"name": "Be's Noodles & Banh Mi", "latitude": 35.056411, "longitude": -80.8354073, "address": "11318 N Community House Rd", "city": "Charlotte", "state": "NC", "stars": 4.5, "review_count": 254, "is_open": 1}, "PJ64Zdo0h2mQMmX7cpNJBA": {"name": "Letty's", "latitude": 35.2350974, "longitude": -80.7878974, "address": "2121 Shamrock Dr", "city": "Charlotte", "state": "NC", "stars": 4.5, "review_count": 89, "is_open": 1}, "eYKQ0WTUDU5G9Hez5Ze5Aw": {"name": "Red Clay Ciderworks", "latitude": 35.1944573, "longitude": -80.8748346, "address": "245 Clanton Rd", "city": "Charlotte", "state": "NC", "stars": 4.5, "review_count": 120, "is_open": 1}, "9VHUX0dDUTZbKPCMSjdqNQ": {"name": "Rooney's Market", "latitude": 35.1382102, "longitude": -80.9332075, "address": "2127 Ayrsley Town Blvd, Ste 101-A", "city": "Charlotte", "state": "NC", "stars": 4.5, "review_count": 39, "is_open": 0}, "K86vnjM11Kkz8532qi0LqQ": {"name": "Enat Ethiopian Restaurant", "latitude": 35.249636, "longitude": -80.778851, "address": "4450 The Plz, Ste D", "city": "Charlotte", "state": "NC", "stars": 5.0, "review_count": 93, "is_open": 1}, "MA3GszdFKeg_MrJltYrklg": {"name": "YAFO Kitchen", "latitude": 35.2032058, "longitude": -80.845773, "address": "1231A East Blvd, Ste AA", "city": "Charlotte", "state": "NC", "stars": 4.5, "review_count": 79, "is_open": 1}, "XgRljuEUyaHBKIpIz-PRAA": {"name": "Bang Bang Burgers", "latitude": 35.2123879, "longitude": -80.8171465, "address": "2001 E 7th St, Ste D", "city": "Charlotte", "state": "NC", "stars": 4.5, "review_count": 670, "is_open": 1}, "xYy54Y2VTBAG5k7WJcaH4A": {"name": "Terra", "latitude": 35.202104, "longitude": -80.82453, "address": "545 Providence Rd", "city": "Charlotte", "state": "NC", "stars": 4.5, "review_count": 38, "is_open": 0}, "O8Nh1NB9Gbtq6xjd9oeI3A": {"name": "Pho Hong", "latitude": 35.2105343048, "longitude": -80.7806946613, "address": "3209 Eastway Dr, Ste 7", "city": "Charlotte", "state": "NC", "stars": 4.5, "review_count": 59, "is_open": 0}, "lrlnHYVp8PSzHZmHIv12fQ": {"name": "JP Food To Go", "latitude": 35.2432675035, "longitude": -80.9382414707, "address": "2626 Little Rock Rd", "city": "Charlotte", "state": "NC", "stars": 4.5, "review_count": 33, "is_open": 1}, "ViqaAee3jNQkMNlu5FEHMQ": {"name": "Fonda Mexicana El Paraiso", "latitude": 35.1520085, "longitude": -80.875325, "address": "6105 South Blvd", "city": "Charlotte", "state": "NC", "stars": 4.5, "review_count": 29, "is_open": 1}, "n-K5Mp3DraFcclNXyTdMvQ": {"name": "Sandwich Max", "latitude": 35.2132244, "longitude": -80.8182756, "address": "1941 E 7th St", "city": "Charlotte", "state": "NC", "stars": 4.5, "review_count": 158, "is_open": 1}, "S4Gb3V7p5piEqRaP8dk1oA": {"name": "Charlotte Comedy Theater", "latitude": 35.2390826, "longitude": -80.8449816, "address": "900 Nc Music Factory Blvd", "city": "Charlotte", "state": "NC", "stars": 4.5, "review_count": 16, "is_open": 1}, "rrfe1RPh6t3QG7BRghzjYA": {"name": "Aix en Provence", "latitude": 35.202113, "longitude": -80.824515, "address": "545-B Providence Rd", "city": "Charlotte", "state": "NC", "stars": 4.5, "review_count": 60, "is_open": 0}, "SzlzAjBwFcdbOwRPjNxaxw": {"name": "Miro Spanish Grille", "latitude": 35.068661392, "longitude": -80.8411020633, "address": "12239 N Community House Rd, Ste 102", "city": "Charlotte", "state": "NC", "stars": 4.5, "review_count": 253, "is_open": 1}, "SgmcmNsJQ8IQ6balS_kotw": {"name": "Viva Chicken", "latitude": 35.1699086, "longitude": -80.851132, "address": "4500 Park Rd, Ste 100", "city": "Charlotte", "state": "NC", "stars": 4.5, "review_count": 170, "is_open": 1}, "Zsz_dLOEwihJHvMTK9a8Vg": {"name": "Red Sea Restaurant & Bar", "latitude": 35.195245, "longitude": -80.788236, "address": "4301 Monroe Rd", "city": "Charlotte", "state": "NC", "stars": 4.5, "review_count": 80, "is_open": 1}, "lnB5UArEobKia0zPJMNk6w": {"name": "Carolinas Dish", "latitude": 35.140762, "longitude": -80.7405579, "address": "9624 Monroe Rd", "city": "Charlotte", "state": "NC", "stars": 4.5, "review_count": 30, "is_open": 0}, "zpGCFAt_MydbQN4EsXee6w": {"name": "Banh Mi Brothers", "latitude": 35.3035097938, "longitude": -80.7487670917, "address": "230 Wt Harris Blvd, Ste A-7", "city": "Charlotte", "state": "NC", "stars": 4.5, "review_count": 290, "is_open": 1}, "42gnKgy6ryfQ4QBtmyVgqA": {"name": "Happy\u2019s Grill", "latitude": 35.187192, "longitude": -80.687361, "address": "9229 Lawyers Rd, Ste E", "city": "Charlotte", "state": "NC", "stars": 4.5, "review_count": 28, "is_open": 1}, "AvI4b-F7Mro1mXxTzMC_BA": {"name": "Tank's Tap", "latitude": 35.2275356173, "longitude": -80.8380490961, "address": "7TH St Public Market", "city": "Charlotte", "state": "NC", "stars": 4.5, "review_count": 24, "is_open": 1}, "r7QEW42Bqo0KvY2Xb6YDXQ": {"name": "Billy Graham Library", "latitude": 35.1903725, "longitude": -80.9092806, "address": "4330 Westmont Dr", "city": "Charlotte", "state": "NC", "stars": 5.0, "review_count": 71, "is_open": 1}, "tgxJuRm9EZRfUipsb5rjqg": {"name": "Alpha Omega Grill & Pizzeria", "latitude": 35.3339833432, "longitude": -80.7136163861, "address": "11524 N Tryon St, Ste 9", "city": "Charlotte", "state": "NC", "stars": 4.5, "review_count": 69, "is_open": 1}, "vcVgncax_tbfhMckX1m36w": {"name": "King Fish Poke", "latitude": 35.3016356027, "longitude": -80.7493232032, "address": "350 E McCullough Dr, Ste 110", "city": "Charlotte", "state": "NC", "stars": 4.5, "review_count": 143, "is_open": 1}, "oX6y1Jm1jYLoWifmIrtaSQ": {"name": "Chatpatay", "latitude": 35.3121681, "longitude": -80.7450974, "address": "9211 North Tryon St, Ste 13", "city": "Charlotte", "state": "NC", "stars": 4.5, "review_count": 60, "is_open": 1}, "QAHqplESgDUGgih45W9J-g": {"name": "Dressler's - Charlotte", "latitude": 35.2123518, "longitude": -80.8358725, "address": "1100-E Metropolitan Ave, Ste 125-E", "city": "Charlotte", "state": "NC", "stars": 4.5, "review_count": 397, "is_open": 1}, "ESWBD7Atc9cejaUiqbPpZg": {"name": "Tamaleria Laurita", "latitude": 35.1395683556, "longitude": -80.8776187698, "address": "809 E Arrowood Rd, Ste 2100", "city": "Charlotte", "state": "NC", "stars": 4.5, "review_count": 28, "is_open": 1}, "yvDyMFtqLh_hV1x44mibJQ": {"name": "No Forks Given", "latitude": 35.1811188, "longitude": -80.8488498, "address": "", "city": "Charlotte", "state": "NC", "stars": 5.0, "review_count": 11, "is_open": 1}, "nHdsHdq35JflGzliWVqG-Q": {"name": "Johnny Burrito", "latitude": 35.2254513, "longitude": -80.84528, "address": "301 S Tryon St, Ste 55", "city": "Charlotte", "state": "NC", "stars": 4.5, "review_count": 109, "is_open": 1}, "VeFqptSzekFAc3FZOpi81Q": {"name": "Alexander Michael's", "latitude": 35.2336176, "longitude": -80.8407881, "address": "401 W 9th St", "city": "Charlotte", "state": "NC", "stars": 4.5, "review_count": 417, "is_open": 1}, "gUrYm7z0g5a5_jdSXzi-HA": {"name": "CAVA", "latitude": 35.309966, "longitude": -80.747857, "address": "8936 Jm Keynes Blvd", "city": "Charlotte", "state": "NC", "stars": 4.5, "review_count": 226, "is_open": 1}, "JgRo-eHmPQxvlMfT1RM_Hg": {"name": "Nick & Mike Bar and Grill", "latitude": 35.3341034324, "longitude": -80.713359246, "address": "11524 N Tryon St, Ste 7", "city": "Charlotte", "state": "NC", "stars": 4.5, "review_count": 16, "is_open": 1}, "RGK23CEkDfYHWtUbRhA-bQ": {"name": "The Turnhouse Grille", "latitude": 35.1717355947, "longitude": -80.8492714539, "address": "1600 E Woodlawn Rd, Ste 100", "city": "Charlotte", "state": "NC", "stars": 4.5, "review_count": 117, "is_open": 0}, "w0ucHqKjiLcUKOicN9Mp8A": {"name": "Eddie V's Prime Seafood", "latitude": 35.2268391987, "longitude": -80.843259, "address": "101 S Tryon St", "city": "Charlotte", "state": "NC", "stars": 4.5, "review_count": 216, "is_open": 1}, "Uftnd7njdHNFxhz_6rpUrA": {"name": "Sea Level NC", "latitude": 35.2275712, "longitude": -80.8410996, "address": "129 E 5th St", "city": "Charlotte", "state": "NC", "stars": 4.5, "review_count": 690, "is_open": 1}, "Vk-UILguPnVpZec6jCBVTw": {"name": "Crafty Crab", "latitude": 35.3102372, "longitude": -80.7493727, "address": "8933 J M Keynes Dr", "city": "Charlotte", "state": "NC", "stars": 4.5, "review_count": 26, "is_open": 1}, "RAh9WCQAuocM7hYM5_6tnw": {"name": "The Cowfish Sushi Burger Bar", "latitude": 35.1527248376, "longitude": -80.827953314, "address": "4310 Sharon Rd, Ste X05", "city": "Charlotte", "state": "NC", "stars": 4.5, "review_count": 1791, "is_open": 1}, "BQEZSBttIsD_4qgQQFrQOA": {"name": "La Michoacana Paleteria", "latitude": 35.2731244997, "longitude": -80.7677295956, "address": "6301 N Tryon St", "city": "Charlotte", "state": "NC", "stars": 4.5, "review_count": 11, "is_open": 1}, "ZPWEawq1b37IcMFH9zA-_w": {"name": "Port City Java", "latitude": 35.2279675, "longitude": -80.8412983, "address": "214 N Tryon St, Ste Level 1", "city": "Charlotte", "state": "NC", "stars": 4.5, "review_count": 14, "is_open": 0}, "bcTwvbD5wfMSgSO-YczLYw": {"name": "The Workman's Friend", "latitude": 35.220532, "longitude": -80.8123012, "address": "1531 Central Ave", "city": "Charlotte", "state": "NC", "stars": 4.5, "review_count": 271, "is_open": 1}, "dQOnVrU5O0tSY5ZS8t3ScA": {"name": "Optimist Hall", "latitude": 35.2339090889, "longitude": -80.8276032284, "address": "1115 N Brevard St", "city": "Charlotte", "state": "NC", "stars": 4.5, "review_count": 97, "is_open": 1}, "tS6duyMHvqhW0J5_3RLgPg": {"name": "Rhino Market & Deli", "latitude": 35.22553, "longitude": -80.847776, "address": "400 S Tryon St, Ste R3", "city": "Charlotte", "state": "NC", "stars": 4.5, "review_count": 90, "is_open": 1}, "f6P_CEa5q3cqVLWLaYv4xQ": {"name": "Undercurrent Coffee", "latitude": 35.2342877944, "longitude": -80.827484565, "address": "1115 North Brevard St, Stall  7", "city": "Charlotte", "state": "NC", "stars": 4.5, "review_count": 17, "is_open": 1}, "tjXMambMl-MeGZGs6s_tiA": {"name": "Lola's", "latitude": 35.2229116, "longitude": -80.8430663, "address": "300 S Brevard St", "city": "Charlotte", "state": "NC", "stars": 4.5, "review_count": 72, "is_open": 0}, "tMlVZWa4SsI01qYMRQerKg": {"name": "7th Street Public Market", "latitude": 35.2276651687, "longitude": -80.8381052823, "address": "224 E 7th St", "city": "Charlotte", "state": "NC", "stars": 4.5, "review_count": 237, "is_open": 1}, "eCeFBHucdjbZkJlry8EALw": {"name": "Papi Queso", "latitude": 35.2326781, "longitude": -80.8460822, "address": "", "city": "Charlotte", "state": "NC", "stars": 4.5, "review_count": 171, "is_open": 1}, "rH3T4ZITiUpwwKqCyYCWKg": {"name": "Graham Street Grill", "latitude": 35.2529986, "longitude": -80.8262574, "address": "2519 N Graham St", "city": "Charlotte", "state": "NC", "stars": 4.5, "review_count": 18, "is_open": 1}, "RKQ0qEIEP-VdS8X4YMa2IA": {"name": "Jyoti's World Cuisine", "latitude": 35.2034535, "longitude": -80.7215716, "address": "7128 Albemarle Rd", "city": "Charlotte", "state": "NC", "stars": 4.5, "review_count": 58, "is_open": 1}, "zN6WBP_qr3NZp0CbBb128g": {"name": "Poke Bar", "latitude": 35.2098341, "longitude": -80.8356164, "address": "601 South Kings Dr, Ste K", "city": "Charlotte", "state": "NC", "stars": 4.5, "review_count": 82, "is_open": 0}, "9-GNhPL4PBL2FOJc28KPMA": {"name": "Tamales La Pasadita", "latitude": 35.2391374664, "longitude": -80.7983152782, "address": "3112 The Plz", "city": "Charlotte", "state": "NC", "stars": 4.5, "review_count": 76, "is_open": 1}, "9wCP-MP2B1Yi7EzsM0H0ew": {"name": "Tacos El Regio", "latitude": 35.1997459343, "longitude": -80.7243361774, "address": "8829 E Wt Harris Blvd", "city": "Charlotte", "state": "NC", "stars": 5.0, "review_count": 39, "is_open": 1}, "ms8tG7Co_ELSSGhbOL6HBg": {"name": "Tokyo One Express", "latitude": 35.0524519, "longitude": -80.8173292, "address": "8834 Camfield St, Ste B", "city": "Charlotte", "state": "NC", "stars": 4.5, "review_count": 47, "is_open": 1}, "K4ibWLIMnbqwLzVkAlHFzA": {"name": "Max & Lola Bodega", "latitude": 35.2188599, "longitude": -80.8605894, "address": "1501 S Mint St", "city": "Charlotte", "state": "NC", "stars": 4.5, "review_count": 23, "is_open": 0}, "5Day_lf10DyvKk9tmKqjRA": {"name": "Salud Beer Shop", "latitude": 35.2477994, "longitude": -80.8040482, "address": "3306-B N Davidson St", "city": "Charlotte", "state": "NC", "stars": 5.0, "review_count": 103, "is_open": 1}, "wiEQrYSNofc10q7Pm26b0w": {"name": "The Common Market", "latitude": 35.215705, "longitude": -80.856667, "address": "1515 S Tryon St", "city": "Charlotte", "state": "NC", "stars": 4.5, "review_count": 185, "is_open": 0}, "R1jJQi2yR44D_2ileqr8kA": {"name": "Living Kitchen", "latitude": 35.2090265771, "longitude": -80.8611555105, "address": "2000 S Blvd, Ste 300", "city": "Charlotte", "state": "NC", "stars": 4.5, "review_count": 502, "is_open": 1}, "X3r0CTHKc_KychP5_D8lgA": {"name": "Showmars - Hearst Tower", "latitude": 35.2275832684, "longitude": -80.8408048417, "address": "214 N Tryon St", "city": "Charlotte", "state": "NC", "stars": 4.5, "review_count": 13, "is_open": 1}, "4cWrtMvfj-tomyEPgP7KFg": {"name": "The Melting Pot", "latitude": 35.2070881, "longitude": -80.8351947, "address": "901 S Kings Dr, Ste 140B", "city": "Charlotte", "state": "NC", "stars": 4.5, "review_count": 164, "is_open": 1}, "U8ubLSxnCKRAJRmN1XWZaA": {"name": "Oak Steakhouse Charlotte", "latitude": 35.1466338, "longitude": -80.8311183, "address": "4777 Sharon Rd", "city": "Charlotte", "state": "NC", "stars": 4.5, "review_count": 151, "is_open": 1}, "C3PN-sjP7mGMXHS1zm4DLQ": {"name": "La Victoria", "latitude": 35.0282310487, "longitude": -80.8509428054, "address": "16139 Lancaster Hwy, Ste 150", "city": "Charlotte", "state": "NC", "stars": 4.5, "review_count": 26, "is_open": 1}, "l9tFVg7r7QXuLnCywMQl7Q": {"name": "The Daily Tavern", "latitude": 35.2294337656, "longitude": -80.8419475619, "address": "214 N Church St", "city": "Charlotte", "state": "NC", "stars": 4.5, "review_count": 106, "is_open": 1}, "zfPRTgGR9U8T6Rdnos_mAQ": {"name": "Binki Cafe", "latitude": 35.3121681, "longitude": -80.7450974, "address": "9211 N Tryon St, Ste 5", "city": "Charlotte", "state": "NC", "stars": 4.5, "review_count": 51, "is_open": 1}, "MfmBd9C7tUfOkGu2eJpK2w": {"name": "Sunflower Family Restaurant", "latitude": 35.2932106, "longitude": -80.8379302, "address": "5400 Statesville Rd", "city": "Charlotte", "state": "NC", "stars": 4.5, "review_count": 78, "is_open": 1}, "LRwkfgrkxxzLG24grsHkWw": {"name": "Toucan Louie's", "latitude": 35.2495468783, "longitude": -80.8701420575, "address": "2753 Rozzelles Ferry Rd", "city": "Charlotte", "state": "NC", "stars": 4.5, "review_count": 78, "is_open": 1}, "YxwxKqemcKwV4vIQXhVv_w": {"name": "Zablong Peculiar Pizza", "latitude": 35.225812, "longitude": -80.846843, "address": "137 Brevard Ct", "city": "Charlotte", "state": "NC", "stars": 4.5, "review_count": 274, "is_open": 1}, "YBhDZMKF_Xfr0z0iqd_tGg": {"name": "EastSide Local", "latitude": 35.214056, "longitude": -80.782638, "address": "3102 Eastway Dr", "city": "Charlotte", "state": "NC", "stars": 4.5, "review_count": 28, "is_open": 1}, "KAntBJ1ougj5TtbIu0ITBw": {"name": "Pokeatery", "latitude": 35.2252754, "longitude": -80.8420268, "address": "210 E Trade St, Ste B226", "city": "Charlotte", "state": "NC", "stars": 4.5, "review_count": 93, "is_open": 1}, "0LPVkxZ-Ab9Jx6_ytA-Yew": {"name": "Tea Fusion Cafe", "latitude": 35.3020623325, "longitude": -80.7478508227, "address": "440 E McCollough Dr", "city": "Charlotte", "state": "NC", "stars": 4.5, "review_count": 218, "is_open": 1}, "iHeP8OmTwcqYeyMuEpIaxw": {"name": "Banh Mi and Tea Company", "latitude": 35.1388719, "longitude": -80.934533, "address": "2130 Ayrsley Town Blvd, Ste C", "city": "Charlotte", "state": "NC", "stars": 4.5, "review_count": 162, "is_open": 1}, "EjBz4Lx_dg-_gwQQJMzKtA": {"name": "Taqueria Los Altos", "latitude": 35.1522363, "longitude": -80.745476, "address": "8625 Monroe Rd, Ste D", "city": "Charlotte", "state": "NC", "stars": 4.5, "review_count": 63, "is_open": 1}, "oLhb7tWPNP5SttENVmGtHw": {"name": "Salud Cerveceria", "latitude": 35.2477994, "longitude": -80.8040482, "address": "3306-C N Davidson St", "city": "Charlotte", "state": "NC", "stars": 4.5, "review_count": 44, "is_open": 1}, "IIUK1lz_1upqYtHu8ZuClA": {"name": "Little Village Grill", "latitude": 35.2327134, "longitude": -80.8487821, "address": "710 W Trade St, Ste G", "city": "Charlotte", "state": "NC", "stars": 4.5, "review_count": 257, "is_open": 1}, "n-60saMwDrwBuQ8P7ByXJg": {"name": "Tic Toc Diner & Catering", "latitude": 35.230441, "longitude": -80.838086, "address": "512 N Tryon St", "city": "Charlotte", "state": "NC", "stars": 4.5, "review_count": 12, "is_open": 0}, "urgjbqhtZD20G5h3XM76wQ": {"name": "Halal Food Cart", "latitude": 35.2272368912, "longitude": -80.8428505808, "address": "101 N Tryon St", "city": "Charlotte", "state": "NC", "stars": 4.5, "review_count": 111, "is_open": 1}, "ugGwVOx0MOIHFBLFV3oYUg": {"name": "Golden Bakery", "latitude": 35.2037218, "longitude": -80.7605424, "address": "3145-B N Sharon Amity Rd", "city": "Charlotte", "state": "NC", "stars": 4.5, "review_count": 21, "is_open": 1}, "tJHF0eta2A_z5e9nTpONQg": {"name": "Fresh Med Mediterranean Fusion Food Truck", "latitude": 35.1971971, "longitude": -80.7999271, "address": "3500 Latrobe Dr", "city": "Charlotte", "state": "NC", "stars": 5.0, "review_count": 18, "is_open": 1}, "oV4wXa9_GEZWAYlyqKH8Ag": {"name": "Billy Jack's Shack", "latitude": 35.2473056, "longitude": -80.8048381, "address": "3220 N Davidson St", "city": "Charlotte", "state": "NC", "stars": 4.5, "review_count": 61, "is_open": 1}, "sdYkVaTy7EJwUkO8Ie_qPg": {"name": "Viva Chicken", "latitude": 35.2134205994, "longitude": -80.826022401, "address": "1617 Elizabeth Ave", "city": "Charlotte", "state": "NC", "stars": 4.5, "review_count": 906, "is_open": 1}, "gNmJnjwgj0h21-mlarhXBg": {"name": "The Herban Legend", "latitude": 35.2326781, "longitude": -80.8460822, "address": "", "city": "Charlotte", "state": "NC", "stars": 4.5, "review_count": 60, "is_open": 0}, "wlm9HjyeW20anJ-kVEMY6g": {"name": "Plato Pronto", "latitude": 35.2812359954, "longitude": -80.8987266943, "address": "5800 A Brookshire Blvd", "city": "Charlotte", "state": "NC", "stars": 4.5, "review_count": 11, "is_open": 1}, "hnt-s4ap_zweyhqiMAzgkA": {"name": "The Peaceful Dragon", "latitude": 35.1217046, "longitude": -80.9827473, "address": "12610 Steele Creek Rd", "city": "Charlotte", "state": "NC", "stars": 4.5, "review_count": 11, "is_open": 1}, "D0p4kpt1A950wQLOLs_j_Q": {"name": "Five Guys", "latitude": 35.310127, "longitude": -80.746716, "address": "8944 J M Keynes Dr", "city": "Charlotte", "state": "NC", "stars": 4.5, "review_count": 17, "is_open": 1}, "yBmDNVdEzW1ARUXYlKACIw": {"name": "Dilworth Tasting Room", "latitude": 35.2087438, "longitude": -80.8586005, "address": "300 E Tremont Ave", "city": "Charlotte", "state": "NC", "stars": 4.5, "review_count": 192, "is_open": 1}, "Eg3TRdo2y9ZtiJhykaNqiA": {"name": "Kung Poa Express", "latitude": 35.369963, "longitude": -80.8335584, "address": "12007 Sam Roper Dr", "city": "Charlotte", "state": "NC", "stars": 4.5, "review_count": 40, "is_open": 1}, "hjKK4Xr1P3vthm6ZArhg0A": {"name": "Sun Energy Smoothies", "latitude": 35.218616, "longitude": -80.7949943, "address": "2903 Central Ave, Ste B", "city": "Charlotte", "state": "NC", "stars": 5.0, "review_count": 18, "is_open": 1}, "5GJ60TyviQnyg2257CAGuA": {"name": "F\u016bD at Salud", "latitude": 35.2477994, "longitude": -80.8040482, "address": "3306A N Davidson St", "city": "Charlotte", "state": "NC", "stars": 4.5, "review_count": 89, "is_open": 0}, "a0ZZDR7OBTfqxoRtWDza9Q": {"name": "Brown Bag", "latitude": 35.060352, "longitude": -80.8124743, "address": "5231 Piper Station Dr", "city": "Charlotte", "state": "NC", "stars": 4.5, "review_count": 37, "is_open": 1}, "_q5KRey0wfvf1Z7yTjGMuQ": {"name": "Yofflers", "latitude": 35.0553151404, "longitude": -80.8350775548, "address": "11318 N Community House Rd, Ste 204", "city": "Charlotte", "state": "NC", "stars": 4.5, "review_count": 11, "is_open": 0}, "Ls-DK3JjBChL1gZEavL7oQ": {"name": "The Rogue Irish Pub and Kitchen", "latitude": 35.2018125, "longitude": -80.8437902, "address": "1315 East Blvd", "city": "Charlotte", "state": "NC", "stars": 4.5, "review_count": 89, "is_open": 0}, "xOd7QPtJvFlUPj2dcvMIGw": {"name": "Barcelona Wine Bar Charlotte", "latitude": 35.2114756, "longitude": -80.860049, "address": "101 W Worthington Ave, Ste 190", "city": "Charlotte", "state": "NC", "stars": 4.5, "review_count": 264, "is_open": 1}, "fLdLjrLfwWJ-hh4Uwz2zKA": {"name": "Fresh Chef Kitchen", "latitude": 35.1706231, "longitude": -80.8065903, "address": "2935 Providence Rd", "city": "Charlotte", "state": "NC", "stars": 4.5, "review_count": 69, "is_open": 0}, "22MYhTXwSXaS4rW2VOrR-w": {"name": "Jasmine Grill", "latitude": 35.1684737768, "longitude": -80.875257492, "address": "5033 South Blvd, Ste G", "city": "Charlotte", "state": "NC", "stars": 4.5, "review_count": 575, "is_open": 1}, "ObcMSGc1uotvpnwydoStIg": {"name": "Earl's Grocery", "latitude": 35.2136851, "longitude": -80.8260792, "address": "1609 Elizabeth Ave", "city": "Charlotte", "state": "NC", "stars": 4.5, "review_count": 206, "is_open": 1}, "DM9H5RsgwJM6rEYDJbITLQ": {"name": "Coffee House At Mountain Island", "latitude": 35.3250995, "longitude": -80.9463466, "address": "3611 Mt Holly Huntersville Rd", "city": "Charlotte", "state": "NC", "stars": 4.5, "review_count": 22, "is_open": 0}, "-UV2tt3gy57-5a29paA_4w": {"name": "Sub One Hoagie House", "latitude": 35.2339145, "longitude": -80.8416279, "address": "516 N Graham St", "city": "Charlotte", "state": "NC", "stars": 4.5, "review_count": 60, "is_open": 1}, "G2IEHnGT1EnGThtGu07_QQ": {"name": "Ace No 3", "latitude": 35.2278929, "longitude": -80.8209316, "address": "1001 Belmont Ave", "city": "Charlotte", "state": "NC", "stars": 5.0, "review_count": 57, "is_open": 1}, "p2sUxhNkYr39LkLL3b8yBw": {"name": "UpStage", "latitude": 35.2477994, "longitude": -80.8040482, "address": "3306-C N Davidson St", "city": "Charlotte", "state": "NC", "stars": 4.5, "review_count": 12, "is_open": 0}, "ExtP8z3SVyut_RICc9i_DA": {"name": "Zeitouni Grill", "latitude": 35.0686131, "longitude": -80.8425752, "address": "3419 Toringdon Way, Ste A-124", "city": "Charlotte", "state": "NC", "stars": 4.5, "review_count": 269, "is_open": 1}, "LMT7d1-KSv9BJqiLBEL5Iw": {"name": "Sakura Izakaya", "latitude": 35.095071, "longitude": -80.8641131, "address": "10215 Park Rd", "city": "Charlotte", "state": "NC", "stars": 4.5, "review_count": 14, "is_open": 1}, "u75PzfSOCGvXi5vqtx9DWQ": {"name": "Hazelnuts Creperie", "latitude": 35.0346832, "longitude": -80.8068499, "address": "9830 Rea Rd, Ste D", "city": "Charlotte", "state": "NC", "stars": 4.5, "review_count": 71, "is_open": 1}, "YXsu4fVoubcXvxZP-eT2vw": {"name": "Yaki Asia Fresh", "latitude": 35.1389403, "longitude": -80.7406913, "address": "1431 Sardis Rd N", "city": "Charlotte", "state": "NC", "stars": 4.5, "review_count": 118, "is_open": 1}, "x6n14NifL1K1-kimB83GVA": {"name": "Seoul Poke Bowl", "latitude": 35.1922563, "longitude": -80.8733216, "address": "3609 South Blvd, Ste D", "city": "Charlotte", "state": "NC", "stars": 4.5, "review_count": 207, "is_open": 1}, "6Pbrq60mA56WQU7SENbG0g": {"name": "Brooks Sandwich House", "latitude": 35.2453032, "longitude": -80.8115105, "address": "2710 N Brevard St", "city": "Charlotte", "state": "NC", "stars": 4.5, "review_count": 171, "is_open": 1}, "UNf4aybYOTs4EnPQgZJOVw": {"name": "Wrapway", "latitude": 35.312179, "longitude": -80.713576, "address": "10221 University City Blvd", "city": "Charlotte", "state": "NC", "stars": 4.5, "review_count": 34, "is_open": 1}, "zrEmWr6ue5yfxnKr4E2_jg": {"name": "Bleu Barn Bistro", "latitude": 35.1743999, "longitude": -80.9041817, "address": "", "city": "Charlotte", "state": "NC", "stars": 4.5, "review_count": 44, "is_open": 1}, "XHrdHR8lPP6VKQVnMUdlhw": {"name": "Queen City Craft and Gourmet", "latitude": 35.0620004303, "longitude": -80.7730200508, "address": "5349 Ballantyne Commons Pkwy, Ste 100", "city": "Charlotte", "state": "NC", "stars": 4.5, "review_count": 150, "is_open": 1}, "dHUb949NckE2GqtlSVlWQg": {"name": "Roaming Fork", "latitude": 35.2150714, "longitude": -80.8294747, "address": "", "city": "Charlotte", "state": "NC", "stars": 4.5, "review_count": 76, "is_open": 1}, "YOy1tOiMMOkrCQ4mO2i3eQ": {"name": "Metro Diner", "latitude": 35.0883799489, "longitude": -80.8605643598, "address": "8334 Pineville-Matthews Rd, Ste 110", "city": "Charlotte", "state": "NC", "stars": 4.5, "review_count": 548, "is_open": 1}, "vqG1Z2XpS_PryPsfY0CSng": {"name": "The Capital Grille", "latitude": 35.2283137726, "longitude": -80.8419989013, "address": "201 N Tryon St", "city": "Charlotte", "state": "NC", "stars": 4.5, "review_count": 454, "is_open": 1}, "kR1wadS21BaVm1n_5BXOsg": {"name": "Viva Raw", "latitude": 35.2277591, "longitude": -80.8381993, "address": "224 E 7th St", "city": "Charlotte", "state": "NC", "stars": 4.5, "review_count": 35, "is_open": 1}, "m3XOBJyAJIWEJJUpngVLLw": {"name": "Two Scoops Creamery", "latitude": 35.221885, "longitude": -80.8225322, "address": "913 Central Ave", "city": "Charlotte", "state": "NC", "stars": 4.5, "review_count": 257, "is_open": 1}, "hcjnOtiW7Bdym3-7PaLUzA": {"name": "Le Kebab Grill", "latitude": 35.3019365, "longitude": -80.7491376, "address": "350 E Mccullough Dr", "city": "Charlotte", "state": "NC", "stars": 4.5, "review_count": 432, "is_open": 1}, "BYmGU6vw6QFwB4Y5luT3Vw": {"name": "Community Matters Cafe", "latitude": 35.22936, "longitude": -80.855184719, "address": "821 W 1st St", "city": "Charlotte", "state": "NC", "stars": 5.0, "review_count": 30, "is_open": 1}, "Mtx3hL9V4lx4I04vrDTWJA": {"name": "The Lights Juicery & Cafe", "latitude": 35.0233596168, "longitude": -80.8483648554, "address": "16631 Lancaster Hwy", "city": "Charlotte", "state": "NC", "stars": 4.5, "review_count": 73, "is_open": 1}, "ZLNNXEZaCMhXuUovRTIGTw": {"name": "Owen's Bagel & Deli", "latitude": 35.208424, "longitude": -80.859759, "address": "2041 South Blvd", "city": "Charlotte", "state": "NC", "stars": 4.5, "review_count": 349, "is_open": 0}, "HX4Vi_HsxDw3jtrmKfCyUQ": {"name": "Rhino Market & Deli", "latitude": 35.2406984856, "longitude": -80.8132621273, "address": "2320 N Davidson St", "city": "Charlotte", "state": "NC", "stars": 4.5, "review_count": 21, "is_open": 1}, "9X-Z0IH4hxmVA6AzKQ3pEg": {"name": "Karma Kafe", "latitude": 35.2335751, "longitude": -80.8489878, "address": "120 N Cedar St", "city": "Charlotte", "state": "NC", "stars": 4.5, "review_count": 24, "is_open": 0}, "zIELz5s9LknJgaawrwg0Zg": {"name": "What The Fries", "latitude": 35.3301529, "longitude": -80.7325287, "address": "", "city": "Charlotte", "state": "NC", "stars": 5.0, "review_count": 54, "is_open": 1}, "3ZZUo_-T-JC6t15gHnhxGQ": {"name": "Crunch Bistro", "latitude": 35.0787683634, "longitude": -80.8173394203, "address": "6414 Rea Rd, Ste C2, The Shops At Piper Glen", "city": "Charlotte", "state": "NC", "stars": 4.5, "review_count": 63, "is_open": 0}, "QvxBnMcBPP1z_NAIYCqqdA": {"name": "Haberdish", "latitude": 35.246501, "longitude": -80.806128, "address": "3106 N Davidson St", "city": "Charlotte", "state": "NC", "stars": 4.5, "review_count": 984, "is_open": 1}, "Z072pEHdos2Gjj3nMdR6uA": {"name": "Luce Restaurant & Bar", "latitude": 35.2279985, "longitude": -80.8413468, "address": "214 N Tryon St, Ste J", "city": "Charlotte", "state": "NC", "stars": 4.5, "review_count": 219, "is_open": 1}, "pldfvm-zM2VU5m9a-j9cMQ": {"name": "Hazelnuts Creperie", "latitude": 35.2261961087, "longitude": -80.8448701835, "address": "200 S Tryon St", "city": "Charlotte", "state": "NC", "stars": 4.5, "review_count": 333, "is_open": 1}, "cVMZdxUhF25Xuxeon2yzDQ": {"name": "Island Cuisine", "latitude": 35.365984, "longitude": -80.786026, "address": "5332 Prosperity Church Rd, Ste A", "city": "Charlotte", "state": "NC", "stars": 4.5, "review_count": 85, "is_open": 1}, "6_I3WEiwzx4ZyPZ3vlEUsg": {"name": "Inizio Pizza Napoletana", "latitude": 35.1990692, "longitude": -80.8525254, "address": "2230 Park Rd, Ste 101", "city": "Charlotte", "state": "NC", "stars": 4.5, "review_count": 199, "is_open": 1}, "gsIlv9HRkN5XY11C259cOQ": {"name": "The Habit Burger Grill", "latitude": 35.214399, "longitude": -80.833366, "address": "209 S Kings Dr, Ste 103", "city": "Charlotte", "state": "NC", "stars": 4.5, "review_count": 93, "is_open": 1}, "PdB5NfTZnHWKXtbPvuprIA": {"name": "Circle G Restaurant", "latitude": 35.2726988, "longitude": -80.8896175, "address": "4818 Rozzelles Ferry Rd", "city": "Charlotte", "state": "NC", "stars": 4.5, "review_count": 33, "is_open": 1}, "Ye6Bdtw2lq5Y6FeX-p377Q": {"name": "Veltree", "latitude": 35.29692, "longitude": -80.75539, "address": "7945 N Tryon St, Unit 110", "city": "Charlotte", "state": "NC", "stars": 4.5, "review_count": 91, "is_open": 1}, "dy9VGj4N-sJD1bGse9y9Zw": {"name": "Deep Sea Seafood Market", "latitude": 35.1355697, "longitude": -80.7381149, "address": "10020 Monroe Rd", "city": "Charlotte", "state": "NC", "stars": 4.5, "review_count": 192, "is_open": 1}, "y14TQfHRL5Gkk-CorcR6bg": {"name": "Euro Grill & Cafe", "latitude": 35.2189966, "longitude": -80.797147, "address": "2719 Central Ave", "city": "Charlotte", "state": "NC", "stars": 4.5, "review_count": 78, "is_open": 1}, "KEGLWeFAWXvo0W2LnujhtQ": {"name": "Lang Van Vietnamese", "latitude": 35.23669, "longitude": -80.7745024, "address": "3019 Shamrock Dr", "city": "Charlotte", "state": "NC", "stars": 4.5, "review_count": 406, "is_open": 1}, "6OkrUovbGdN-bQuyxXcF9Q": {"name": "The Bohemian: A Wine Bar", "latitude": 35.2211799, "longitude": -80.813852, "address": "1319 Pecan Ave", "city": "Charlotte", "state": "NC", "stars": 4.5, "review_count": 34, "is_open": 1}, "SjjyWMp91IZO2f4pgj5gCg": {"name": "MI Barrio's Halal Food Cart", "latitude": 35.3053761163, "longitude": -80.7242516801, "address": "9430 University City Blvd", "city": "Charlotte", "state": "NC", "stars": 4.5, "review_count": 38, "is_open": 1}, "4xsgyzyQ5K50AMkc4CoZEA": {"name": "Corkscrew On 5th Wine & Coffee", "latitude": 35.230948, "longitude": -80.845096, "address": "412 W 5th St, Ste C120", "city": "Charlotte", "state": "NC", "stars": 4.5, "review_count": 52, "is_open": 1}, "TLWZK8NIpn4zI4_yut-q6Q": {"name": "Luna's Living Kitchen", "latitude": 35.2087220452, "longitude": -80.861431919, "address": "2102 S Blvd, Ste 150", "city": "Charlotte", "state": "NC", "stars": 4.5, "review_count": 287, "is_open": 0}, "vP4sY1QCP8Du4dzxG-I0WQ": {"name": "The Steak' N Hoagie Shop", "latitude": 35.244224, "longitude": -80.7800929, "address": "903 Eastway Dr", "city": "Charlotte", "state": "NC", "stars": 4.5, "review_count": 43, "is_open": 1}, "IE0QRqaUSW51RmShZ9dX1Q": {"name": "TIN Kitchen", "latitude": 35.2326781, "longitude": -80.8460822, "address": "", "city": "Charlotte", "state": "NC", "stars": 4.5, "review_count": 175, "is_open": 1}, "H-PmFfqAzQtWTS0XeWC_lw": {"name": "Greco Fresh Grille", "latitude": 35.0346742, "longitude": -80.805725, "address": "9820 E Rea Rd", "city": "Charlotte", "state": "NC", "stars": 4.5, "review_count": 223, "is_open": 1}, "dCHNk6OqM-bYH9JHRZxwvg": {"name": "Sharetea", "latitude": 35.2209507845, "longitude": -80.8181382861, "address": "1204 Central Ave, Ste 102", "city": "Charlotte", "state": "NC", "stars": 4.5, "review_count": 47, "is_open": 1}, "Tnc-QnFufxhnj32GC90C-Q": {"name": "Rhino Market & Deli", "latitude": 35.2297195889, "longitude": -80.8659141785, "address": "1500 W Morehead St, Ste E", "city": "Charlotte", "state": "NC", "stars": 4.5, "review_count": 229, "is_open": 1}, "JUhX-FMEqwojDlwHIS-9ng": {"name": "Pe\u00f1o Mediterranean Grill", "latitude": 35.3374379, "longitude": -80.7570791, "address": "2115 East Arbors Dr, Ste 190", "city": "Charlotte", "state": "NC", "stars": 4.5, "review_count": 74, "is_open": 1}, "e01WELWR6ODCder7onrIlA": {"name": "Tacos Don Sammy", "latitude": 35.2355136, "longitude": -80.9424895, "address": "6020 Wilkinson Blvd", "city": "Charlotte", "state": "NC", "stars": 4.5, "review_count": 34, "is_open": 1}, "bZtukyhyV1oVmUU3yRBPbQ": {"name": "Smelly Cat Coffee", "latitude": 35.2474048, "longitude": -80.8043246, "address": "514 E 36th St", "city": "Charlotte", "state": "NC", "stars": 4.5, "review_count": 460, "is_open": 1}, "su5sBvJrgaD5Sh1SnvYzkw": {"name": "Yummi Banh Mi Truck", "latitude": 35.1660032, "longitude": -80.7934798, "address": "", "city": "Charlotte", "state": "NC", "stars": 4.5, "review_count": 58, "is_open": 1}, "SEEy7DKuVbgw4Rai2BqEEQ": {"name": "Los Paisas", "latitude": 35.090159, "longitude": -80.858811, "address": "8318 Pineville-Matthews Rd", "city": "Charlotte", "state": "NC", "stars": 4.5, "review_count": 167, "is_open": 1}, "4GEDMStjXvSg-s4wacGRrw": {"name": "Gusto Farm to Street", "latitude": 35.1522311, "longitude": -80.8318968, "address": "4400 Sharon Rd", "city": "Charlotte", "state": "NC", "stars": 4.5, "review_count": 65, "is_open": 1}, "UMmM7RmhJeAVBtXmccFGrQ": {"name": "The Hobbyist", "latitude": 35.2384482, "longitude": -80.8161948, "address": "2100 N Davidson St, Ste D", "city": "Charlotte", "state": "NC", "stars": 4.5, "review_count": 56, "is_open": 1}, "DQIZ35zW26988gl4q_fDHA": {"name": "Craft Tasting Room and Growler Shop", "latitude": 35.2199698313, "longitude": -80.8570718085, "address": "1320 S Church St, Ste 100", "city": "Charlotte", "state": "NC", "stars": 4.5, "review_count": 173, "is_open": 1}, "19fdSca3MUoaGFNX2BrjTQ": {"name": "Umami Pok\u00e9Rito", "latitude": 35.088049, "longitude": -80.845964, "address": "7510 Pineville Matthews Rd", "city": "Charlotte", "state": "NC", "stars": 4.5, "review_count": 158, "is_open": 1}, "cFnumFhvgt_48p9v_EGl7g": {"name": "Rush Espresso", "latitude": 35.2256924826, "longitude": -80.8465453237, "address": "120 Brevard Ct", "city": "Charlotte", "state": "NC", "stars": 4.5, "review_count": 71, "is_open": 1}, "kN9MQJzWErsPyXzfxgx2_Q": {"name": "Stockyard Restaurant", "latitude": 35.2734512, "longitude": -80.8916921, "address": "4925 Rozzelles Ferry Rd", "city": "Charlotte", "state": "NC", "stars": 4.5, "review_count": 49, "is_open": 1}, "uf7ZQxweFF--RaIOJPme3A": {"name": "Link & Pin", "latitude": 35.199198, "longitude": -80.867991, "address": "155 New Bern St", "city": "Charlotte", "state": "NC", "stars": 4.5, "review_count": 25, "is_open": 1}, "2232XZ-3ub4S9cmrHJSDFg": {"name": "Ninety's Ice Cream & Sandwiches", "latitude": 35.3105707, "longitude": -80.7492861, "address": "9009 J M Keynes Dr, Ste 4", "city": "Charlotte", "state": "NC", "stars": 4.5, "review_count": 238, "is_open": 1}, "YpePlG2UW_mf-zhFaCgubA": {"name": "Bulla Gastrobar", "latitude": 35.1530651, "longitude": -80.8280475, "address": "4310 Sharon Road W01", "city": "Charlotte", "state": "NC", "stars": 4.5, "review_count": 251, "is_open": 1}, "JePoHo0qm7lHd2Nsg3zA3w": {"name": "Pasta & Provisions", "latitude": 35.1864682, "longitude": -80.8220131, "address": "1528 Providence Rd", "city": "Charlotte", "state": "NC", "stars": 4.5, "review_count": 111, "is_open": 1}, "Qsg-2Coum0ccbXuJWDwZqA": {"name": "Dogwood Southern Table & Bar", "latitude": 35.145938695, "longitude": -80.8300620574, "address": "4905 Ashley Park Ln, Ste D", "city": "Charlotte", "state": "NC", "stars": 4.5, "review_count": 335, "is_open": 1}, "9FuAdp2UiFyaWPlAmT7C1A": {"name": "Pok\u00e9 Cafe", "latitude": 35.0562932, "longitude": -80.8354001, "address": "11318 N Community House Rd, Ste 203", "city": "Charlotte", "state": "NC", "stars": 4.5, "review_count": 85, "is_open": 1}, "3aJEg4C6980DTPQrBHh6qQ": {"name": "Just Fresh", "latitude": 35.2283621, "longitude": -80.8427789, "address": "127 N Tryon St", "city": "Charlotte", "state": "NC", "stars": 4.5, "review_count": 11, "is_open": 0}, "JzsyGtlPsEuPTndUMLph0g": {"name": "Mojo's Famous Hot Dogs", "latitude": 35.278766, "longitude": -80.83513, "address": "4301 Statesville Rd", "city": "Charlotte", "state": "NC", "stars": 4.5, "review_count": 17, "is_open": 1}, "tDst_Aj42Hc6FglopVs2Cg": {"name": "Bang Bang Burgers South End", "latitude": 35.2104474, "longitude": -80.8633349, "address": "235 W Tremont Ave, Ste 101", "city": "Charlotte", "state": "NC", "stars": 4.5, "review_count": 156, "is_open": 1}, "KaxjIAYLhqXN8-p_iZwgBw": {"name": "Pasta & Provisions", "latitude": 35.1669822, "longitude": -80.8508653, "address": "4700 Park Rd", "city": "Charlotte", "state": "NC", "stars": 4.5, "review_count": 92, "is_open": 1}, "jc7hclnZFxdEuo6aJLB5uw": {"name": "Lenny's Press Box", "latitude": 35.222703493, "longitude": -80.8717750223, "address": "", "city": "Charlotte", "state": "NC", "stars": 5.0, "review_count": 13, "is_open": 1}, "xFUZ9dI-h0NHjjJv8P1uFw": {"name": "Wolfman Pizza - Charlotte", "latitude": 35.1171964546, "longitude": -80.857392698, "address": "8504 Park Rd", "city": "Charlotte", "state": "NC", "stars": 4.5, "review_count": 75, "is_open": 1}, "IuONl7tvvBovSb24-iR_DA": {"name": "Mama Gee's Takeout Restaurant", "latitude": 35.2473731, "longitude": -80.8569734, "address": "509 Beatties Ford Rd", "city": "Charlotte", "state": "NC", "stars": 5.0, "review_count": 13, "is_open": 1}, "QMOfd4Am5W-_Cmg_pKgzkA": {"name": "Pho Viet & Seafood", "latitude": 35.1631678, "longitude": -80.7414058, "address": "7146 E Independence Blvd, Ste F", "city": "Charlotte", "state": "NC", "stars": 4.5, "review_count": 24, "is_open": 1}, "pCb0jYxksLR562vV7As1bQ": {"name": "Chris' Deli", "latitude": 35.2020194, "longitude": -80.781657, "address": "3619 E Independence Blvd", "city": "Charlotte", "state": "NC", "stars": 4.5, "review_count": 82, "is_open": 1}, "oNQ6Q6IHh5GnLgllfM1dMQ": {"name": "Catch On Seafood Market", "latitude": 35.2191006454, "longitude": -80.8137995595, "address": "1801 A Commonwealth Ave", "city": "Charlotte", "state": "NC", "stars": 5.0, "review_count": 35, "is_open": 0}, "gJfcAJvZ2RQgN8ksPNWeNw": {"name": "Natural Blendz", "latitude": 35.1355636796, "longitude": -80.7380024615, "address": "10020 Monroe Rd, Ste 110", "city": "Charlotte", "state": "NC", "stars": 5.0, "review_count": 24, "is_open": 0}, "5dh5MmyAZExehGndb1IRIQ": {"name": "Bistro La Bon", "latitude": 35.176208, "longitude": -80.802545, "address": "274 S Sharon Amity Rd", "city": "Charlotte", "state": "NC", "stars": 4.5, "review_count": 40, "is_open": 1}, "xjPcUJgyJ78lhkoQuNxbZA": {"name": "The Artisan's Palate", "latitude": 35.241229, "longitude": -80.7977646589, "address": "1218 E 36th St, Ste A", "city": "Charlotte", "state": "NC", "stars": 4.5, "review_count": 16, "is_open": 1}, "9Xm2GfG8Rnbb1_CmXyrm3g": {"name": "Coaltrane's Char Grill", "latitude": 35.2201725, "longitude": -80.8126243, "address": "1518 Central Ave", "city": "Charlotte", "state": "NC", "stars": 4.5, "review_count": 151, "is_open": 1}, "fPmPROBqVT8-D-aTc6VBEQ": {"name": "Al-basha", "latitude": 35.2035786448, "longitude": -80.7605652134, "address": "3145 N Sharon Amity Rd, Ste A", "city": "Charlotte", "state": "NC", "stars": 4.5, "review_count": 60, "is_open": 1}, "-RTEVGUP2wnKB3PV-_fueg": {"name": "Stacey's Deli & Catering", "latitude": 35.1196990521, "longitude": -80.9563449025, "address": "10720 S Tryon St, Ste O", "city": "Charlotte", "state": "NC", "stars": 4.5, "review_count": 19, "is_open": 1}, "Z_U9Y_SFMHaGAIr_iDamOA": {"name": "Kosta's Kitchen", "latitude": 35.1902917, "longitude": -80.9303507, "address": "2925 Yorkmont Rd", "city": "Charlotte", "state": "NC", "stars": 4.5, "review_count": 20, "is_open": 1}, "UpNnjV6p5GVPX6r_itOGUg": {"name": "Rai Lay Thai", "latitude": 35.2142391, "longitude": -80.855509, "address": "1520 South Blvd, Ste 130", "city": "Charlotte", "state": "NC", "stars": 4.5, "review_count": 270, "is_open": 1}, "xtI0IrtdusfRNhr91Gvw8Q": {"name": "Cicchetti", "latitude": 35.2265181074, "longitude": -80.8419912963, "address": "100 N Tryon St", "city": "Charlotte", "state": "NC", "stars": 4.5, "review_count": 18, "is_open": 1}, "VJ4fKEeTljlRgCTfYdcs_Q": {"name": "North Italia - Charlotte", "latitude": 35.217223, "longitude": -80.855663, "address": "1414 S Tryon St, Ste 140", "city": "Charlotte", "state": "NC", "stars": 4.5, "review_count": 46, "is_open": 1}, "CKNCkp6idxFd0KY18iGv5Q": {"name": "Second Helping", "latitude": 35.2184940549, "longitude": -80.7950326357, "address": "2903-C Central Ave", "city": "Charlotte", "state": "NC", "stars": 4.5, "review_count": 16, "is_open": 0}, "KrAbQtbH6NWSf3Vlzl5jjg": {"name": "Lupitas Carniceria & Tortilleria", "latitude": 35.163886, "longitude": -80.876709, "address": "5316 South Blvd", "city": "Charlotte", "state": "NC", "stars": 5.0, "review_count": 26, "is_open": 1}, "er56AAp9r8mEJBAhaG02Xg": {"name": "Island Hub Restaurant & Lounge", "latitude": 35.1999220757, "longitude": -80.7956879586, "address": "3723 Monroe Rd", "city": "Charlotte", "state": "NC", "stars": 4.5, "review_count": 51, "is_open": 0}, "Ad6MuVLFW4PlFZ4cAEnfwQ": {"name": "Daily Mews Cat Cafe", "latitude": 35.1988743, "longitude": -80.7954054, "address": "3748 Monroe Rd", "city": "Charlotte", "state": "NC", "stars": 5.0, "review_count": 20, "is_open": 1}, "Ff3FKbwZ-fCT74G1F3_j1g": {"name": "Crunch Bistro", "latitude": 35.1523851, "longitude": -80.8321252, "address": "Southpark Mall, 4400 Sharon Rd", "city": "Charlotte", "state": "NC", "stars": 4.5, "review_count": 41, "is_open": 0}, "ZVMoTe5ZQ99gYVUydKbjqg": {"name": "Green Brothers Juice", "latitude": 35.1990911178, "longitude": -80.8525254, "address": "2230 Park Rd, Ste 103", "city": "Charlotte", "state": "NC", "stars": 4.5, "review_count": 34, "is_open": 1}, "gvyZFfaB2IO6DLXTZI7eag": {"name": "Great Harvest Bread", "latitude": 35.206845, "longitude": -80.835242, "address": "901 S Kings Dr", "city": "Charlotte", "state": "NC", "stars": 4.5, "review_count": 28, "is_open": 1}, "G1u5Smf_IWMb4oOjqUD2Tw": {"name": "Green Flute Cafe", "latitude": 35.1525015, "longitude": -80.8414805, "address": "5821 Fairview Rd, Ste G-11", "city": "Charlotte", "state": "NC", "stars": 4.5, "review_count": 19, "is_open": 0}, "ZtQ4u53NHWTg-hQZhED88Q": {"name": "Babushka's Pierogi", "latitude": 35.0898188, "longitude": -80.8661885, "address": "8700 Pineville-Matthews Rd, Ste 570", "city": "Charlotte", "state": "NC", "stars": 4.5, "review_count": 87, "is_open": 0}, "8NtaQ65hBfi4aql6OsLTrQ": {"name": "Cilantro Noodle", "latitude": 35.2190322, "longitude": -80.8118508, "address": "2001 Commonwealth Ave", "city": "Charlotte", "state": "NC", "stars": 4.5, "review_count": 116, "is_open": 1}, "MFOkTx2WUFgWbAxQ86dEoQ": {"name": "CHAAT 'N' DOSA", "latitude": 35.0538569, "longitude": -80.8154264, "address": "8624 Camfield St, Ste C", "city": "Charlotte", "state": "NC", "stars": 4.5, "review_count": 11, "is_open": 1}, "nLmgrCtMOkenVoJm2n8O4g": {"name": "Caribou Coffee", "latitude": 35.227777, "longitude": -80.8428821, "address": "100 N Tryon St, Ste 270", "city": "Charlotte", "state": "NC", "stars": 4.5, "review_count": 29, "is_open": 1}, "TenNB5TtwPxJ5EoZQ4WjaA": {"name": "YAFO Kitchen", "latitude": 35.2211164, "longitude": -80.8155026, "address": "1331 Central Ave, Ste 101", "city": "Charlotte", "state": "NC", "stars": 4.5, "review_count": 132, "is_open": 1}, "yrUDeng1LrDvgyyjI5GiHA": {"name": "Pho Quynh", "latitude": 35.2112960815, "longitude": -80.7613372803, "address": "4900 Central Ave", "city": "Charlotte", "state": "NC", "stars": 4.5, "review_count": 48, "is_open": 1}, "vOdiLz0dTiyHmkbv61HYGQ": {"name": "Ty's Wings & Tings", "latitude": 35.234572, "longitude": -80.7376591, "address": "5708 N Sharon Amity Rd, Ste H", "city": "Charlotte", "state": "NC", "stars": 4.5, "review_count": 71, "is_open": 1}, "USleI8g1UVN9-9jm-b4uIg": {"name": "The Fig Tree Restaurant", "latitude": 35.216586, "longitude": -80.822557, "address": "1601 East 7th St", "city": "Charlotte", "state": "NC", "stars": 4.5, "review_count": 431, "is_open": 1}, "TZmMsbw5TbRqv8rmKj_aGg": {"name": "The Common Market", "latitude": 35.2189339, "longitude": -80.8117172, "address": "2007 Commonwealth Ave", "city": "Charlotte", "state": "NC", "stars": 4.5, "review_count": 263, "is_open": 1}, "uMbSCjf6D9-rZOOXQyz9LA": {"name": "Crema Espresso Bar and Cafe", "latitude": 35.203076, "longitude": -80.844733, "address": "1235 E Blvd, Ste B", "city": "Charlotte", "state": "NC", "stars": 4.5, "review_count": 71, "is_open": 1}, "ByyMZI6YHeBuYlAeQ7DaEw": {"name": "Nile Ethiopian Restaurant & Grocery", "latitude": 35.2027137, "longitude": -80.760997, "address": "3113 N Sharon Amity Rd", "city": "Charlotte", "state": "NC", "stars": 5.0, "review_count": 32, "is_open": 1}, "Err-UlwpMFaCIQ4mAVxmzQ": {"name": "Foxcroft Wine Co - Dilworth", "latitude": 35.202596, "longitude": -80.845205, "address": "1235 East Blvd, Ste I", "city": "Charlotte", "state": "NC", "stars": 4.5, "review_count": 105, "is_open": 1}, "xJAXkMIgnWNpqyGCosmp2Q": {"name": "Crispy Banh Mi", "latitude": 35.1680048, "longitude": -80.8765329, "address": "5100 S Blvd, Ste C", "city": "Charlotte", "state": "NC", "stars": 4.5, "review_count": 278, "is_open": 1}, "EgAuMs5nY-NpvljxF2n-Uw": {"name": "Aroy Thai", "latitude": 35.1872673, "longitude": -80.7585943, "address": "5301 E Independence Blvd, Ste F", "city": "Charlotte", "state": "NC", "stars": 4.5, "review_count": 123, "is_open": 1}, "ckycv0GfCz-Ye2V09BFl8Q": {"name": "Quickly Bubble Tea", "latitude": 35.3110568368, "longitude": -80.7159943832, "address": "10039 University City Blvd, Ste L", "city": "Charlotte", "state": "NC", "stars": 4.5, "review_count": 79, "is_open": 1}, "KbhrsTQEea2RF_94YWnBdQ": {"name": "Anita's Mexican Grill", "latitude": 35.190365, "longitude": -80.9290989, "address": "2904 Yorkmont Rd, Ste C", "city": "Charlotte", "state": "NC", "stars": 4.5, "review_count": 126, "is_open": 1}, "sHIG0hjQHoxal9a1zwSinw": {"name": "Abugida Ethiopian Cafe & Restaurant", "latitude": 35.217977394, "longitude": -80.7939415053, "address": "3007 Central Ave", "city": "Charlotte", "state": "NC", "stars": 5.0, "review_count": 141, "is_open": 1}, "Whgv09ClXXsjNTgjFl4XUw": {"name": "Steam It Up Seafood", "latitude": 35.306554, "longitude": -80.8408062, "address": "5304 Sunset Rd, Ste F", "city": "Charlotte", "state": "NC", "stars": 4.5, "review_count": 45, "is_open": 1}, "v72XMTh-dI3L6kHZSRpzpw": {"name": "Capishe Real Italian Kitchen", "latitude": 35.2171196, "longitude": -80.8480233, "address": "500 E Morehead St, Ste 100", "city": "Charlotte", "state": "NC", "stars": 4.5, "review_count": 358, "is_open": 1}, "WpswWSp1zHdxrZC4TftFJg": {"name": "Steak 'n Hoagie Shop", "latitude": 35.1942153218, "longitude": -80.8724895013, "address": "3401 - C South Blvd", "city": "Charlotte", "state": "NC", "stars": 4.5, "review_count": 27, "is_open": 1}, "05bBnawpe-Ahy53bt4R5gg": {"name": "Town Brewing Company", "latitude": 35.23004, "longitude": -80.8654966, "address": "800 Grandin Rd", "city": "Charlotte", "state": "NC", "stars": 4.5, "review_count": 65, "is_open": 1}, "jsc1SZ9dYG_23zzzurD9GQ": {"name": "Greco Fresh Grille", "latitude": 35.1051116, "longitude": -80.9872994, "address": "12806 South Tryon St", "city": "Charlotte", "state": "NC", "stars": 4.5, "review_count": 43, "is_open": 1}, "Wuo8bVfUscGkJaWSSyNGlA": {"name": "Va Da Vie", "latitude": 35.174249, "longitude": -80.849634, "address": "4203 Park Rd", "city": "Charlotte", "state": "NC", "stars": 4.5, "review_count": 229, "is_open": 0}, "OwzqgrpKs9nojICU65hhzg": {"name": "Pizzeria Sapienza CLT", "latitude": 35.2317856, "longitude": -80.8382546, "address": "620 N Church St", "city": "Charlotte", "state": "NC", "stars": 4.5, "review_count": 71, "is_open": 1}, "QEgfK_TKY8bwK-YzKDdkGw": {"name": "Lumiere French Kitchen", "latitude": 35.19508, "longitude": -80.825792, "address": "1039 Providence Rd", "city": "Charlotte", "state": "NC", "stars": 4.5, "review_count": 139, "is_open": 0}, "pkPGkiFYWrB6guAM5BprkQ": {"name": "Pasta & Provisions", "latitude": 35.2175077, "longitude": -80.8640915, "address": "1600 S Mint St", "city": "Charlotte", "state": "NC", "stars": 5.0, "review_count": 23, "is_open": 1}, "yt0PCCJN9hUsZhB210rsOg": {"name": "The Common Market Oakwold", "latitude": 35.1938997, "longitude": -80.785648, "address": "4420 Monroe Rd", "city": "Charlotte", "state": "NC", "stars": 4.5, "review_count": 87, "is_open": 1}, "j2Qh8_Xy5rytclGpId-bHg": {"name": "Waterbean Coffee", "latitude": 35.2312744, "longitude": -80.836849, "address": "616 N Tryon St", "city": "Charlotte", "state": "NC", "stars": 4.5, "review_count": 39, "is_open": 1}, "13-n6Gm0AK0QK28iatttWQ": {"name": "Laurel Market", "latitude": 35.2021771, "longitude": -80.8242192, "address": "114 Cherokee Rd", "city": "Charlotte", "state": "NC", "stars": 4.5, "review_count": 108, "is_open": 1}, "1hfYBwAI7pFz50l5n4JpqQ": {"name": "Noda Bodega", "latitude": 35.2416494979, "longitude": -80.7980855182, "address": "1200 E 36th St", "city": "Charlotte", "state": "NC", "stars": 4.5, "review_count": 176, "is_open": 1}, "SySedNNHZmfLGwn1GuHghQ": {"name": "Waterbean Coffee", "latitude": 35.2125426, "longitude": -80.8356906, "address": "1111 Metropolitan Ave, Ste 160", "city": "Charlotte", "state": "NC", "stars": 4.5, "review_count": 25, "is_open": 1}, "1_pgCgtK2kiM7SyXWbznYQ": {"name": "Hello Chicken", "latitude": 35.0895008, "longitude": -80.865205, "address": "8700 Pineville-Matthews Rd", "city": "Charlotte", "state": "NC", "stars": 5.0, "review_count": 101, "is_open": 1}, "xlXsgKzZHJww0KTA1TIZIA": {"name": "131 MAIN Restaurant", "latitude": 35.150304, "longitude": -80.8405705, "address": "5970 Fairview Rd, Ste 100", "city": "Charlotte", "state": "NC", "stars": 4.5, "review_count": 75, "is_open": 1}, "ryhFIQc4NbAZIfq3JUvf1Q": {"name": "CCs Sweet Potato Pies", "latitude": 35.3202223, "longitude": -80.8875861, "address": "", "city": "Charlotte", "state": "NC", "stars": 4.5, "review_count": 15, "is_open": 0}, "Cbr_THdFrhePgJoqQ9X6gQ": {"name": "Pho Hoa Noodle Soup", "latitude": 35.217429, "longitude": -80.794365, "address": "3000 Central Ave, Ste 1", "city": "Charlotte", "state": "NC", "stars": 4.5, "review_count": 283, "is_open": 1}, "GaA2yuytF13P41DpmbLwoQ": {"name": "Undercurrent Coffee", "latitude": 35.21827, "longitude": -80.8118, "address": "2012 Commonwealth Ave", "city": "Charlotte", "state": "NC", "stars": 4.5, "review_count": 108, "is_open": 1}, "Oz90Z2HDQOTrAHdFhFUZ_g": {"name": "Queen City Grounds", "latitude": 35.232641, "longitude": -80.837547, "address": "644 N Church St", "city": "Charlotte", "state": "NC", "stars": 4.5, "review_count": 117, "is_open": 1}, "DyOzNIeXUksPNLXYHnB-oQ": {"name": "Sabor Latin Street Grill", "latitude": 35.2162131, "longitude": -80.8216897, "address": "415 Hawthorne Ln", "city": "Charlotte", "state": "NC", "stars": 4.5, "review_count": 861, "is_open": 1}, "HrR_2-HUE6cqnoz1zMN9AQ": {"name": "Omaggio Pizzeria", "latitude": 35.2133541063, "longitude": -80.8345772705, "address": "1055 Metropolitan Ave, Ste 130", "city": "Charlotte", "state": "NC", "stars": 4.5, "review_count": 253, "is_open": 1}, "q_Oe5sLa138EA-AY6nggeQ": {"name": "China Go Go", "latitude": 35.0939961, "longitude": -80.8671342, "address": "10405-B Park Rd", "city": "Charlotte", "state": "NC", "stars": 4.5, "review_count": 68, "is_open": 1}, "x9XdPKOe7cJj9QsNEda0LA": {"name": "Duckworth's Grill & Taphouse Rea Farms", "latitude": 35.053883, "longitude": -80.773379, "address": "9805 Sandy Rock Pl, Ste D", "city": "Charlotte", "state": "NC", "stars": 4.5, "review_count": 73, "is_open": 1}, "Azy2vmC47uHSkZE2fdvBjA": {"name": "Brewers at 4001 Yancey", "latitude": 35.1865169, "longitude": -80.8780336, "address": "4001-A Yancey Rd", "city": "Charlotte", "state": "NC", "stars": 4.5, "review_count": 300, "is_open": 1}, "sXQ1EhIRcXWzB9zVxNRmfw": {"name": "Poboy's Low Country Seafood Market", "latitude": 35.2427824, "longitude": -80.8890125, "address": "3022 Freedom Dr", "city": "Charlotte", "state": "NC", "stars": 4.5, "review_count": 203, "is_open": 1}, "PoQb6so_yIXs35jZV-k9oQ": {"name": "Trade And Lore", "latitude": 35.2477661463, "longitude": -80.8040625966, "address": "3306 N Davidson St", "city": "Charlotte", "state": "NC", "stars": 4.5, "review_count": 99, "is_open": 0}, "kNa3FvRAhM2oKYFoilVDzQ": {"name": "Yamazaru", "latitude": 35.2081108093, "longitude": -80.8630752563, "address": "2173 Hawkins St, Ste A", "city": "Charlotte", "state": "NC", "stars": 4.5, "review_count": 307, "is_open": 1}, "JJ4pqYNC8ugWJSk2Xw2RgA": {"name": "9 Spices Indian Cuisine", "latitude": 35.039035, "longitude": -80.7935959, "address": "8145 Ardrey Kell Rd", "city": "Charlotte", "state": "NC", "stars": 4.5, "review_count": 23, "is_open": 1}, "zwg2PdDB6hac2mMjYkUhaQ": {"name": "Tour de Food", "latitude": 35.2326781, "longitude": -80.8460822, "address": "", "city": "Charlotte", "state": "NC", "stars": 4.5, "review_count": 22, "is_open": 0}, "38LootZ9dawR1KpVHCNLeA": {"name": "Deli st", "latitude": 35.219082, "longitude": -80.7966386, "address": "2801 Central Ave", "city": "Charlotte", "state": "NC", "stars": 4.5, "review_count": 59, "is_open": 1}, "sVGvJitbv14CrHbCSkNTTg": {"name": "Your Pie", "latitude": 35.204422, "longitude": -80.864091, "address": "2400 S Blvd, Ste 100", "city": "Charlotte", "state": "NC", "stars": 4.5, "review_count": 71, "is_open": 0}, "o3XMuqAlb-aEgJ9B3tJ5YQ": {"name": "Sheng Ramen", "latitude": 35.053668, "longitude": -80.8469039, "address": "15201 John J Delaney Dr", "city": "Charlotte", "state": "NC", "stars": 4.5, "review_count": 111, "is_open": 1}, "bJ44rSxMNTAAF_WGI_jDEw": {"name": "AQUA e VINO", "latitude": 35.156937, "longitude": -80.7944918, "address": "4219 Providence Rd, Ste 3", "city": "Charlotte", "state": "NC", "stars": 4.5, "review_count": 68, "is_open": 1}, "XG4sSq0JQ-3o3KrN-0d8Pg": {"name": "Drury Inn & Suites Charlotte University Place", "latitude": 35.3072243, "longitude": -80.7549698, "address": "415 W WT Harris Blvd", "city": "Charlotte", "state": "NC", "stars": 4.5, "review_count": 45, "is_open": 1}, "G7QGwPZjCVmvcEsC3ARoYg": {"name": "The Corner Bar", "latitude": 35.1382292, "longitude": -80.9314267, "address": "2016 Ayrsley Town Blvd, Ste A1", "city": "Charlotte", "state": "NC", "stars": 4.5, "review_count": 108, "is_open": 1}, "eDUgc8ui9KJJK1BAruQAoQ": {"name": "Holy City Waffles", "latitude": 35.1105564, "longitude": -80.7103532, "address": "", "city": "Charlotte", "state": "NC", "stars": 4.5, "review_count": 24, "is_open": 1}, "rv0-ZcAbWkvpomaK0BhQrA": {"name": "Fin & Fino", "latitude": 35.2248537, "longitude": -80.8486127, "address": "135 Levine Avenue Of The Arts, Ste 100", "city": "Charlotte", "state": "NC", "stars": 4.5, "review_count": 175, "is_open": 1}, "bFneaB_EoGdDfIi5z6jnyw": {"name": "Common Market SouthEnd", "latitude": 35.2104474, "longitude": -80.8633349, "address": "235 West Tremont Ave, Ste 103", "city": "Charlotte", "state": "NC", "stars": 4.5, "review_count": 38, "is_open": 1}, "FGy4UJ1Qri_KruPZiPmWYQ": {"name": "Viva Chicken", "latitude": 35.0705847, "longitude": -80.8444573, "address": "12206 Copper Way", "city": "Charlotte", "state": "NC", "stars": 4.5, "review_count": 449, "is_open": 1}, "CqERKXl7JB-FmlsiDekg0Q": {"name": "Magnolia's Poboys", "latitude": 35.1660032, "longitude": -80.7934798, "address": "", "city": "Charlotte", "state": "NC", "stars": 4.5, "review_count": 16, "is_open": 1}, "OgL6iDP9-Z57C59ZXm9pFw": {"name": "Flower Child- Charlotte", "latitude": 35.2150578, "longitude": -80.8564819, "address": "1537 Camden Rd", "city": "Charlotte", "state": "NC", "stars": 4.5, "review_count": 104, "is_open": 1}, "aE-02jgBVhV56x0kbfvSIA": {"name": "YAFO Kitchen", "latitude": 35.1565581319, "longitude": -80.8243272454, "address": "720 Gov Morrison St, Ste 120", "city": "Charlotte", "state": "NC", "stars": 4.5, "review_count": 488, "is_open": 1}, "Ph29r03lKu-dRRuiWnM7-A": {"name": "Nawabs Kebabs", "latitude": 35.3275867, "longitude": -80.7395005, "address": "10210 Berkeley Place Dr, Ste 120", "city": "Charlotte", "state": "NC", "stars": 4.5, "review_count": 17, "is_open": 1}, "-2pmn-oTJeybmDrL-ojwrw": {"name": "New Wrap Order", "latitude": 35.1660032, "longitude": -80.7934798, "address": "", "city": "Charlotte", "state": "NC", "stars": 4.5, "review_count": 25, "is_open": 0}, "zr8Ojsm-yNhvfTzBzcKU9w": {"name": "Hazelnuts Creperie", "latitude": 35.2277591, "longitude": -80.8381993, "address": "224 E 7th St", "city": "Charlotte", "state": "NC", "stars": 4.5, "review_count": 90, "is_open": 1}, "9h2W6JBWILS_RwlpIBSEig": {"name": "Due Amici Pizza", "latitude": 35.367179, "longitude": -80.786418, "address": "5346 Prosperity Church Rd", "city": "Charlotte", "state": "NC", "stars": 4.5, "review_count": 203, "is_open": 1}, "ICqeMnKHCj1LDboz8nyWnQ": {"name": "Carolina Beer Temple", "latitude": 35.138149, "longitude": -80.933113, "address": "2127 Ayrsley Town Blvd, Ste 101-B", "city": "Charlotte", "state": "NC", "stars": 4.5, "review_count": 38, "is_open": 1}, "Es0BG2vF5Jhk1SBbXvUF5Q": {"name": "Aussie  Fish & Chips", "latitude": 35.3505441636, "longitude": -80.8417056128, "address": "7340 Smith Corners Blvd, Ste 100", "city": "Charlotte", "state": "NC", "stars": 4.5, "review_count": 15, "is_open": 0}, "eensWDiUpOyEzyEDjR2IXQ": {"name": "Cafe Fior", "latitude": 35.0528474, "longitude": -80.8517865, "address": "14825 Ballantyne Village Way, Ste 135", "city": "Charlotte", "state": "NC", "stars": 4.5, "review_count": 14, "is_open": 1}, "5q6Xh-UcJa78bp6dzyaE7w": {"name": "Duck Donuts", "latitude": 35.2026242, "longitude": -80.8444191, "address": "1710 Kenilworth Ave, Ste 220", "city": "Charlotte", "state": "NC", "stars": 4.5, "review_count": 492, "is_open": 1}, "0QdYrqcJTJTvQNk-1WsCbA": {"name": "Gil's Kitchen", "latitude": 35.128067, "longitude": -80.874879, "address": "7631 Sharon Lake Rd, Ste J", "city": "Charlotte", "state": "NC", "stars": 4.5, "review_count": 34, "is_open": 0}, "jRxLnJ9my31Re_O2MvQGhw": {"name": "The Tasty Bowl Subs N Such", "latitude": 35.1328203, "longitude": -80.9529974, "address": "2900 Westinghouse Blvd, Ste 116", "city": "Charlotte", "state": "NC", "stars": 5.0, "review_count": 122, "is_open": 1}, "fvzGMwmqWkMMsurbCOsM5w": {"name": "Ohana Poke", "latitude": 35.2253544, "longitude": -80.8461468, "address": "320 South Tryon St, Ste 114", "city": "Charlotte", "state": "NC", "stars": 5.0, "review_count": 17, "is_open": 1}, "ZNA27YNqJPVtN_H76HMFYQ": {"name": "Mac Tabby Cat Cafe", "latitude": 35.2469918, "longitude": -80.8054654, "address": "3204 N Davidson St", "city": "Charlotte", "state": "NC", "stars": 5.0, "review_count": 64, "is_open": 1}, "rWSxCNYk6l7J0M4OZNYq9w": {"name": "Lincoln Street Kitchen & Cocktails", "latitude": 35.2200164, "longitude": -80.8568855, "address": "1320 S Church St, Ste 400", "city": "Charlotte", "state": "NC", "stars": 4.5, "review_count": 21, "is_open": 1}, "ak0zg848hiMkT1hQwnIf0w": {"name": "Koffee Kup Cafeteria", "latitude": 35.2168382005, "longitude": -80.8820849285, "address": "1520 W Blvd, Ste H", "city": "Charlotte", "state": "NC", "stars": 4.5, "review_count": 15, "is_open": 0}, "t8V_P7ZzRrhDQoqeoGVahQ": {"name": "The Cellar at Duckworth's", "latitude": 35.22924, "longitude": -80.83971, "address": "330 N Tryon St", "city": "Charlotte", "state": "NC", "stars": 4.5, "review_count": 574, "is_open": 1}, "eGsKUwNePmHUM2CqGIuxUA": {"name": "Rita's Ice & Custard", "latitude": 35.1348587126, "longitude": -80.7368168235, "address": "Galleria Commons, 1605 Galleria Blvd, Ste 140", "city": "Charlotte", "state": "NC", "stars": 5.0, "review_count": 11, "is_open": 0}, "9wgtfID8mrrd0-oeDpq7Hw": {"name": "Queen City Bites & Crafts", "latitude": 35.2256661, "longitude": -80.8468307, "address": "135 Brevard Ct", "city": "Charlotte", "state": "NC", "stars": 4.5, "review_count": 106, "is_open": 1}, "DWZ0-MtRSJJjHe9VV7yl5A": {"name": "Las Lupitas", "latitude": 35.2581509, "longitude": -80.7788955, "address": "5210 N Tryon St", "city": "Charlotte", "state": "NC", "stars": 4.5, "review_count": 57, "is_open": 1}, "Rs-VhTqmuAdHg3CGGUr4Dg": {"name": "Orrman's Cheese Shop", "latitude": 35.2277626, "longitude": -80.8379816, "address": "224 E 7th St", "city": "Charlotte", "state": "NC", "stars": 4.5, "review_count": 60, "is_open": 1}, "PqcOSnCsJTT9Yd2xWKIMWw": {"name": "La Shish Kabob", "latitude": 35.2028381, "longitude": -80.7609537, "address": "3117-A N Sharon Amity", "city": "Charlotte", "state": "NC", "stars": 4.5, "review_count": 336, "is_open": 1}, "FVC25MtResY1RdLywi_6fw": {"name": "Bardo", "latitude": 35.2192047749, "longitude": -80.8608496321, "address": "1508 S Mint St, Unit B", "city": "Charlotte", "state": "NC", "stars": 4.5, "review_count": 86, "is_open": 1}, "e0kSnKyN5d5nJ4nwnkX3YQ": {"name": "Mr Charles Chicken & Fish", "latitude": 35.2615418, "longitude": -80.836737, "address": "3100 Statesville Ave", "city": "Charlotte", "state": "NC", "stars": 4.5, "review_count": 51, "is_open": 1}, "uIN-iPt4a5cj9zgflXhyYA": {"name": "Sal's Pizza Factory", "latitude": 35.1999192, "longitude": -80.7957083, "address": "3723 Monroe Rd", "city": "Charlotte", "state": "NC", "stars": 4.5, "review_count": 128, "is_open": 1}, "F1odkZWmcXGylij8HjRq6Q": {"name": "VBGB Beer Hall and Garden", "latitude": 35.240667, "longitude": -80.845087, "address": "920 Hamilton St", "city": "Charlotte", "state": "NC", "stars": 4.5, "review_count": 373, "is_open": 1}, "hggVnGwA5042-ABxqeJX-A": {"name": "Good Food on Montford", "latitude": 35.1709628, "longitude": -80.8483093, "address": "1701 Montford Dr", "city": "Charlotte", "state": "NC", "stars": 4.5, "review_count": 755, "is_open": 1}, "su6PPlJWHlDv1r_fu4f5ZQ": {"name": "Burtons Grill & Bar Park Road", "latitude": 35.1726717, "longitude": -80.8489293, "address": "1601 East Woodlawn Rd", "city": "Charlotte", "state": "NC", "stars": 4.5, "review_count": 375, "is_open": 1}, "nsE4LgI-HP5zERoMRv5hHw": {"name": "Sweet Lew\u2019s BBQ", "latitude": 35.2280706559, "longitude": -80.8211131248, "address": "923 Belmont Ave", "city": "Charlotte", "state": "NC", "stars": 4.5, "review_count": 146, "is_open": 1}, "Pg8diHvxcPj_AW_aqC-PZw": {"name": "Wake Up & Eat", "latitude": 35.3121681, "longitude": -80.7450974, "address": "9211 N Tryon St, Unit 1", "city": "Charlotte", "state": "NC", "stars": 4.5, "review_count": 27, "is_open": 1}, "w2kUURKtymnYVvdwwyNe2w": {"name": "Upscale Restaurant & Lounge", "latitude": 35.202356, "longitude": -80.790535, "address": "3108 E Independence Blvd", "city": "Charlotte", "state": "NC", "stars": 4.5, "review_count": 15, "is_open": 0}, "bKKVa2WXYnMTtiUPd3sV7Q": {"name": "Superica", "latitude": 35.2118515861, "longitude": -80.8604252346, "address": "101 W Worthington Ave", "city": "Charlotte", "state": "NC", "stars": 4.5, "review_count": 475, "is_open": 1}, "gXYevYIEOvyrmc7gd35qrg": {"name": "POPLAR  Tapas. Wine. Spirits", "latitude": 35.2336269, "longitude": -80.838102, "address": "224 W 10th St", "city": "Charlotte", "state": "NC", "stars": 4.5, "review_count": 78, "is_open": 1}, "Xl7HZudoYM6GTOdadlVCHg": {"name": "Delicias Restaurante Latino", "latitude": 35.203509042, "longitude": -80.7366089188, "address": "6341 Albemarle Rd", "city": "Charlotte", "state": "NC", "stars": 4.5, "review_count": 19, "is_open": 1}, "7d7pZlKji6NozhHP1SrVqw": {"name": "Siggy's Good Food", "latitude": 35.2278929, "longitude": -80.8209316, "address": "1001 Belmont Ave", "city": "Charlotte", "state": "NC", "stars": 4.5, "review_count": 529, "is_open": 0}, "BBhGZG0zDMAqIncSqMPfCA": {"name": "Peppervine", "latitude": 35.15285, "longitude": -80.84046, "address": "4620 Piedmont Row Dr, Ste 170B", "city": "Charlotte", "state": "NC", "stars": 4.5, "review_count": 70, "is_open": 1}, "T1ezuBwruKcJWGKlNTkRNw": {"name": "Bar Marcel", "latitude": 35.156418, "longitude": -80.823635, "address": "3920 Sharon Rd, Ste 160", "city": "Charlotte", "state": "NC", "stars": 4.5, "review_count": 33, "is_open": 1}, "99j5vhhtFJIefXDLsmA29Q": {"name": "Inizio Pizza Napoletana", "latitude": 35.0663214, "longitude": -80.7724681, "address": "10620 Providence Rd, Ste A", "city": "Charlotte", "state": "NC", "stars": 4.5, "review_count": 417, "is_open": 1}, "R4DJh_Z8par3sjnNmh1vZg": {"name": "LuLu's Maryland Style Chicken & Seafood", "latitude": 35.2369303, "longitude": -80.8743807, "address": "2400 Tuckaseegee Rd", "city": "Charlotte", "state": "NC", "stars": 4.5, "review_count": 26, "is_open": 1}, "6kq9oLduJAYkb2WjAb36KA": {"name": "Le's Sandwiches & Cafe", "latitude": 35.2559996507, "longitude": -80.791980922, "address": "4520 N Tryon St", "city": "Charlotte", "state": "NC", "stars": 4.5, "review_count": 362, "is_open": 1}, "ytGKbV7hRC6RkExo1NItEA": {"name": "Not Just Coffee - Dilworth", "latitude": 35.1990692, "longitude": -80.8525254, "address": "2230 Park Rd", "city": "Charlotte", "state": "NC", "stars": 4.5, "review_count": 69, "is_open": 1}, "OWByE1i1tjPB5i5mSprDJw": {"name": "Crispy Banh Mi", "latitude": 35.2367213, "longitude": -80.776576, "address": "2934 Shamrock Dr", "city": "Charlotte", "state": "NC", "stars": 4.5, "review_count": 49, "is_open": 1}, "HBBZRHpJG3L4lXLWz910JQ": {"name": "Flagstones", "latitude": 35.1528778076, "longitude": -80.837020874, "address": "5501 Carnegie Blvd", "city": "Charlotte", "state": "NC", "stars": 4.5, "review_count": 13, "is_open": 1}, "xuEoEyxJ5nwoTzBgxbMYfg": {"name": "Subs N Such", "latitude": 35.3509222, "longitude": -80.8416534, "address": "7340 Smith Corners Blvd, Ste 100", "city": "Charlotte", "state": "NC", "stars": 4.5, "review_count": 41, "is_open": 0}, "3Y179Pj78cKep6o8YVAzyA": {"name": "Las Meras Tortas", "latitude": 35.2041558, "longitude": -80.738186, "address": "5661 Farm Pond Ln", "city": "Charlotte", "state": "NC", "stars": 4.5, "review_count": 17, "is_open": 1}, "0SIK2QE_FfFSUZOZBPIfFQ": {"name": "Taste of SHU: Authentic Szechuan Cuisine", "latitude": 35.117274, "longitude": -80.856801, "address": "8418 Park Rd", "city": "Charlotte", "state": "NC", "stars": 4.5, "review_count": 17, "is_open": 1}, "V0iYi5OjdRcz82m95jV7vQ": {"name": "Renaissance Patisserie", "latitude": 35.1561632, "longitude": -80.8309453, "address": "6401 Morrison Blvd, Ste 4A", "city": "Charlotte", "state": "NC", "stars": 4.5, "review_count": 125, "is_open": 1}, "FrJ6yy3IfMX3yVL-FjRTbQ": {"name": "Chi's Pizza", "latitude": 35.1999590361, "longitude": -80.8524826875, "address": "2212 Park Rd", "city": "Charlotte", "state": "NC", "stars": 4.5, "review_count": 18, "is_open": 0}, "9joPX1laPl3p6l_VfCQJFw": {"name": "il Nido Ristorante", "latitude": 35.1569133, "longitude": -80.7946407, "address": ", 4219 Providence Rd, Ste 3", "city": "Charlotte", "state": "NC", "stars": 4.5, "review_count": 21, "is_open": 0}, "RVQE2Z2uky4c0-njFQO66g": {"name": "Midwood Smokehouse", "latitude": 35.2210244, "longitude": -80.8148537, "address": "1401 Central Ave", "city": "Charlotte", "state": "NC", "stars": 4.5, "review_count": 1764, "is_open": 1}}