[{"business_id":"Ar7b3_R0OBrSIbRmGvhWwg","name":"Garage Experts of Charlotte","latitude":35.2326781,"longitude":-80.8460822,"address":"","city":"Charlotte","state":"NC","stars":3.5,"review_count":3,"is_open":1},{"business_id":"VHAVNy-8DljdyJ-j57NlGg","name":"Air Today","latitude":35.12984,"longitude":-80.8830119,"address":"8100 England St","city":"Charlotte","state":"NC","stars":3.5,"review_count":7,"is_open":1},{"business_id":"PqGYodFN9vKU2v0HUMtCuA","name":"Fresh Coat Painters of Charlotte","latitude":35.1324187,"longitude":-80.9136015,"address":"9635 Southern Pine Blvd, Ste 108","city":"Charlotte","state":"NC","stars":5.0,"review_count":6,"is_open":1},{"business_id":"vuZM8Q1WuVLMM4JiUn1n-A","name":"Bank of America","latitude":35.3275006,"longitude":-80.9440573,"address":"9715 Callabridge Ct","city":"Charlotte","state":"NC","stars":2.5,"review_count":3,"is_open":1},{"business_id":"1Pw7_3O_6RZxtqw6gx5K_w","name":"Solis Southline Apartments","latitude":35.20326,"longitude":-80.8655399,"address":"2520 South Blvd","city":"Charlotte","state":"NC","stars":3.0,"review_count":7,"is_open":1},{"business_id":"HRUG3JKLcDZndlHt4M8JRg","name":"Camden South End Apartments","latitude":35.2188377827,"longitude":-80.853025,"address":"1205 S Tryon St","city":"Charlotte","state":"NC","stars":3.0,"review_count":36,"is_open":1},{"business_id":"J_LpWJImrJVRLdk4QTHkcA","name":"Dwelle Realty Company","latitude":35.2171196,"longitude":-80.8480233,"address":"500 E Morehead St, Ste 316","city":"Charlotte","state":"NC","stars":1.0,"review_count":3,"is_open":1},{"business_id":"93eSCpLwK5krRADsIp_76Q","name":"FlashTel Wireless","latitude":35.2040047,"longitude":-80.7461904,"address":"5859 Albemarle Rd","city":"Charlotte","state":"NC","stars":3.5,"review_count":3,"is_open":1},{"business_id":"NWYEgpRzMiAFrGvs_6aQAQ","name":"Bank of America","latitude":35.1278133,"longitude":-80.9433446,"address":"9630 S Tryon St","city":"Charlotte","state":"NC","stars":2.5,"review_count":3,"is_open":1},{"business_id":"q3GBUyJgSg9Bf8sVaO8WfQ","name":"Rountree Plantation","latitude":35.171295,"longitude":-80.881687,"address":"517 Rountree Rd","city":"Charlotte","state":"NC","stars":4.5,"review_count":21,"is_open":1},{"business_id":"vPmvOHm3EMREUGJoLuhwhA","name":"Southeast Locksmith","latitude":35.1660032,"longitude":-80.7934798,"address":"","city":"Charlotte","state":"NC","stars":5.0,"review_count":8,"is_open":1},{"business_id":"wB_7qEYYL16r6ESoxXtv7Q","name":"HelloTech","latitude":35.2294139,"longitude":-80.9247346,"address":"","city":"Charlotte","state":"NC","stars":4.5,"review_count":10,"is_open":1},{"business_id":"GJaPXrgiro1RDzrIiANRwA","name":"Autumn Park Apartments","latitude":35.312981,"longitude":-80.780129,"address":"1801 Interface Ln","city":"Charlotte","state":"NC","stars":2.0,"review_count":8,"is_open":1},{"business_id":"da90Jth4IWxQ_KdPfXRn6g","name":"Crown Builders","latitude":35.2044167,"longitude":-80.8030425,"address":"3111 Monroe Rd","city":"Charlotte","state":"NC","stars":4.5,"review_count":4,"is_open":1},{"business_id":"21P7ioGFIO2yC-arZHV6wA","name":"Academy Mechanical Repair, Inc","latitude":35.3352529,"longitude":-80.7990185,"address":"","city":"Charlotte","state":"NC","stars":3.0,"review_count":5,"is_open":0},{"business_id":"IjpadUVLGkbige9WiEWiYA","name":"Adams Heating & Air Conditioning","latitude":35.2268323,"longitude":-80.8548604,"address":"600 Morris St","city":"Charlotte","state":"NC","stars":4.0,"review_count":16,"is_open":1},{"business_id":"N_TGw1W-K6XJOUKlyV6ulg","name":"Bank of America","latitude":35.0868226825,"longitude":-80.8452374973,"address":"6611 Carmel Rd","city":"Charlotte","state":"NC","stars":2.0,"review_count":7,"is_open":1},{"business_id":"yejLTwv_Fy3K_B8QeTuozw","name":"Presley Uptown Apartments by Greystar","latitude":35.215841,"longitude":-80.840633,"address":"900 E Stonewall St","city":"Charlotte","state":"NC","stars":3.0,"review_count":11,"is_open":0},{"business_id":"tZccfdl6JNw-j5BKnCTIQQ","name":"Sherwin-Williams Paint Store","latitude":35.030873,"longitude":-80.851212,"address":"16041 Johnston Rd, Ste A","city":"Charlotte","state":"NC","stars":4.5,"review_count":3,"is_open":1},{"business_id":"2UYL5k-6cGXrU-os87UXxA","name":"The Madison","latitude":35.1540616,"longitude":-80.7321885,"address":"7815 Calibre Crossing Dr","city":"Charlotte","state":"NC","stars":3.5,"review_count":3,"is_open":1},{"business_id":"WXMtHyxpFNWZAw0HWvIjBQ","name":"Lawn Love Lawn Care","latitude":35.2301555,"longitude":-80.8392061,"address":"401 North Tryon Street, #42","city":"Charlotte","state":"NC","stars":2.0,"review_count":8,"is_open":1},{"business_id":"blc5Xmg0VQpx_oCUy8-dJA","name":"Galleria Village Apartments","latitude":35.1361097,"longitude":-80.7357426,"address":"1616 Galleria Club Ln","city":"Charlotte","state":"NC","stars":4.0,"review_count":6,"is_open":1},{"business_id":"jBlQAXlyTXe-p-GIzcqPTA","name":"Oak Park At Briarcreek","latitude":35.2144653,"longitude":-80.7941013,"address":"1425 Eastcrest Dr","city":"Charlotte","state":"NC","stars":1.0,"review_count":9,"is_open":0},{"business_id":"mNCrAeMHoii6pt-pMNWkIA","name":"Shea Homes - Charlotte","latitude":35.0872447,"longitude":-80.8552173,"address":"8008 Corporate Center Dr, Ste 300","city":"Charlotte","state":"NC","stars":2.0,"review_count":8,"is_open":1},{"business_id":"goZHNz2qQm3WovADVyGhUg","name":"You've Got Maids","latitude":35.1290557,"longitude":-80.9539475,"address":"","city":"Charlotte","state":"NC","stars":3.0,"review_count":7,"is_open":1},{"business_id":"byUVmfCWmJ2_0osXZET22Q","name":"The Butler Did It! CLT","latitude":35.2160873,"longitude":-80.8220555,"address":"401 Hawthorne Ln, Ste 110-123","city":"Charlotte","state":"NC","stars":5.0,"review_count":3,"is_open":1},{"business_id":"30NVu_VB2G49Fv-AfHxuXg","name":"The Groutsmith","latitude":35.0365305,"longitude":-80.8066979,"address":"9716 -B Rea Rd","city":"Charlotte","state":"NC","stars":3.5,"review_count":7,"is_open":1},{"business_id":"61FotFKnLq04s60Br0KjzA","name":"Queen City Lawn & Landscaping","latitude":35.3457545845,"longitude":-80.8706381662,"address":"8906 Trentsby Pl","city":"Charlotte","state":"NC","stars":1.0,"review_count":5,"is_open":1},{"business_id":"TsOdTTYPjV-1F4ZnePJ5kg","name":"Finish-Rite Drywall","latitude":35.3455083,"longitude":-80.7948753,"address":"7306 W Sugar Creek Rd","city":"Charlotte","state":"NC","stars":5.0,"review_count":23,"is_open":1},{"business_id":"U1tZM0VTwzYVbT6iDH9v2Q","name":"Fred's Heating & Cooling","latitude":35.3352529,"longitude":-80.7990185,"address":"","city":"Charlotte","state":"NC","stars":2.5,"review_count":3,"is_open":1},{"business_id":"HImkDn27uiGI3IGDf-uvuQ","name":"Biddy E C Tree Service","latitude":35.202466,"longitude":-80.6764937,"address":"9921 Hannon Rd","city":"Charlotte","state":"NC","stars":5.0,"review_count":3,"is_open":1},{"business_id":"E10YGzqKPPLVjsqJb06MFg","name":"Integrity Heating & Cooling","latitude":35.3698648,"longitude":-80.8354866,"address":"11907 Sam Roper Dr","city":"Charlotte","state":"NC","stars":2.5,"review_count":15,"is_open":1},{"business_id":"e1t1gpn3UHmV846Gyherqw","name":"Element Ballantyne","latitude":35.032768,"longitude":-80.846892,"address":"15711 Clems Creek Ln","city":"Charlotte","state":"NC","stars":3.0,"review_count":13,"is_open":1},{"business_id":"qE1QCv_NR3pGd8oRpbbFhQ","name":"Top Shoe Repair","latitude":35.226581,"longitude":-80.842815,"address":"101 S Tryon St, Ste 145","city":"Charlotte","state":"NC","stars":3.0,"review_count":15,"is_open":1},{"business_id":"0TDyyGCwphVI9YyjR1XSmw","name":"University Crossings","latitude":35.3005438,"longitude":-80.731217,"address":"9010 University City Blvd","city":"Charlotte","state":"NC","stars":2.0,"review_count":17,"is_open":1},{"business_id":"dm4VsUPo7RW1D8sHySymyw","name":"Berkshire Dilworth","latitude":35.206975,"longitude":-80.8374594,"address":"1351 E Morehead St","city":"Charlotte","state":"NC","stars":3.5,"review_count":5,"is_open":1},{"business_id":"_IHf0ZnN79ECaz5JjER7NA","name":"Addison Park","latitude":35.3334137,"longitude":-80.8064398,"address":"6225 Hackberry Trl","city":"Charlotte","state":"NC","stars":3.0,"review_count":10,"is_open":1},{"business_id":"cv8iMGIBtawW_4Imq8qPjw","name":"Access Handyman","latitude":35.1807520288,"longitude":-80.7876732309,"address":"1130 Cheddington Dr","city":"Charlotte","state":"NC","stars":5.0,"review_count":4,"is_open":1},{"business_id":"gdVVZq1TlJJ5iZ3HWV0MFg","name":"DISH","latitude":35.2326781,"longitude":-80.8460822,"address":"","city":"Charlotte","state":"NC","stars":2.5,"review_count":10,"is_open":1},{"business_id":"ucJBgeqNm1ZRXVOVZCIEXg","name":"Hampton Creste","latitude":35.191849,"longitude":-80.795473,"address":"920 N Wendover Rd","city":"Charlotte","state":"NC","stars":3.0,"review_count":3,"is_open":1},{"business_id":"6LYgkFbMtl_Jf3DskO1X5w","name":"Frontpoint Home Security","latitude":35.2263714,"longitude":-80.7990185,"address":"","city":"Charlotte","state":"NC","stars":1.0,"review_count":3,"is_open":1},{"business_id":"d_QdqSP8qtb1GJhBUMwQtQ","name":"Applyin Pressure Mobile Detailing","latitude":35.2833293,"longitude":-80.9760556,"address":"","city":"Charlotte","state":"NC","stars":5.0,"review_count":5,"is_open":1},{"business_id":"7Ae_xXS_BWfoLxzQyDVaJQ","name":"TBC Movers","latitude":35.1990996,"longitude":-80.766626,"address":"4822 Albemarle Rd, Ste 348","city":"Charlotte","state":"NC","stars":5.0,"review_count":11,"is_open":1},{"business_id":"41WkdXMK5v--KjTaBmhdZA","name":"Binswanger Glass","latitude":35.2666798,"longitude":-80.8153728,"address":"3646 N Graham St","city":"Charlotte","state":"NC","stars":4.0,"review_count":6,"is_open":1},{"business_id":"L2N6cnMkxbe9_96mjDi_yA","name":"Champion Fence Builders","latitude":35.236741,"longitude":-80.6706858,"address":"10328 Robinson Church Rd","city":"Charlotte","state":"NC","stars":5.0,"review_count":3,"is_open":1},{"business_id":"12speFaaT2nuz04Ckb1mbg","name":"Owl Remodeling","latitude":35.1704893,"longitude":-80.8788956,"address":"627 Minuet Ln, Ste D","city":"Charlotte","state":"NC","stars":3.0,"review_count":8,"is_open":0},{"business_id":"SoX1KYN-59_0HyOWA4-Zfg","name":"The Moving Masters","latitude":35.1811188,"longitude":-80.8488498,"address":"","city":"Charlotte","state":"NC","stars":4.5,"review_count":8,"is_open":0},{"business_id":"wZiZmjzt7uXYBfyjFf5Fbg","name":"The Tile Shop","latitude":35.149991,"longitude":-80.895898,"address":"7607 Nations Ford Rd","city":"Charlotte","state":"NC","stars":4.0,"review_count":14,"is_open":1},{"business_id":"NXSdKOGg67Rjn4cSgie2nA","name":"Providence Court Apartments","latitude":35.1088346,"longitude":-80.7656,"address":"8110 Providence Court Lane","city":"Charlotte","state":"NC","stars":3.5,"review_count":5,"is_open":0},{"business_id":"ghmTaN0KVIDtPnhbS1mYZg","name":"4 Seasons Tree Service, LLC","latitude":35.069066,"longitude":-81.007862,"address":"15100 Thomas Rd","city":"Charlotte","state":"NC","stars":3.5,"review_count":3,"is_open":1},{"business_id":"3DTB-N9SUxUrVUEJqXFnSw","name":"Maye Heating & Cooling","latitude":35.221676,"longitude":-80.702392,"address":"7706 Pence Rd","city":"Charlotte","state":"NC","stars":2.5,"review_count":3,"is_open":1},{"business_id":"beg44R3Hl5-ETwLtYbDigA","name":"Belk Shoe Repair","latitude":35.1513035,"longitude":-80.8314354,"address":"4400 Sharon Rd","city":"Charlotte","state":"NC","stars":4.5,"review_count":28,"is_open":1},{"business_id":"pS5FNUX5xAy_E8bYHXfumA","name":"NVR Mortgage","latitude":35.0623011,"longitude":-80.767079,"address":"10710 Sikes Pl, Ste 100","city":"Charlotte","state":"NC","stars":5.0,"review_count":4,"is_open":1},{"business_id":"7emvi57F8xWCDDADWSUKLg","name":"Modern Furniture Studio","latitude":35.1994741,"longitude":-80.8831774,"address":"800 Clanton Rd, Ste I","city":"Charlotte","state":"NC","stars":5.0,"review_count":13,"is_open":1},{"business_id":"5QNR57waXrAe2Wx_vCjrcw","name":"Atlantic Bay Mortgage","latitude":35.0678405,"longitude":-80.8420172,"address":"3430 Toringdon Way, Ste 101","city":"Charlotte","state":"NC","stars":3.5,"review_count":6,"is_open":1},{"business_id":"av8umCu_PVWDyhaYopQmbg","name":"Just Inspections","latitude":35.1836668,"longitude":-80.8763044,"address":"4400 South Blvd, Ste A","city":"Charlotte","state":"NC","stars":3.5,"review_count":10,"is_open":0},{"business_id":"-htftQXo17AVLzeR7ACU2g","name":"The Gibson","latitude":35.221388,"longitude":-80.821375,"address":"1000 Central Ave","city":"Charlotte","state":"NC","stars":4.0,"review_count":4,"is_open":1},{"business_id":"Sa1H5Gr6jg-NdpUn1vm03g","name":"Arbor Steele Creek","latitude":35.106897,"longitude":-80.977155,"address":"12235 Stone Arbor Way","city":"Charlotte","state":"NC","stars":2.5,"review_count":10,"is_open":1},{"business_id":"vvlfUHCKVmxxaAAnT4fsKQ","name":"Woodland Estates","latitude":35.1975706,"longitude":-80.7493433,"address":"6147 Winged Elm Ct","city":"Charlotte","state":"NC","stars":1.0,"review_count":4,"is_open":1},{"business_id":"D-CykxLr_NJe1fI4e93hLg","name":"Retreat at McAlpine Creek","latitude":35.0827439963,"longitude":-80.833325386,"address":"6800 Fishers Farm Ln","city":"Charlotte","state":"NC","stars":2.0,"review_count":18,"is_open":0},{"business_id":"uCs-PiEPaTpJYVDAIlOAag","name":"Berkshire Place","latitude":35.094598,"longitude":-80.856853,"address":"7700 Cedar Point Ln","city":"Charlotte","state":"NC","stars":3.0,"review_count":4,"is_open":1},{"business_id":"CRXeGUi9U74L9aP1KDcteA","name":"Expert Lock and Key","latitude":35.3202223,"longitude":-80.8875861,"address":"","city":"Charlotte","state":"NC","stars":5.0,"review_count":3,"is_open":1},{"business_id":"nfntbPvho9_hZkAmRf7nzw","name":"RiteRug Flooring","latitude":35.2769773,"longitude":-80.8400448,"address":"2213 Distribution Center Dr, Ste 00","city":"Charlotte","state":"NC","stars":3.0,"review_count":4,"is_open":1},{"business_id":"bmkp_v_1Wf7uwNwgFwvl8g","name":"Hughes Floor Covering","latitude":35.1939999,"longitude":-80.7887196,"address":"4312 Monroe Road","city":"Charlotte","state":"NC","stars":4.0,"review_count":9,"is_open":1},{"business_id":"OxqKP2Kr2YxI5c5O1qRgqg","name":"Andover Woods","latitude":35.125602,"longitude":-80.8681154,"address":"7808 Andover Woods Dr","city":"Charlotte","state":"NC","stars":1.5,"review_count":11,"is_open":1},{"business_id":"gFahBlSVK13X0vwjUXiV1Q","name":"Real Cool Heating and Air","latitude":35.260828,"longitude":-80.660528,"address":"11515 Gelding Dr","city":"Charlotte","state":"NC","stars":5.0,"review_count":3,"is_open":1},{"business_id":"KJeRZ29jxe8QbgEyZG73UA","name":"Park 2300","latitude":35.160709,"longitude":-80.741476,"address":"2300 Village Lake Dr","city":"Charlotte","state":"NC","stars":1.0,"review_count":4,"is_open":1},{"business_id":"Oi-4eN__E_oCdHymbjXUfw","name":"Magnolia Terrace","latitude":35.2913977,"longitude":-80.7393466,"address":"8301 Paces Oaks Blvd","city":"Charlotte","state":"NC","stars":3.0,"review_count":5,"is_open":1},{"business_id":"ugmULIgJtBBm864t_4JdSw","name":"MOLLY MAID of Southwestern Charlotte, Fort Mill & Rock Hill","latitude":35.1701154,"longitude":-80.8807135,"address":"501 Minuet Ln, Ste 110","city":"Charlotte","state":"NC","stars":3.5,"review_count":15,"is_open":1},{"business_id":"dB-1PiQkp_HGP7C7HAelbw","name":"Benjamin Franklin Plumbing","latitude":35.1420334797,"longitude":-80.7292907871,"address":"8635 Crown Crescent Ct","city":"Charlotte","state":"NC","stars":2.0,"review_count":6,"is_open":1},{"business_id":"bWoDHmajWYm13SiNEr_olg","name":"Ashley Court Apartments","latitude":35.3234939,"longitude":-80.744139,"address":"9740 Ashley Lake Ct","city":"Charlotte","state":"NC","stars":3.0,"review_count":7,"is_open":1},{"business_id":"OJgfkouGs2Ia0wtuV6NSoQ","name":"Lowe's Home Improvement Warehouse Stores","latitude":35.146071,"longitude":-80.9322,"address":"8192 S Tryon St","city":"Charlotte","state":"NC","stars":2.0,"review_count":20,"is_open":1},{"business_id":"rGE86nbV-k9RZpMUfTBX0A","name":"5 Star Presidential Cleaning","latitude":35.2150365,"longitude":-80.8452606,"address":"801 E Morehead St, Ste 111","city":"Charlotte","state":"NC","stars":2.0,"review_count":4,"is_open":1},{"business_id":"Rm8we2Cs8TzGhLhM6Ckq_g","name":"Metro Greenscape","latitude":35.220591,"longitude":-80.8844449,"address":"1622 Parker Dr","city":"Charlotte","state":"NC","stars":4.0,"review_count":13,"is_open":1},{"business_id":"6ViOHWeazBB9H2L54Gj36g","name":"Cortland Whitehall","latitude":35.1514514,"longitude":-80.9546761,"address":"9214 Christy Joy Dr","city":"Charlotte","state":"NC","stars":3.0,"review_count":4,"is_open":1},{"business_id":"PnV3k7LUqNLfA-ZZcimBUg","name":"Chicken Foot Estate Sales","latitude":35.1105564,"longitude":-80.7103532,"address":"","city":"Charlotte","state":"NC","stars":2.5,"review_count":3,"is_open":1},{"business_id":"9_1Fn1OSLXUoo20_8OUK3w","name":"Cowbridge Furniture","latitude":35.1991531,"longitude":-80.8718325,"address":"211 Foster Ave","city":"Charlotte","state":"NC","stars":4.5,"review_count":9,"is_open":1},{"business_id":"NQPSkKJf8XCW7vNvYfdUig","name":"Doral Apartments","latitude":35.2051751,"longitude":-80.8061144,"address":"524 Bramlet Rd, Ste A","city":"Charlotte","state":"NC","stars":4.0,"review_count":5,"is_open":1},{"business_id":"zzTM2KyJkKomLDkl6rM4dQ","name":"Mike The Plumber","latitude":35.16163,"longitude":-80.7755619,"address":"6126 Deveron Dr","city":"Charlotte","state":"NC","stars":3.0,"review_count":9,"is_open":1},{"business_id":"Zqlu2e95hO7GO6uLDuYLpA","name":"Carolina Fireplace Repair","latitude":35.1660032,"longitude":-80.7934798,"address":"","city":"Charlotte","state":"NC","stars":5.0,"review_count":5,"is_open":1},{"business_id":"K9B69U3QkBAVLf8RzayAyg","name":"Ashford Place","latitude":35.1484702,"longitude":-80.8831863,"address":"905 Pineville Point Ave","city":"Charlotte","state":"NC","stars":5.0,"review_count":6,"is_open":1},{"business_id":"ninT9WRHolM0mRYI8og1Ow","name":"The Doctor Fence","latitude":35.0668135,"longitude":-80.7582697,"address":"10503 Knox Ave","city":"Charlotte","state":"NC","stars":3.5,"review_count":10,"is_open":1},{"business_id":"uoW8NFhCNgVvrl0p9qxzOQ","name":"Advent Coworking","latitude":35.2245312125,"longitude":-80.8203341067,"address":"933 Louise Ave","city":"Charlotte","state":"NC","stars":5.0,"review_count":11,"is_open":1},{"business_id":"tqipQ_LHDvUacLyaw66cuw","name":"My Townhome Realty","latitude":35.2147564,"longitude":-80.8550333,"address":"1500 South Blvd, Ste 101-B","city":"Charlotte","state":"NC","stars":3.0,"review_count":16,"is_open":1},{"business_id":"Q8tL1YGwLgk30jV-wR6ltA","name":"The Maids of Charlotte","latitude":35.1517971,"longitude":-80.7453028,"address":"8633-A Monroe Road","city":"Charlotte","state":"NC","stars":3.5,"review_count":4,"is_open":1},{"business_id":"F-oLyB78hrbVHaHIJJ71mA","name":"Urban Renewal Development Company","latitude":35.1420932,"longitude":-80.7232175,"address":"2400 Crownpoint Executive Dr","city":"Charlotte","state":"NC","stars":3.5,"review_count":3,"is_open":1},{"business_id":"EBa4oaZqf0Lv9c1nR8rPSA","name":"Oxifresh","latitude":35.1743999,"longitude":-80.9041817,"address":"","city":"Charlotte","state":"NC","stars":4.0,"review_count":4,"is_open":0},{"business_id":"Rio8dEF69aK2v7othLbABA","name":"Smitty's Residential Painting","latitude":35.056912,"longitude":-80.769829,"address":"11190 Providence Rd","city":"Charlotte","state":"NC","stars":2.5,"review_count":3,"is_open":1},{"business_id":"pmjlrfLuabJ2dG-Lb2s6ug","name":"Zap It Wash","latitude":35.0535496,"longitude":-80.8228862138,"address":"11524 Providence Rd","city":"Charlotte","state":"NC","stars":3.5,"review_count":3,"is_open":1},{"business_id":"YEwTxyicgtFNE1AXxFCT9g","name":"Charlotte Plumbing","latitude":35.188234,"longitude":-80.879641,"address":"230 E Peterson Dr","city":"Charlotte","state":"NC","stars":5.0,"review_count":6,"is_open":1},{"business_id":"0YbU69SeHwBs4rxux-Ikfw","name":"South Charlotte Services","latitude":35.019012,"longitude":-80.824912,"address":"9722 Cotton Stand Rd","city":"Charlotte","state":"NC","stars":5.0,"review_count":6,"is_open":1},{"business_id":"fnXC8u-uVbekWQcugFvt-g","name":"Gerard W. McNaught, LLC","latitude":35.0678405,"longitude":-80.8420172,"address":"3430 Toringdon Way, Ste 101A","city":"Charlotte","state":"NC","stars":2.5,"review_count":6,"is_open":1},{"business_id":"Rcpjue3LKPyrLRgzw4kVPQ","name":"Talley Properties","latitude":35.237391,"longitude":-80.912896,"address":"2716 Westport Rd","city":"Charlotte","state":"NC","stars":2.5,"review_count":14,"is_open":1},{"business_id":"8QgN6jTcwpaV8LY-Fzq8eQ","name":"Steele Creek South Apartments","latitude":35.101739,"longitude":-80.99531,"address":"13212 Winter Hazel Rd","city":"Charlotte","state":"NC","stars":3.5,"review_count":7,"is_open":1},{"business_id":"Jco-_Dr5QoL375gYx8Uuzw","name":"Night Owl Contractors","latitude":35.1825962,"longitude":-80.6548882,"address":"","city":"Charlotte","state":"NC","stars":2.5,"review_count":3,"is_open":1},{"business_id":"bgVxJI9Jgr7p7bKIVLkUoA","name":"Bank of America","latitude":35.3057088,"longitude":-80.7508596,"address":"8551 N Tryon St","city":"Charlotte","state":"NC","stars":2.5,"review_count":11,"is_open":1},{"business_id":"6Zf5pd0g36VeMbI4gYAynw","name":"Eager Beaver Plunbing Services","latitude":35.1274285,"longitude":-80.8599193,"address":"","city":"Charlotte","state":"NC","stars":1.0,"review_count":3,"is_open":1},{"business_id":"88L1u8JwtwJIDwjxMOKJzw","name":"Colonial Grand at Mallard Creek","latitude":35.339414,"longitude":-80.771887,"address":"3025 Mallard Hill Dr","city":"Charlotte","state":"NC","stars":3.5,"review_count":3,"is_open":1},{"business_id":"ysTHNI1VxxHVIQuJ2Ry1CQ","name":"Carolina Pack & Load","latitude":35.0875776,"longitude":-80.8594095,"address":"","city":"Charlotte","state":"NC","stars":3.0,"review_count":9,"is_open":1},{"business_id":"-I61n0UW25sZK7oxidJ7YQ","name":"The Penrose - Matrix Residential","latitude":35.2101897,"longitude":-80.8651485,"address":"327 W Tremont Ave","city":"Charlotte","state":"NC","stars":2.5,"review_count":6,"is_open":0},{"business_id":"EU_AkRZa27aR_b2r1WfCfQ","name":"William Douglas Property Management","latitude":35.1696852,"longitude":-80.8502768,"address":"4523 Park Rd, Ste 201A","city":"Charlotte","state":"NC","stars":2.0,"review_count":26,"is_open":1},{"business_id":"-xN272V3N2KjtAEJEyUZ7w","name":"Zelaya Jr Painting","latitude":35.2249908,"longitude":-80.7406913,"address":"2325 Valley View Dr","city":"Charlotte","state":"NC","stars":5.0,"review_count":4,"is_open":1},{"business_id":"Lt1STYseWU35VcR9x3q0pw","name":"Drip Edge Roofing","latitude":35.1293932,"longitude":-80.9573159,"address":"11709 Fruehauf Dr, Ste 139","city":"Charlotte","state":"NC","stars":5.0,"review_count":4,"is_open":1},{"business_id":"nED-iNVoL1KoBi002zNOvQ","name":"Edwards Moving Labor","latitude":35.1556997,"longitude":-81.0048552,"address":"Greensboro, High Point Ct","city":"Charlotte","state":"NC","stars":1.0,"review_count":4,"is_open":1},{"business_id":"t5zgfRyj-7M05DmY7OMfiA","name":"New View Realty Group","latitude":35.192638,"longitude":-80.767848,"address":"2432 N Sharon Amity Rd, Ste 200","city":"Charlotte","state":"NC","stars":2.5,"review_count":6,"is_open":1},{"business_id":"MmoqyXc_t_xC2OcpzzGqPQ","name":"Victor Ahdieh - Savvy + Co Real Estate","latitude":35.0528474,"longitude":-80.8517865,"address":"14825 Ballantyne Village Way, Ste 165","city":"Charlotte","state":"NC","stars":5.0,"review_count":5,"is_open":1},{"business_id":"eBj7zTaKvx_f80hdPE1sOg","name":"Queen City Closets","latitude":35.1806035,"longitude":-80.8801544,"address":"4548 Old Pineville Rd, Ste H","city":"Charlotte","state":"NC","stars":3.5,"review_count":3,"is_open":1},{"business_id":"h9GcGMvfCavAABO0GULDNw","name":"District Flats at Summit and Church Apartments","latitude":35.2177821,"longitude":-80.8577188,"address":"1449 S Church St","city":"Charlotte","state":"NC","stars":3.5,"review_count":10,"is_open":1},{"business_id":"fPFsST-ZUQuAwu9Dcs9-Gg","name":"All Climate Heating & Cooling","latitude":35.1743999,"longitude":-80.9041817,"address":"","city":"Charlotte","state":"NC","stars":5.0,"review_count":5,"is_open":1},{"business_id":"1lKM2BLT-u9f8KeJo0uY5Q","name":"Eastwood Homes","latitude":35.234567,"longitude":-80.913503,"address":"2857 Westport Rd","city":"Charlotte","state":"NC","stars":2.0,"review_count":13,"is_open":1},{"business_id":"RwxeG-bg6tDAJk9TMe6qGg","name":"BWH Services","latitude":35.1173473,"longitude":-80.7990185,"address":"","city":"Charlotte","state":"NC","stars":2.5,"review_count":5,"is_open":1},{"business_id":"t93CxfNartMXZGWvX7dl3w","name":"Falcon One Properties","latitude":35.09137,"longitude":-80.8424929,"address":"6303 Carmel Rd, Ste 103","city":"Charlotte","state":"NC","stars":2.5,"review_count":3,"is_open":1},{"business_id":"uMPbROQ5unFFC9ns44OY4g","name":"Best Rate Mortgage","latitude":35.163568,"longitude":-80.881268,"address":"814 Tyvola Rd","city":"Charlotte","state":"NC","stars":1.0,"review_count":3,"is_open":1},{"business_id":"XvGewAn_Ro8JY-dD1DkTlw","name":"House Movers and Boxes","latitude":35.2945352,"longitude":-80.7535133,"address":"7828 N Tryon St","city":"Charlotte","state":"NC","stars":4.5,"review_count":73,"is_open":1},{"business_id":"UXp6lkkMTMob7TsGcSZ6HQ","name":"Marc's Tree Service","latitude":35.0665146,"longitude":-80.762165,"address":"4612 McKee Rd","city":"Charlotte","state":"NC","stars":4.5,"review_count":13,"is_open":1},{"business_id":"Gl1Tf1IOz5VWfZDSltLVcQ","name":"Law Roofing","latitude":35.2488966,"longitude":-80.9476082,"address":"","city":"Charlotte","state":"NC","stars":3.5,"review_count":6,"is_open":1},{"business_id":"7XFC46fFw882R7OS9vjqPg","name":"Solis Waverly by Bozzuto","latitude":35.0508633,"longitude":-80.7646549,"address":"6101 Ardrey Kell Rd","city":"Charlotte","state":"NC","stars":4.0,"review_count":6,"is_open":0},{"business_id":"VBB4TANFlBC9rTOoqP1GQA","name":"Emergency Restoration Xperts","latitude":35.3299195,"longitude":-80.84392,"address":"7929 Statesville Rd","city":"Charlotte","state":"NC","stars":3.5,"review_count":5,"is_open":1},{"business_id":"3kqd2C8oQ88r8HA2fcP-GQ","name":"A1 Janitorial Supply & Vacuum Shop","latitude":35.1994741,"longitude":-80.8831774,"address":"800 Clanton Road, Ste A","city":"Charlotte","state":"NC","stars":4.5,"review_count":7,"is_open":1},{"business_id":"OI9cO5hqwLETzHnNqkJHqQ","name":"Neat Freakz","latitude":35.301642,"longitude":-80.720419,"address":"1011 Baxter Caldwell Dr","city":"Charlotte","state":"NC","stars":2.0,"review_count":4,"is_open":1},{"business_id":"BfkIHXAQFiVlS9tADUtJYw","name":"Dilly Place Cleaners & Alteration","latitude":35.2108433,"longitude":-80.857044,"address":"224 East Blvd","city":"Charlotte","state":"NC","stars":5.0,"review_count":3,"is_open":1},{"business_id":"X-m1XiUCC8-z6oy5okxDNQ","name":"HoneyDon't Handyman and Tasking","latitude":35.3352529,"longitude":-80.7990185,"address":"","city":"Charlotte","state":"NC","stars":5.0,"review_count":3,"is_open":1},{"business_id":"iLZvhaeLHLd-v33qbvfM0w","name":"The Dog Dasher","latitude":35.2244566,"longitude":-80.8337388,"address":"7th St","city":"Charlotte","state":"NC","stars":5.0,"review_count":3,"is_open":1},{"business_id":"0Fsxk65QXjgJu1VDLwMzJQ","name":"Novel NoDa","latitude":35.24858,"longitude":-80.806545,"address":"424 E 36th St","city":"Charlotte","state":"NC","stars":5.0,"review_count":3,"is_open":1},{"business_id":"WfHpiBNS5vUVfXW_8UomOw","name":"Clean Cut Landscaping","latitude":35.3301529,"longitude":-80.7325287,"address":"","city":"Charlotte","state":"NC","stars":3.5,"review_count":3,"is_open":1},{"business_id":"RJ6R5-MvZF4mgeYwMW4DJA","name":"Highland Park at Northlake","latitude":35.3377463669,"longitude":-80.8600455523,"address":"7116 Finn Hall Ave","city":"Charlotte","state":"NC","stars":3.5,"review_count":11,"is_open":1},{"business_id":"xalXOYtcv1j63R8aIudeGw","name":"PNC Bank","latitude":35.3037805,"longitude":-80.7494572,"address":"230 E W T Harris Blvd","city":"Charlotte","state":"NC","stars":1.0,"review_count":5,"is_open":1},{"business_id":"SyXQdbGIMtNx4ux4VfKyaw","name":"All Hours Plumbing","latitude":35.0531348889,"longitude":-80.847303973,"address":"15105-D John J Delaney Dr, Ste 156","city":"Charlotte","state":"NC","stars":5.0,"review_count":42,"is_open":1},{"business_id":"aMHeFr8xdPKlkqagovJzDg","name":"The Lexington Dilworth","latitude":35.2149913,"longitude":-80.8484708,"address":"1106 Euclid Ave","city":"Charlotte","state":"NC","stars":5.0,"review_count":5,"is_open":1},{"business_id":"-uYnPpNwsjSpGv3IB219RQ","name":"The TV Shop","latitude":35.1954266,"longitude":-80.8769528,"address":"3501-D S Tryon St","city":"Charlotte","state":"NC","stars":2.0,"review_count":5,"is_open":1},{"business_id":"kDtE9yyn-3lKqLOZrTl7Bg","name":"Honesty Electric","latitude":35.1743999,"longitude":-80.9041817,"address":"","city":"Charlotte","state":"NC","stars":4.5,"review_count":10,"is_open":1},{"business_id":"TNOodmbmv-XoE9ZAS5yS7Q","name":"Exact Temp Heating & Cooling","latitude":35.231402,"longitude":-80.845841,"address":"","city":"Charlotte","state":"NC","stars":4.5,"review_count":3,"is_open":1},{"business_id":"Jf6C_6IkLBCpSZTjQiC-Mg","name":"AT&T Store","latitude":35.1512955,"longitude":-80.8414702752,"address":"5940 Fairview Rd, Ste 100","city":"Charlotte","state":"NC","stars":2.5,"review_count":29,"is_open":1},{"business_id":"4DmtPJW2VYUPl25bFDqLjA","name":"Post Ballantyne","latitude":35.051851,"longitude":-80.8473533,"address":"14205 Ballantyne Lake Rd","city":"Charlotte","state":"NC","stars":2.0,"review_count":5,"is_open":1},{"business_id":"Tl3z5hwhPHde9F0J3vC6Kg","name":"MEZZO1","latitude":35.1569635,"longitude":-80.8263405,"address":"130 Sharon Township Ln","city":"Charlotte","state":"NC","stars":2.5,"review_count":12,"is_open":1},{"business_id":"unDjfFpk6KkSCvIulKpNiQ","name":"Berkeley Place Apartments","latitude":35.325897,"longitude":-80.738879,"address":"500 Solano Dr","city":"Charlotte","state":"NC","stars":3.5,"review_count":12,"is_open":1},{"business_id":"TYa0pnWfN6pPr-eWVueMjA","name":"ExperiGreen Lawn Care","latitude":35.235843,"longitude":-80.9182679,"address":"3421 Axar Rd","city":"Charlotte","state":"NC","stars":2.5,"review_count":15,"is_open":1},{"business_id":"DyTloTdkLppnVTSqX6tniQ","name":"On the Line Painting","latitude":35.2332947,"longitude":-80.8208884,"address":"701 E 18th St","city":"Charlotte","state":"NC","stars":4.5,"review_count":3,"is_open":1},{"business_id":"XOzo2FbPxP02aBWNe6MUnw","name":"1-800-PACK-RAT","latitude":35.1225492,"longitude":-80.978646,"address":"12810 Virkler Dr, Ste 160","city":"Charlotte","state":"NC","stars":3.0,"review_count":4,"is_open":1},{"business_id":"1pS99vBWj-ubdRLW7ON5sA","name":"Better Blinds NC","latitude":35.14738,"longitude":-80.95348,"address":"12208 Mapleton Rd","city":"Charlotte","state":"NC","stars":4.0,"review_count":3,"is_open":1},{"business_id":"DyMaw_ghtPClZ-7Yr_AAxQ","name":"Uptown 550 on Stonewall","latitude":35.219049,"longitude":-80.8446884,"address":"550 E Stonewall St","city":"Charlotte","state":"NC","stars":5.0,"review_count":4,"is_open":1},{"business_id":"8nz1wFNJir-bZAhkbsjacg","name":"Dan The Man Concrete","latitude":35.2700899,"longitude":-80.8080722,"address":"1201 Amble Dr","city":"Charlotte","state":"NC","stars":3.5,"review_count":3,"is_open":1},{"business_id":"p1xI5AKsIwSP7ImT2YG_7g","name":"Susan Chambers  - Coldwell Banker United Realtors","latitude":35.099765,"longitude":-80.777469,"address":"7907 Providence Rd, Ste 150","city":"Charlotte","state":"NC","stars":4.0,"review_count":5,"is_open":1},{"business_id":"0ZplgTLfGZvIKkG63ohfog","name":"Carpet Discount Warehouse","latitude":35.176503,"longitude":-80.752582,"address":"6100 E Independence Blvd","city":"Charlotte","state":"NC","stars":3.5,"review_count":10,"is_open":1},{"business_id":"5S18Y7HHUgMtWUH59Qsp_w","name":"The VUE Charlotte","latitude":35.2309329,"longitude":-80.8447684,"address":"215 N Pine St","city":"Charlotte","state":"NC","stars":4.5,"review_count":25,"is_open":1},{"business_id":"Ik9q0MuTxVtVOB8HjrDWKQ","name":"Pool by Design","latitude":35.2020959,"longitude":-80.8711169,"address":"217 Fairwood Ave","city":"Charlotte","state":"NC","stars":3.5,"review_count":6,"is_open":1},{"business_id":"ILbRIjKhYqcJD0nYAqTQSw","name":"Horne Heating and Air Conditioning","latitude":35.2802505611,"longitude":-80.9203373472,"address":"6805 Craig St","city":"Charlotte","state":"NC","stars":4.0,"review_count":15,"is_open":1},{"business_id":"To9YQOlxpIiGzGCkAGYJJQ","name":"Alta Grove Apartments","latitude":35.3206701,"longitude":-80.9480519,"address":"10017 Season Grove Ln","city":"Charlotte","state":"NC","stars":3.5,"review_count":3,"is_open":1},{"business_id":"3Y8QoPO2QBjI_3NCL3004w","name":"Perfection Painting Pros","latitude":35.0452322033,"longitude":-80.8071716983,"address":"12107 Bobhouse Dr","city":"Charlotte","state":"NC","stars":5.0,"review_count":5,"is_open":1},{"business_id":"MJimzC5pkqD-LFGY8o9JZA","name":"Royal Gardens","latitude":35.2150714,"longitude":-80.8294747,"address":"","city":"Charlotte","state":"NC","stars":4.0,"review_count":10,"is_open":1},{"business_id":"oaarvLgnrbnT_EY0Dhzn2g","name":"Brink's Home Security","latitude":35.212973,"longitude":-80.9097127,"address":"","city":"Charlotte","state":"NC","stars":1.0,"review_count":6,"is_open":0},{"business_id":"aPw8k6Ipqbpi9qWn0kH6JQ","name":"Maid Savvy Cleaning Services","latitude":35.2009248,"longitude":-80.8671172,"address":"2720 South Blvd, Ste 113","city":"Charlotte","state":"NC","stars":4.0,"review_count":5,"is_open":0},{"business_id":"Pm0V1heWJdnJAJfk2cTT0w","name":"Accent Glass","latitude":35.187199,"longitude":-80.874672,"address":"4031 S Blvd","city":"Charlotte","state":"NC","stars":4.0,"review_count":8,"is_open":1},{"business_id":"0OG_idRKMzYgohPQPBZlMg","name":"MTB Moving Company","latitude":35.0535496,"longitude":-80.8211696,"address":"","city":"Charlotte","state":"NC","stars":4.0,"review_count":4,"is_open":1},{"business_id":"CRrTT1eDEkU5gtios93U8Q","name":"Air 72","latitude":35.226523,"longitude":-80.999522,"address":"10204 Casa Nuestra Dr","city":"Charlotte","state":"NC","stars":4.5,"review_count":8,"is_open":1},{"business_id":"C1gVgIbtRiFlpibpwi5yWg","name":"Payless Plumber Charlotte","latitude":35.1274285,"longitude":-80.8599193,"address":"","city":"Charlotte","state":"NC","stars":3.5,"review_count":6,"is_open":1},{"business_id":"ZGcqIW6ZYej8JXXbokvw0g","name":"Rivermere Apartments","latitude":35.3249918,"longitude":-80.9504296,"address":"3404 Dunn Commons Pkwy","city":"Charlotte","state":"NC","stars":2.5,"review_count":3,"is_open":1},{"business_id":"APzkYwnfM32kVwd8BYPMKQ","name":"Appliance Medic CLT","latitude":35.1354674,"longitude":-80.9347382,"address":"2013 Cambridge Beltway Dr","city":"Charlotte","state":"NC","stars":5.0,"review_count":9,"is_open":1},{"business_id":"SJlB_z0PimgjZ2mrnj3Zgw","name":"Make Ready Matt's Cleaning Service","latitude":35.081895,"longitude":-80.839805,"address":"6760 Poppy Hills Ln, Ste 621","city":"Charlotte","state":"NC","stars":2.0,"review_count":5,"is_open":1},{"business_id":"87x6OF_8XKqt2yKyIxSj9g","name":"Carpet & Rug Superstore","latitude":35.2973833,"longitude":-80.7468295,"address":"8215 University City Blvd, Ste C","city":"Charlotte","state":"NC","stars":3.5,"review_count":3,"is_open":1},{"business_id":"ylrNa-kZPnw_1mgm6CTRfQ","name":"SwiftKey Locksmith","latitude":35.12122,"longitude":-80.927531,"address":"10924 Granite St, Ste 600","city":"Charlotte","state":"NC","stars":5.0,"review_count":5,"is_open":1},{"business_id":"KcCtQ2v_hZV3bUQNpxxtsw","name":"UCM Upholstery Cleaning","latitude":35.2339096,"longitude":-80.8501212,"address":"800 W Trade St","city":"Charlotte","state":"NC","stars":1.0,"review_count":3,"is_open":1},{"business_id":"9fIw1wQ8u-tvG5KZU5FbIQ","name":"AT&T Store","latitude":35.1364734855,"longitude":-80.9365767986,"address":"8943 S Tryon St, Ste B","city":"Charlotte","state":"NC","stars":3.0,"review_count":4,"is_open":1},{"business_id":"03oEaHPyBejuIvJSn2OaYg","name":"Morris-Jenkins","latitude":35.1089495,"longitude":-80.9598217,"address":"13725 South Ridge Dr","city":"Charlotte","state":"NC","stars":2.5,"review_count":136,"is_open":1},{"business_id":"ZyFEOn4L5juxEsX1Kms-IQ","name":"Charlotte Pro Roofing","latitude":35.0665073,"longitude":-80.771204,"address":"10612 Providence Rd","city":"Charlotte","state":"NC","stars":4.5,"review_count":11,"is_open":1},{"business_id":"EA7GQEDa3-XgyTt0a491eg","name":"Reafield Village Apartments by Fairfield Residential","latitude":35.084949,"longitude":-80.8309,"address":"6609 Reafield Dr","city":"Charlotte","state":"NC","stars":2.0,"review_count":9,"is_open":0},{"business_id":"6eIRMtX4KXtrTIKW5LLZwA","name":"Cabinets To Go","latitude":35.27671,"longitude":-80.798997,"address":"4830 Reagan Dr","city":"Charlotte","state":"NC","stars":3.5,"review_count":4,"is_open":1},{"business_id":"376XtnGYpqtJLkpw5yZd4Q","name":"Anson at the Lakes by Cortland","latitude":35.1261636142,"longitude":-80.8751482666,"address":"8000 Waterford Lakes Dr","city":"Charlotte","state":"NC","stars":1.5,"review_count":7,"is_open":0},{"business_id":"-fznkdpqpDmNTSHnn1yUfg","name":"Tailored Living of Greater Charlotte","latitude":35.2270869,"longitude":-80.8431267,"address":"","city":"Charlotte","state":"NC","stars":4.5,"review_count":6,"is_open":1},{"business_id":"sKzlxfSsKasS6mfeEmAViA","name":"Reliance First Capital","latitude":35.059522,"longitude":-80.839297,"address":"11605 N Community House Rd, Ste 200","city":"Charlotte","state":"NC","stars":3.0,"review_count":20,"is_open":1},{"business_id":"6pmvvXjAHrdwEL6vRpvPYw","name":"Norman Sound & Productions","latitude":35.221231,"longitude":-80.8225971,"address":"912 Central Ave","city":"Charlotte","state":"NC","stars":5.0,"review_count":3,"is_open":1},{"business_id":"snC1-DtxoURuPw-keom2GA","name":"Junk-King","latitude":35.3370459,"longitude":-80.8248882,"address":"8425 Old Statesville Rd","city":"Charlotte","state":"NC","stars":3.5,"review_count":10,"is_open":1},{"business_id":"kau4nB7Bx73FxCAwrSrpng","name":"Bliss Plumbing","latitude":35.3372083,"longitude":-80.8257548,"address":"8421 Old Statesville Rd, Unit  12","city":"Charlotte","state":"NC","stars":3.0,"review_count":4,"is_open":1},{"business_id":"zaIhHwN5TFlIzrzour228w","name":"High Performance Real Estate","latitude":35.067842,"longitude":-80.8420172,"address":"3430 Toringdon Way, Ste 200","city":"Charlotte","state":"NC","stars":4.5,"review_count":7,"is_open":1},{"business_id":"HkQaXDTzfovryPGfhBoGng","name":"NC Moving Labor, Inc","latitude":35.1173473,"longitude":-80.7990185,"address":"","city":"Charlotte","state":"NC","stars":3.0,"review_count":4,"is_open":1},{"business_id":"XStfi4op4_W5f1QifgGAzg","name":"Two Men and a Truck Charlotte","latitude":35.27668,"longitude":-80.821245,"address":"3653 Trailer Dr","city":"Charlotte","state":"NC","stars":3.0,"review_count":50,"is_open":1},{"business_id":"N2yMKOSV4XsKJhjqMRq38g","name":"Roblin Painting","latitude":35.253906,"longitude":-80.719438,"address":"6520 Matlea Ct","city":"Charlotte","state":"NC","stars":1.0,"review_count":4,"is_open":1},{"business_id":"0WJZpDb2AgloKVZaQP7hPA","name":"Adkins Piano Service","latitude":35.195314,"longitude":-80.7491563,"address":"","city":"Charlotte","state":"NC","stars":3.5,"review_count":3,"is_open":1},{"business_id":"OBsPhvGvWMnBm8UrN5-meA","name":"Ardmore King's Grant","latitude":35.367897,"longitude":-80.734455,"address":"9015 King's Grant Dr","city":"Charlotte","state":"NC","stars":2.0,"review_count":7,"is_open":1},{"business_id":"QeW_8LjzcXk3D_zIMUyMsw","name":"Dickens Mitchener & Associates","latitude":35.2047982,"longitude":-80.8192229,"address":"2330 Randolph Rd","city":"Charlotte","state":"NC","stars":5.0,"review_count":3,"is_open":1},{"business_id":"QGIwETiSrLcxsaieei72lw","name":"Kuester Management","latitude":35.1455147,"longitude":-80.8641131,"address":"6600 Central Pacific Ave","city":"Charlotte","state":"NC","stars":1.0,"review_count":3,"is_open":1},{"business_id":"lzHr7Ki2e12JmaQsOrdxiw","name":"Clean Free Carpet Cleaning","latitude":35.091276,"longitude":-80.9946398,"address":"13402 Reunion St","city":"Charlotte","state":"NC","stars":4.5,"review_count":24,"is_open":1},{"business_id":"NwhUqdeoroadWim7qusfUg","name":"AT&T Internet","latitude":35.1173473,"longitude":-80.7990185,"address":"","city":"Charlotte","state":"NC","stars":1.0,"review_count":34,"is_open":1},{"business_id":"3lPlfIBjAvNkdaGWGXmnqQ","name":"California Closets - Charlotte","latitude":35.2108433,"longitude":-80.857044,"address":"224 East Blvd","city":"Charlotte","state":"NC","stars":4.5,"review_count":11,"is_open":1},{"business_id":"Qmp7t7eDP_T8qTR2TDDQNA","name":"Southend Painting","latitude":35.2123531,"longitude":-80.8592767,"address":"1800 Camden Rd","city":"Charlotte","state":"NC","stars":3.5,"review_count":8,"is_open":1},{"business_id":"wNAhWqABvz1FQ7PR42OYqA","name":"Classic Attic","latitude":35.1735294,"longitude":-80.8478384,"address":"4301 Park Rd, Ste C, Park Rd Shopping Ctr","city":"Charlotte","state":"NC","stars":3.5,"review_count":13,"is_open":1},{"business_id":"dHaI3mS8kPW-KVmeLdzzmw","name":"Harkey Tile & Stone","latitude":35.2195847,"longitude":-80.816633,"address":"1822 Sunnyside Ave","city":"Charlotte","state":"NC","stars":3.5,"review_count":6,"is_open":1},{"business_id":"7mc7YzCT66KJkIyQMLPNJw","name":"The Colony","latitude":35.1563224,"longitude":-80.8285838,"address":"3701 Roxborough Pkwy","city":"Charlotte","state":"NC","stars":2.5,"review_count":7,"is_open":1},{"business_id":"ow9dm9ZHq05FCgWmCbMedw","name":"You Call We Install Flooring","latitude":35.19357,"longitude":-80.762686,"address":"4739 Holbrook Dr","city":"Charlotte","state":"NC","stars":5.0,"review_count":6,"is_open":1},{"business_id":"_YcWCINjZlb5aWQ5iAmk-w","name":"Cashwell Appliance Parts","latitude":35.2576772,"longitude":-80.8217319,"address":"2900 N Graham St","city":"Charlotte","state":"NC","stars":5.0,"review_count":3,"is_open":1},{"business_id":"_X9jK8ebziNayjYfCSKn2A","name":"Reese's Pro Movers","latitude":35.1290557,"longitude":-80.9539475,"address":"","city":"Charlotte","state":"NC","stars":3.5,"review_count":6,"is_open":1},{"business_id":"S9kfL9bFU1ACksS9kRrjpA","name":"Waterford Hills Apartments","latitude":35.3337841,"longitude":-80.8012323,"address":"6219 Waterford Hills Dr","city":"Charlotte","state":"NC","stars":2.5,"review_count":6,"is_open":1},{"business_id":"umAwCyitZBCt-pCOwkp5pA","name":"Bank of America","latitude":35.1564817,"longitude":-80.8758937,"address":"5801 South Blvd","city":"Charlotte","state":"NC","stars":2.0,"review_count":8,"is_open":1},{"business_id":"t7rrfXTMqkr7xmTu2vlozg","name":"Mattress Firm Tyvola Mall","latitude":35.161573471,"longitude":-80.8749479055,"address":"5411 South Blvd","city":"Charlotte","state":"NC","stars":5.0,"review_count":3,"is_open":0},{"business_id":"q_kfNrBb0LRuYctkVPDo-A","name":"Handy Manny NC","latitude":35.294149,"longitude":-80.7398259,"address":"1001 E Wt Harris Blvd, Ste P150","city":"Charlotte","state":"NC","stars":2.0,"review_count":12,"is_open":1},{"business_id":"OD4z-c-BTwrJ_mVRuiSk_w","name":"Checkered Flag Plumbing","latitude":35.2270869,"longitude":-80.8431267,"address":"","city":"Charlotte","state":"NC","stars":5.0,"review_count":3,"is_open":1},{"business_id":"Qmdt_r2e9z5HtmPEolLvWg","name":"Maid In Heaven","latitude":35.201121,"longitude":-80.764745,"address":"4917 Albemarle Rd","city":"Charlotte","state":"NC","stars":3.5,"review_count":11,"is_open":1},{"business_id":"QSo-xRSO9zPpAsBTUH_a8A","name":"MasterCraft Creations","latitude":35.2052926,"longitude":-80.867226,"address":"2517 Distribution St","city":"Charlotte","state":"NC","stars":2.5,"review_count":3,"is_open":1},{"business_id":"qJ-PEK6TYBdjD8eqsH4Cyw","name":"Colonial Village at South Tryon","latitude":35.149372,"longitude":-80.923806,"address":"7601 Holliswood Court","city":"Charlotte","state":"NC","stars":2.0,"review_count":3,"is_open":1},{"business_id":"GE0a99KOc8e6NthNaIWnKQ","name":"Cielo Apartments","latitude":35.1632173,"longitude":-80.8486769,"address":"4943 Park Rd","city":"Charlotte","state":"NC","stars":3.0,"review_count":12,"is_open":1},{"business_id":"Bsvc_0RuuVTTmYeg5t2P0w","name":"The Best Computer Fixers","latitude":35.219087,"longitude":-80.811773,"address":"2001 Commonwealth Ave","city":"Charlotte","state":"NC","stars":2.5,"review_count":15,"is_open":1},{"business_id":"gunNTEJYgt1hczAXk-UzUg","name":"AFTERDISASTER-Metrolina","latitude":35.2642636,"longitude":-80.8191148,"address":"3501 Asbury Ave","city":"Charlotte","state":"NC","stars":3.5,"review_count":5,"is_open":1},{"business_id":"luF-UfUa8wQrIU334PyF0w","name":"Wilkinson & Associates Real Estate","latitude":35.308914,"longitude":-80.9386619,"address":"8824 Bellhaven Blvd, Ste B","city":"Charlotte","state":"NC","stars":1.5,"review_count":3,"is_open":1},{"business_id":"TMT7jcqZ8FjOIb1GTTVY9w","name":"Hornet Moving","latitude":35.265179,"longitude":-80.805263,"address":"920 W Craighead Rd","city":"Charlotte","state":"NC","stars":4.5,"review_count":70,"is_open":1},{"business_id":"ptZKX4YYmh_F69Vt2R_tkw","name":"Empire Today","latitude":35.2279373,"longitude":-80.8453038,"address":"","city":"Charlotte","state":"NC","stars":1.5,"review_count":26,"is_open":1},{"business_id":"mNumh4jWJePi6nfFsQPo6Q","name":"Charlotte Grill Company","latitude":35.206978,"longitude":-80.866925,"address":"2324-A Distribution St","city":"Charlotte","state":"NC","stars":5.0,"review_count":7,"is_open":1},{"business_id":"uR6N2HkQSQbxKHKSC4EZbQ","name":"TouchPoint Property Management","latitude":35.1474939,"longitude":-80.8429941,"address":"6135 Park S Dr, Ste 510","city":"Charlotte","state":"NC","stars":3.5,"review_count":7,"is_open":1},{"business_id":"TlE7_yfqwWRgtQXj8TKc1w","name":"Post South End","latitude":35.2160363,"longitude":-80.8538011,"address":"222 East Bland St","city":"Charlotte","state":"NC","stars":1.5,"review_count":24,"is_open":1},{"business_id":"lw14xJeyXvZkDGqD9QJzCA","name":"Charlotte Irrigation","latitude":35.273688,"longitude":-80.809557,"address":"4947 Ctr Ave, Ste 11","city":"Charlotte","state":"NC","stars":2.5,"review_count":21,"is_open":1},{"business_id":"fLRmj_MHq3hnkznvKFml9Q","name":"Car Cosmetics Auto Glass","latitude":35.2438176,"longitude":-80.8330646,"address":"1619 N Graham St","city":"Charlotte","state":"NC","stars":1.0,"review_count":3,"is_open":1},{"business_id":"cZVe7ZQqRMKTDmypmq8HXg","name":"Mr Rekey Locksmith - Charlotte","latitude":35.2146586,"longitude":-80.8599193,"address":"","city":"Charlotte","state":"NC","stars":5.0,"review_count":8,"is_open":1},{"business_id":"iIO6CELnXyFmuAAJ3tb-_g","name":"Tim Brown","latitude":35.3352529,"longitude":-80.7990185,"address":"","city":"Charlotte","state":"NC","stars":5.0,"review_count":3,"is_open":1},{"business_id":"tC2XPjHOeM_qJI3izazRqQ","name":"MaidPro East Charlotte","latitude":35.1728474,"longitude":-80.6568033,"address":"11300 Lawyers Rd, Suite D","city":"Charlotte","state":"NC","stars":3.5,"review_count":7,"is_open":1},{"business_id":"cMP1K3dEXfRPYwX_VfcomQ","name":"Spectrum Store","latitude":35.2064153871,"longitude":-80.8621297094,"address":"2222 S Blvd","city":"Charlotte","state":"NC","stars":2.0,"review_count":25,"is_open":1},{"business_id":"CL9ODdHFXpwAeMoKdOG6QA","name":"Built Restoration","latitude":35.1757321,"longitude":-80.8817744,"address":"4913 Chastain Ave, Ste 35","city":"Charlotte","state":"NC","stars":5.0,"review_count":4,"is_open":1},{"business_id":"lOsWaE8H5ayCaQ4f9SInhQ","name":"Glenny's Painting","latitude":35.1825962,"longitude":-80.6548882,"address":"","city":"Charlotte","state":"NC","stars":4.0,"review_count":26,"is_open":1},{"business_id":"zanmkGBu7YnzZkXiW--gkw","name":"Homewood Suites by Hilton Charlotte-North\/Univ Research Park","latitude":35.3015641,"longitude":-80.7518571,"address":"8340 N Tryon St","city":"Charlotte","state":"NC","stars":3.0,"review_count":29,"is_open":1},{"business_id":"KUivmYvpQYn31QbpoSLlWQ","name":"Impact Movers","latitude":35.2263714,"longitude":-80.7990185,"address":"","city":"Charlotte","state":"NC","stars":4.0,"review_count":10,"is_open":0},{"business_id":"LZduNnNUMYuINJgMbP2C9w","name":"My Mommy's Helper","latitude":35.0535496,"longitude":-80.8211696,"address":"","city":"Charlotte","state":"NC","stars":1.0,"review_count":4,"is_open":1},{"business_id":"lpBt5XHTYlCtPpsXa2LeoA","name":"Sky HVAC","latitude":35.1889535,"longitude":-80.8902374,"address":"4400 Stuart Andrew Blvd","city":"Charlotte","state":"NC","stars":5.0,"review_count":3,"is_open":1},{"business_id":"z9VQkDn7a0PRl4c0WJEJOQ","name":"Providence Electric","latitude":35.2171189,"longitude":-80.8523419,"address":"315 Arlington Ave","city":"Charlotte","state":"NC","stars":3.0,"review_count":4,"is_open":0},{"business_id":"g4Tsa294D3LdJUOd59uucw","name":"Camden Pinehurst","latitude":35.158342,"longitude":-80.799347,"address":"3904 Providence Rd","city":"Charlotte","state":"NC","stars":3.0,"review_count":5,"is_open":1},{"business_id":"KrXC6bwcUUQPS3VBYfRc4Q","name":"Lantern & Scroll","latitude":35.2146586,"longitude":-80.8599193,"address":"","city":"Charlotte","state":"NC","stars":5.0,"review_count":3,"is_open":1},{"business_id":"VsgNiSm58YDQbMACmU1u_A","name":"LaVie SouthPark","latitude":35.1534386,"longitude":-80.8410657,"address":"5725 Carnegie Blvd","city":"Charlotte","state":"NC","stars":4.0,"review_count":17,"is_open":1},{"business_id":"Elg6rnxEt3C7hrc4v2uTpg","name":"Kingdom of Cleaning","latitude":35.1859633847,"longitude":-80.657634782,"address":"","city":"Charlotte","state":"NC","stars":3.5,"review_count":3,"is_open":1},{"business_id":"VyehGin-PbrzF6r5LqQvfQ","name":"PNC Bank","latitude":35.2045670947,"longitude":-80.8486139774,"address":"1000 E Blvd","city":"Charlotte","state":"NC","stars":2.5,"review_count":3,"is_open":1},{"business_id":"RsRI3Xc2878GtjhuXsczew","name":"Air Maxx of Charlotte, Inc.","latitude":35.1591306,"longitude":-80.8484363,"address":"3941 Selwyn Ave","city":"Charlotte","state":"NC","stars":4.0,"review_count":8,"is_open":1},{"business_id":"YtOQn9QcDInkq-7_hGWzNA","name":"QuickFix Garage Door Service","latitude":35.1097782,"longitude":-80.771321,"address":"","city":"Charlotte","state":"NC","stars":4.0,"review_count":4,"is_open":1},{"business_id":"uJyfFRH7mGp0FNE26Uwo-w","name":"University Center by Cortland","latitude":35.3054070346,"longitude":-80.7572547199,"address":"1421 Baseline Rd","city":"Charlotte","state":"NC","stars":2.0,"review_count":6,"is_open":1},{"business_id":"VoFNaHTrbw1OhzEyTeJXIg","name":"Americas Choice Inspections","latitude":35.0881163,"longitude":-80.8423098,"address":"7301 Carmel Executive Park Dr, Ste 304","city":"Charlotte","state":"NC","stars":2.0,"review_count":12,"is_open":1},{"business_id":"oDzjt26zEuer1m1i5DEdhw","name":"Magic Rugs","latitude":35.1443747,"longitude":-80.7412759,"address":"9315-C Monroe Rd","city":"Charlotte","state":"NC","stars":5.0,"review_count":3,"is_open":1},{"business_id":"I_hrI4WLrPLC4fpQT4nWVQ","name":"University Village At Charlotte","latitude":35.3146290705,"longitude":-80.7210989891,"address":"9915 University Village Blvd","city":"Charlotte","state":"NC","stars":2.0,"review_count":14,"is_open":1},{"business_id":"BoFlLKngHb-9lo-QpDs9aA","name":"Colonial Grand at Legacy Park","latitude":35.324408,"longitude":-80.774464,"address":"8810 Legacy Park Dr","city":"Charlotte","state":"NC","stars":2.0,"review_count":9,"is_open":1},{"business_id":"x8YzT_havw_O8y4uxzBb-w","name":"Details Home Boutique","latitude":35.1731418,"longitude":-80.8502018,"address":"4301 Park Rd, Ste D, Park Road Shopping Center","city":"Charlotte","state":"NC","stars":4.0,"review_count":10,"is_open":1},{"business_id":"gtxXmYnYOGzPw2RLbko70Q","name":"The Encore SouthPark","latitude":35.1567278,"longitude":-80.8361354,"address":"6205 Morrison Blvd","city":"Charlotte","state":"NC","stars":4.5,"review_count":9,"is_open":1},{"business_id":"D-p1HfAsWlkjBpuUTUvTPA","name":"Green Home Solutions","latitude":35.265226,"longitude":-80.759962,"address":"6014 Mcdaniel Ln, Unit C","city":"Charlotte","state":"NC","stars":5.0,"review_count":3,"is_open":0},{"business_id":"SLaObsnAt2QJotQnhhbCIA","name":"AAA City Plumbing","latitude":35.1709454,"longitude":-80.8987582,"address":"5362 Southampton Rd","city":"Charlotte","state":"NC","stars":3.0,"review_count":17,"is_open":1},{"business_id":"ERa8DehqmysNMBPjexRErg","name":"The Home Depot","latitude":35.173860937,"longitude":-80.8774960041,"address":"4750 South Blvd","city":"Charlotte","state":"NC","stars":2.5,"review_count":26,"is_open":1},{"business_id":"324eSphyLmL4bTRxrGOUuQ","name":"AD Fences and Decks","latitude":35.315736,"longitude":-80.798455,"address":"5419 Haybridge Rd","city":"Charlotte","state":"NC","stars":2.0,"review_count":4,"is_open":1},{"business_id":"fDF5JNdud7Ga9BKycgsjTQ","name":"Paint Depot","latitude":35.0890517,"longitude":-80.867053,"address":"8706 Pineville Matthews Rd","city":"Charlotte","state":"NC","stars":4.0,"review_count":5,"is_open":1},{"business_id":"ZtEqyWklASMzaxLksTDT8A","name":"Bowman Real Estate","latitude":35.3301529,"longitude":-80.7325287,"address":"","city":"Charlotte","state":"NC","stars":2.5,"review_count":15,"is_open":1},{"business_id":"IC11Ky-tN9crHmk2ztY7Dw","name":"1225 South Church","latitude":35.219973,"longitude":-80.856191,"address":"1225 South Church St","city":"Charlotte","state":"NC","stars":1.0,"review_count":22,"is_open":1},{"business_id":"C5DM9srkAjN-bHMuMHC0ug","name":"A Chimney Bug","latitude":35.1691741,"longitude":-80.7561272,"address":"Monroe Rd","city":"Charlotte","state":"NC","stars":3.5,"review_count":3,"is_open":1},{"business_id":"dsxQA4tTF0ZWsiXb13cg7w","name":"Minit Maids","latitude":35.1959567,"longitude":-80.7959463,"address":"3717 Latrobe Dr, Ste 730","city":"Charlotte","state":"NC","stars":4.0,"review_count":17,"is_open":1},{"business_id":"rGy3fYmIeZkJyLnuZqnrhw","name":"Xactcrete of Charlotte","latitude":35.275334,"longitude":-80.8349244,"address":"4134 Statesville Rd","city":"Charlotte","state":"NC","stars":4.0,"review_count":3,"is_open":1},{"business_id":"Xq7LKPur2crr2DINeKhQOA","name":"Industrious Charlotte Uptown","latitude":35.2265794,"longitude":-80.8428142,"address":"101 S Tryon St, Fl 27","city":"Charlotte","state":"NC","stars":5.0,"review_count":10,"is_open":1},{"business_id":"O7eVMzhki57fjPBd1vW7ww","name":"Garage Door and More","latitude":35.1751407,"longitude":-80.8021574,"address":"338 S Sharon Amity Rd","city":"Charlotte","state":"NC","stars":4.0,"review_count":7,"is_open":1},{"business_id":"1CpJIsaToqbA7ZRmXsp6jA","name":"Lauren Mullan Realty","latitude":35.0611405,"longitude":-80.7657171,"address":"10706 Sikes Pl, Ste 150","city":"Charlotte","state":"NC","stars":5.0,"review_count":9,"is_open":1},{"business_id":"Khi3KbGo_8XJpzp0IlAZiA","name":"Circa Uptown Apartments","latitude":35.228997,"longitude":-80.849962,"address":"360 S Graham St","city":"Charlotte","state":"NC","stars":5.0,"review_count":3,"is_open":1},{"business_id":"7VAcRL0y7Arthf7YkDnrDg","name":"Insight Pest Solutions","latitude":35.1910336,"longitude":-80.8874497,"address":"4201 Stuart Andrew Blvd, Ste G","city":"Charlotte","state":"NC","stars":4.0,"review_count":17,"is_open":0},{"business_id":"8V7GNpg7lLp0L6u6J5pHsw","name":"Average Joe's Lawn and Landscape","latitude":35.0928965,"longitude":-80.7347363,"address":"2328 Weddington Rd","city":"Charlotte","state":"NC","stars":5.0,"review_count":4,"is_open":1},{"business_id":"IPHhkqVO5z4m2wCDqp4qdQ","name":"The Blade Doctor","latitude":35.2833293,"longitude":-80.9760556,"address":"","city":"Charlotte","state":"NC","stars":5.0,"review_count":5,"is_open":1},{"business_id":"Ss16iNw5LVb5cy3oJYoRhA","name":"Mosaic Village","latitude":35.2395842198,"longitude":-80.8587610216,"address":"1635 W Trade St","city":"Charlotte","state":"NC","stars":2.5,"review_count":3,"is_open":1},{"business_id":"uZiQD9pPuXaYjACbL6SqzQ","name":"Universal Stone","latitude":35.2731243,"longitude":-80.8890557,"address":"4806 Rozzelles Ferry Rd","city":"Charlotte","state":"NC","stars":2.5,"review_count":3,"is_open":1},{"business_id":"jW6SsYhyFHXiTZXeDbKfEQ","name":"Atkins Circle - Morgan Communities","latitude":35.0681879,"longitude":-80.846039,"address":"12506 Atkins Circle Drive","city":"Charlotte","state":"NC","stars":2.0,"review_count":19,"is_open":1},{"business_id":"Voi1fbzDe1kSm4DcIt89xw","name":"Fox Ridge Lofts","latitude":35.2638694,"longitude":-80.8859437,"address":"201 S Hoskins Rd","city":"Charlotte","state":"NC","stars":1.0,"review_count":3,"is_open":1},{"business_id":"wWpCpfDNMBhurXuNLEPyaQ","name":"Absolute Glass","latitude":35.286805,"longitude":-80.905282,"address":"6120 Brookshire Blvd","city":"Charlotte","state":"NC","stars":3.0,"review_count":4,"is_open":0},{"business_id":"gq5RxWM1its1zG93Oork7Q","name":"Bexley at Springs Farm","latitude":35.1001888,"longitude":-80.7838617,"address":"3300 Open Field Ln","city":"Charlotte","state":"NC","stars":3.0,"review_count":3,"is_open":1},{"business_id":"AciiKN6qRQCDNaPaybc-bQ","name":"Junk Doctors","latitude":35.266632,"longitude":-80.87099,"address":"718 Montana Dr","city":"Charlotte","state":"NC","stars":5.0,"review_count":3,"is_open":1},{"business_id":"sqvsinC9dGhALn_UHBDuww","name":"Osborne Plumbing And Drain","latitude":35.239823,"longitude":-80.927089,"address":"3625 Scott Futrell Dr","city":"Charlotte","state":"NC","stars":4.5,"review_count":3,"is_open":1},{"business_id":"nUgd6F-xIFdGSyQbzRojWQ","name":"Rebecca Richardson - Wyndham Capital Mortgage","latitude":35.1479463,"longitude":-80.841109,"address":"6115 Park South Dr, Ste 200","city":"Charlotte","state":"NC","stars":5.0,"review_count":6,"is_open":1},{"business_id":"DEPjYdyXmU6NyFB3pIQCmw","name":"Bank of America","latitude":35.1781282,"longitude":-80.8002949,"address":"4401 Randolph Rd","city":"Charlotte","state":"NC","stars":2.0,"review_count":5,"is_open":1},{"business_id":"JRw19zWWX0gJfIgFmqc3HA","name":"GutterDome","latitude":35.232354,"longitude":-80.912335,"address":"2973 Interstate St","city":"Charlotte","state":"NC","stars":1.0,"review_count":3,"is_open":1},{"business_id":"NnBcSPhIx27dGBugxhTUcg","name":"Shields Professional Movers","latitude":35.2916363,"longitude":-80.7269854,"address":"","city":"Charlotte","state":"NC","stars":1.0,"review_count":8,"is_open":1},{"business_id":"GXYPgCrZWlhofm0pQs3nRQ","name":"Perfect Finish Cleaning Service","latitude":35.0908229,"longitude":-80.8662316,"address":"10100 Park Cedar Dr","city":"Charlotte","state":"NC","stars":2.5,"review_count":3,"is_open":1},{"business_id":"i4B7nZ1GEfzkDwcYl3wRfA","name":"Willow Ridge Apartments","latitude":35.0947111,"longitude":-80.8711385,"address":"9200 Willow Ridge Rd","city":"Charlotte","state":"NC","stars":2.0,"review_count":7,"is_open":1},{"business_id":"CbN9ycYUvM6QroWtp7YBNw","name":"Metric Realty Company","latitude":35.1593132,"longitude":-80.7397206,"address":"7508 E Independence Blvd, Ste 126","city":"Charlotte","state":"NC","stars":5.0,"review_count":4,"is_open":1},{"business_id":"a8Jo2jBaYU5BlRkqgmKwqg","name":"Post Park at Phillips Place","latitude":35.144842,"longitude":-80.8260864,"address":"4835 Cameron Valley Pkwy","city":"Charlotte","state":"NC","stars":3.5,"review_count":8,"is_open":1},{"business_id":"B1WyyW7bnZE86LWzR9CUUA","name":"Bank of America","latitude":35.1513864,"longitude":-80.8277674,"address":"4415 Sharon Rd, Ste 100","city":"Charlotte","state":"NC","stars":4.0,"review_count":5,"is_open":1},{"business_id":"fAtP5kaGCLvrOE_cRShFCQ","name":"Dolce Casa Tile Boutique","latitude":35.0891974,"longitude":-80.8605246,"address":"8318 Pineville Matthews Rd, Ste 712","city":"Charlotte","state":"NC","stars":3.0,"review_count":4,"is_open":1},{"business_id":"n3Ihb_FTL6FbHV5oYIoC7A","name":"Mister Sparky by Wise Electric Control","latitude":35.2311046,"longitude":-80.8382546,"address":"525 N Tryon St, Ste 1600","city":"Charlotte","state":"NC","stars":3.0,"review_count":4,"is_open":1},{"business_id":"Gf5otCX4jp__-IiHILEPtw","name":"Promenade Park","latitude":35.0627439,"longitude":-80.7798503,"address":"11115 Shadow Grove Cir","city":"Charlotte","state":"NC","stars":3.5,"review_count":5,"is_open":1},{"business_id":"tTxw-8Qs3xwQNKAB0thcPg","name":"Group 15 Real Estate","latitude":35.2311201,"longitude":-80.838277,"address":"525 N Tryon St, Ste 1600","city":"Charlotte","state":"NC","stars":1.0,"review_count":11,"is_open":1},{"business_id":"TGXXZe4zuQk5CZbZrtXYUA","name":"Quail Valley On Carmel","latitude":35.1179038,"longitude":-80.8262098,"address":"4012 Quail Forest Dr","city":"Charlotte","state":"NC","stars":3.5,"review_count":5,"is_open":1},{"business_id":"eHTCrHsylIcBDARS2X9Hdw","name":"Flash Movers","latitude":35.2326781,"longitude":-80.8460822,"address":"","city":"Charlotte","state":"NC","stars":1.5,"review_count":4,"is_open":1},{"business_id":"TKQT8EhCom4WIGKb9PbKpw","name":"Camden Cotton Mills Apartments","latitude":35.232494,"longitude":-80.846212,"address":"520 W 5th St","city":"Charlotte","state":"NC","stars":4.5,"review_count":18,"is_open":1},{"business_id":"dj_PM6zssDLIGZvIxAbf9Q","name":"The Grayson Apartment Homes","latitude":35.30263,"longitude":-80.798655,"address":"6001 Bennettsville Ln","city":"Charlotte","state":"NC","stars":1.5,"review_count":3,"is_open":1},{"business_id":"t--eLL_U0LCBoOhvqF3d-g","name":"Bank of America","latitude":35.0565283,"longitude":-80.8508822,"address":"13805 Conlan Cir","city":"Charlotte","state":"NC","stars":2.0,"review_count":4,"is_open":1},{"business_id":"pLWq44aK9YDuhGGlsAnUQw","name":"Green Movers of America","latitude":35.2271648,"longitude":-80.8463417,"address":"222 S Church St","city":"Charlotte","state":"NC","stars":1.0,"review_count":6,"is_open":1},{"business_id":"4vsyLJrOlHYGeEb-ersQGw","name":"Larsana Heating & Cooling","latitude":35.1458103,"longitude":-80.7416656,"address":"9301-E Monroe Rd","city":"Charlotte","state":"NC","stars":2.0,"review_count":4,"is_open":1},{"business_id":"uXo4jJUORDO7jPQAGZrD9w","name":"D&L Parts","latitude":35.2327069,"longitude":-80.874532,"address":"2100 Freedom Dr","city":"Charlotte","state":"NC","stars":4.5,"review_count":5,"is_open":1},{"business_id":"yC-Nrn05R5gPhlgBIy3jIQ","name":"AG Drywall & Painting","latitude":35.207064,"longitude":-80.6882456,"address":"9108 Shackleford Ter","city":"Charlotte","state":"NC","stars":5.0,"review_count":3,"is_open":1},{"business_id":"5a3iXecmLFMS3PRjC-S21Q","name":"Neighborhood Garage Door Services","latitude":35.2326781,"longitude":-80.8460822,"address":"","city":"Charlotte","state":"NC","stars":3.5,"review_count":46,"is_open":1},{"business_id":"Bx7GPOPbgqFWpKflnsDVkA","name":"Miracle Method of Charlotte","latitude":35.1891045,"longitude":-80.8878336,"address":"4301 Stuart Andrew Blvd","city":"Charlotte","state":"NC","stars":1.0,"review_count":4,"is_open":1},{"business_id":"OC8Nu2kRksg48pb_JT0Gng","name":"Southpark Commons","latitude":35.1288764,"longitude":-80.8357004,"address":"4401 Hampton Ridge Dr","city":"Charlotte","state":"NC","stars":2.5,"review_count":5,"is_open":1},{"business_id":"E2G5ZtcS-8lhWPOI0Qd5eg","name":"Lowe's Home Improvement Warehouse of Charlotte","latitude":35.0657499,"longitude":-80.773589,"address":"5310 Ballantyne Cmns Pkwy","city":"Charlotte","state":"NC","stars":2.5,"review_count":23,"is_open":1},{"business_id":"NwRFwhWMkMsDBgqFXJrzqQ","name":"Excel Cleaning Service","latitude":35.3352529,"longitude":-80.7990185,"address":"","city":"Charlotte","state":"NC","stars":2.0,"review_count":9,"is_open":1},{"business_id":"B6I7fF4LbJOR8ohXN4KNMw","name":"Mr. Tint","latitude":35.132378,"longitude":-80.910169,"address":"8201 Arrowridge Blvd, Ste 102","city":"Charlotte","state":"NC","stars":3.0,"review_count":6,"is_open":1},{"business_id":"_F6smlpb_Gg-NlVVasc7Tg","name":"Avalon Heights by Milestone Management","latitude":35.207251,"longitude":-80.74462,"address":"6000 Regal Estate Ln","city":"Charlotte","state":"NC","stars":1.5,"review_count":3,"is_open":0},{"business_id":"h3pdqO3HonNofNTpqH4HEg","name":"Woodcycle Refinishing","latitude":35.3275393,"longitude":-80.8450444,"address":"","city":"Charlotte","state":"NC","stars":5.0,"review_count":3,"is_open":1},{"business_id":"uQJxO7sajeFqmNtW9z1bjg","name":"Protect America","latitude":35.3301529,"longitude":-80.7325287,"address":"","city":"Charlotte","state":"NC","stars":1.5,"review_count":7,"is_open":1},{"business_id":"8gJUInzZ0I7I4GhGqD-XLA","name":"Melissa Brown - Helen Adams Realty","latitude":35.054327,"longitude":-80.848719,"address":"15235 John J Delaney Dr","city":"Charlotte","state":"NC","stars":5.0,"review_count":12,"is_open":1},{"business_id":"aGJJuf-SohjFMzl50HFm_Q","name":"Creative Wood Designers","latitude":35.2389578,"longitude":-80.8142264,"address":"2209 Yadkin Ave","city":"Charlotte","state":"NC","stars":4.0,"review_count":4,"is_open":1},{"business_id":"Xbxsy9dKywU3iVe3ME9fqw","name":"SharKlean Residential Cleaning","latitude":35.1274285,"longitude":-80.8599193,"address":"","city":"Charlotte","state":"NC","stars":3.5,"review_count":3,"is_open":0},{"business_id":"e5rdJ8TX6fHE1PtJxrXDDQ","name":"Michael Alan Realty - Century 21","latitude":35.0283902,"longitude":-80.8189453,"address":"10025 Woodland Watch Ct","city":"Charlotte","state":"NC","stars":3.5,"review_count":6,"is_open":0},{"business_id":"nxuzUA-StSbQZYJhJ_Pw2A","name":"Metro's Other Woman","latitude":35.1745118,"longitude":-80.840034,"address":"2820 Selwyn Ave, Ste 686","city":"Charlotte","state":"NC","stars":2.5,"review_count":7,"is_open":1},{"business_id":"0BYDwNeUmXKnOvgt6CqjSA","name":"Mosaic South End Apartments","latitude":35.217707,"longitude":-80.853954,"address":"1312 S College St","city":"Charlotte","state":"NC","stars":3.0,"review_count":10,"is_open":1},{"business_id":"Zrf7-VjM3jMC93H0qnszTw","name":"Totable","latitude":35.239118,"longitude":-80.8460599,"address":"1000 Nc Music Factory Blvd, Ste C6","city":"Charlotte","state":"NC","stars":3.0,"review_count":5,"is_open":1},{"business_id":"vRJwTEx_rffgBgGLoA-G2g","name":"Penske Truck Rental","latitude":35.114059,"longitude":-80.92023,"address":"11115 Texland Blvd","city":"Charlotte","state":"NC","stars":4.5,"review_count":3,"is_open":1},{"business_id":"A-7n766UA1penRQl7HsjLQ","name":"We-Pack Moving","latitude":35.3275393,"longitude":-80.8450444,"address":"","city":"Charlotte","state":"NC","stars":1.0,"review_count":3,"is_open":1},{"business_id":"T23UQzEUYVV8ZujJlRUdEw","name":"U-Haul at Independence Blvd","latitude":35.1711878391,"longitude":-80.7449359669,"address":"6601 E Independence","city":"Charlotte","state":"NC","stars":2.5,"review_count":3,"is_open":1},{"business_id":"t3Vdf18lzyq9P0sqigrNiA","name":"Charlotte Veteran Movers","latitude":35.2167,"longitude":-80.801894,"address":"1234 Veteran's Way","city":"Charlotte","state":"NC","stars":2.5,"review_count":7,"is_open":1},{"business_id":"oN7m0EcP4VBIfvwpFdVjnA","name":"McDonald Group - Exp Realty","latitude":35.150304,"longitude":-80.8405705,"address":"5970 Fairview Rd St","city":"Charlotte","state":"NC","stars":5.0,"review_count":6,"is_open":1},{"business_id":"3AU90T8PugOf22KdTsEv2w","name":"Sun Stoppers Charlotte","latitude":35.2019886,"longitude":-80.7279815,"address":"6810 Albemarle Rd","city":"Charlotte","state":"NC","stars":4.5,"review_count":13,"is_open":1},{"business_id":"SF2mt8Lu8Mp2HtZpvZjOHw","name":"Queen City Lumber and Supply","latitude":35.208626,"longitude":-80.8116306,"address":"2501 Weddington Ave","city":"Charlotte","state":"NC","stars":4.5,"review_count":5,"is_open":1},{"business_id":"Far3PjEgkm2D9Tfm3Gel5Q","name":"Whitehall Parc Apartment Homes","latitude":35.151174,"longitude":-80.939332,"address":"8024 Whitehall Executive Cente","city":"Charlotte","state":"NC","stars":2.5,"review_count":12,"is_open":1},{"business_id":"7BPrlpAXoNltp9faQ-KM5g","name":"Florida Tile","latitude":35.191929,"longitude":-80.8883759,"address":"605 Phillip Davis Dr, Ste 10","city":"Charlotte","state":"NC","stars":2.5,"review_count":3,"is_open":1},{"business_id":"DXZltncZiYdp-1M-vFWeqQ","name":"Web Don","latitude":35.2670973,"longitude":-80.8130367,"address":"1400 Ameron Dr","city":"Charlotte","state":"NC","stars":3.5,"review_count":3,"is_open":1},{"business_id":"Y1Pr1qCT6hsiOaTebKEYMw","name":"Carrie's Creations","latitude":35.2539187,"longitude":-81.0007257,"address":"12701 Moores Chapel Rd","city":"Charlotte","state":"NC","stars":5.0,"review_count":3,"is_open":1},{"business_id":"OQiTik-KQ-kw_fsq9HTf1g","name":"Uptown Gardens Apartments","latitude":35.234227,"longitude":-80.843535,"address":"517 W 8th St","city":"Charlotte","state":"NC","stars":2.0,"review_count":9,"is_open":1},{"business_id":"314UjIg29NBfnr4ihSAbJg","name":"Quarterside","latitude":35.2231143,"longitude":-80.8328051,"address":"810 E 7th St, Ste 100","city":"Charlotte","state":"NC","stars":2.0,"review_count":20,"is_open":1},{"business_id":"H6Ze8wuvq3P-VyTf-tpF-Q","name":"Pool Xperts","latitude":35.08632,"longitude":-80.84716,"address":"6644 Carmel Rd","city":"Charlotte","state":"NC","stars":4.5,"review_count":5,"is_open":1},{"business_id":"goM5JiGB9XR51TYaIO7s0Q","name":"Protect Your Home - ADT Authorized Premier Provider","latitude":35.174981,"longitude":-80.851433,"address":"4108 Park Rd, Suite 101","city":"Charlotte","state":"NC","stars":1.0,"review_count":9,"is_open":1},{"business_id":"Ja1Dc07SMSkxOeGWpAHx9w","name":"Shower Me With Love","latitude":35.1464694,"longitude":-80.8293707,"address":"4845 Ashley Park Ln","city":"Charlotte","state":"NC","stars":3.0,"review_count":18,"is_open":1},{"business_id":"ATKC7O3KXK-CXVG5P0fkiA","name":"T R Lawing Realty","latitude":35.217617,"longitude":-80.8243273,"address":"1445 E 7th St","city":"Charlotte","state":"NC","stars":2.0,"review_count":29,"is_open":1},{"business_id":"DAZxrhgdzyFuswGrpbnMng","name":"A-1 Clean Up & Movers","latitude":35.2590635,"longitude":-80.8938554,"address":"810 S Hoskins Rd","city":"Charlotte","state":"NC","stars":3.0,"review_count":4,"is_open":1},{"business_id":"JoI4QXMP1awzyY7pw_nU1A","name":"Pastor Cleaning Services","latitude":35.1469611,"longitude":-80.8090997,"address":"7804 Fairview Rd, Ste 283","city":"Charlotte","state":"NC","stars":5.0,"review_count":4,"is_open":1},{"business_id":"z_HAATqDIW-0Nqg2TEVpaQ","name":"Time Warner Cable","latitude":35.153216,"longitude":-80.937278,"address":"3140 W Arrowood Rd","city":"Charlotte","state":"NC","stars":1.5,"review_count":21,"is_open":0},{"business_id":"F3_pdCIkUPGSLXo4AdzeCA","name":"Lake Arbor Apartments","latitude":35.2480875008,"longitude":-80.9060340375,"address":"4929 Tuckaseegee Rd","city":"Charlotte","state":"NC","stars":1.5,"review_count":3,"is_open":1},{"business_id":"yiIe4GtNnF3ZBbgtC9u-iw","name":"Fish Window Cleaning","latitude":35.2795355,"longitude":-80.8360204,"address":"3210 Motorsports Ln, Unit 4","city":"Charlotte","state":"NC","stars":3.5,"review_count":3,"is_open":1},{"business_id":"a3K3ulv2bDgYn119OCKAZg","name":"Garage Door Service Co.","latitude":35.1316472,"longitude":-80.9526389,"address":"2905 Westinghouse Blvd, Ste 400","city":"Charlotte","state":"NC","stars":1.0,"review_count":13,"is_open":0},{"business_id":"HMg-WsMd1CrQ1fkHTKKPbA","name":"OG Lawn Care","latitude":35.212973,"longitude":-80.9097127,"address":"","city":"Charlotte","state":"NC","stars":5.0,"review_count":3,"is_open":1},{"business_id":"O6fYzs9CYkQLeSKC0JjBXg","name":"Stoneworks","latitude":35.3139369,"longitude":-80.8517903,"address":"6935 Reames Rd, Ste A","city":"Charlotte","state":"NC","stars":2.5,"review_count":3,"is_open":1},{"business_id":"w-Q454gxml_hkxs9lD4wXg","name":"Wright Away Movers & Cleaners","latitude":35.2418111,"longitude":-80.8251492,"address":"1801 N Tryon St","city":"Charlotte","state":"NC","stars":1.0,"review_count":5,"is_open":1},{"business_id":"rUKnyS8dx2PYhuyK8ZnIiA","name":"Superior School of Real Estate","latitude":35.05336,"longitude":-80.85189,"address":"14825 Ballantyne Village Way, Ste 270","city":"Charlotte","state":"NC","stars":4.0,"review_count":13,"is_open":1},{"business_id":"2a-ikPfGuxRqZVPzsGzS5A","name":"Lowe's Home Improvement Warehouse Stores","latitude":35.2919719,"longitude":-80.7424017,"address":"1100 Chancellor Park Dr","city":"Charlotte","state":"NC","stars":2.5,"review_count":20,"is_open":1},{"business_id":"2ObfNGHyNfmS2nxu9ClV-g","name":"Graebel Van Lines","latitude":35.2713109,"longitude":-80.8639184,"address":"2901 Stewart Creek Blvd","city":"Charlotte","state":"NC","stars":2.5,"review_count":5,"is_open":1},{"business_id":"QpXT3hfEh_jlZ-8G-QPsSw","name":"Allen Tate Company Real Estate","latitude":35.1470332,"longitude":-80.8290854,"address":"6700 Fairview Rd","city":"Charlotte","state":"NC","stars":3.0,"review_count":6,"is_open":1},{"business_id":"FN3-nj-IVQU5o25n2nyD0A","name":"Simply Best Maids","latitude":35.3387589763,"longitude":-80.7695342634,"address":"10130 Mallard Creek Rd, Ste 300","city":"Charlotte","state":"NC","stars":3.5,"review_count":5,"is_open":0},{"business_id":"gnYgjMCF9VT03qMOiiDygw","name":"Park and Kingston","latitude":35.215017,"longitude":-80.858155,"address":"125 W Park Ave","city":"Charlotte","state":"NC","stars":5.0,"review_count":3,"is_open":1},{"business_id":"an1NEEpa6X8IMdkhwGwHWw","name":"goodmortgage.com","latitude":35.1972016,"longitude":-80.8760731,"address":"3325 S Tryon St","city":"Charlotte","state":"NC","stars":2.0,"review_count":6,"is_open":1},{"business_id":"79qpn-_Osifzsqx-7JnTKw","name":"LendingTree","latitude":35.0601617,"longitude":-80.8600057,"address":"11115 Rushmore Dr","city":"Charlotte","state":"NC","stars":1.0,"review_count":81,"is_open":1},{"business_id":"vER_6eVMGY45BzWZgNoaWA","name":"Hi-Tech Laundromat","latitude":35.237835,"longitude":-80.800583,"address":"2915 The Plz","city":"Charlotte","state":"NC","stars":2.5,"review_count":13,"is_open":1},{"business_id":"_GbGWyKlxIbIESLYFI5IOQ","name":"B & E Air Conditioning & Heating","latitude":35.1986684,"longitude":-80.7960544,"address":"3811 Saint Mary Ave","city":"Charlotte","state":"NC","stars":2.5,"review_count":3,"is_open":1},{"business_id":"cZssy9y2nEkMScQlAAxjug","name":"Camden Stonecrest Apartments","latitude":35.0513338044,"longitude":-80.8116324926,"address":"8620 Bella Resse Rd","city":"Charlotte","state":"NC","stars":4.0,"review_count":11,"is_open":1},{"business_id":"cOo2kYltBT_bTCtRg0F52g","name":"Tint Pro of South Charlotte","latitude":35.1473135,"longitude":-80.7440471,"address":"9101 Monroe Rd, Ste 100","city":"Charlotte","state":"NC","stars":5.0,"review_count":4,"is_open":1},{"business_id":"JknH1lgoS2Nhle2mZxOA9Q","name":"Yards at Noda Apartments","latitude":35.248254,"longitude":-80.80878,"address":"703 Rollerton Rd","city":"Charlotte","state":"NC","stars":4.0,"review_count":11,"is_open":1},{"business_id":"h_vsOvGHQtEpUroh-5lcHA","name":"Camden Gallery Apartments","latitude":35.213305664,"longitude":-80.8593057667,"address":"1750 Camden Rd","city":"Charlotte","state":"NC","stars":5.0,"review_count":20,"is_open":1},{"business_id":"pUZin38l9x7FAEr0XQGu7w","name":"Intown Suites","latitude":35.2044233,"longitude":-80.7220048,"address":"7135 Albemarle Rd","city":"Charlotte","state":"NC","stars":1.0,"review_count":4,"is_open":1},{"business_id":"5x_B6O5ibZ_ygDtxjnoImQ","name":"Benjamin Franklin Plumbing","latitude":35.118866,"longitude":-80.882741,"address":"8919 Crump Rd, Ste B","city":"Charlotte","state":"NC","stars":2.0,"review_count":40,"is_open":1},{"business_id":"zP1egR1WCWSMLUK-xPT_Og","name":"Here 2 Help Maintenance and Repairs","latitude":35.190579,"longitude":-80.764486,"address":"4841 Charleston Dr","city":"Charlotte","state":"NC","stars":1.0,"review_count":3,"is_open":1},{"business_id":"Ih7z_sl7eoEMdGrZq0llIQ","name":"Starmark Home Inspections","latitude":35.068308,"longitude":-80.795449,"address":"10900 Winterbourne Ct","city":"Charlotte","state":"NC","stars":4.0,"review_count":7,"is_open":1},{"business_id":"Ww8YrrQzugCe1LKiBQqwVQ","name":"Going Up Garage Doors","latitude":35.0957912,"longitude":-80.9888556,"address":"12813 Lismorre Castle Ct","city":"Charlotte","state":"NC","stars":5.0,"review_count":7,"is_open":1},{"business_id":"gigz3ncOG95BjKk14vmJSg","name":"Sterling Magnolia Apartments","latitude":35.18727,"longitude":-80.808814,"address":"3720 Wendwood Ln, Ste 103","city":"Charlotte","state":"NC","stars":4.0,"review_count":8,"is_open":1},{"business_id":"eIyhHEDL9NH4pYA-XTJ5gw","name":"Air carolinas Plus","latitude":35.118532,"longitude":-80.915459,"address":"428 Crompton St","city":"Charlotte","state":"NC","stars":3.5,"review_count":3,"is_open":1},{"business_id":"jCNKLiG3QcOiu_vHNdXwNQ","name":"Extended Stay America - Charlotte - University Place","latitude":35.2984174,"longitude":-80.755278,"address":"8211 University Executive Park Dr.","city":"Charlotte","state":"NC","stars":2.5,"review_count":5,"is_open":1},{"business_id":"8V4IN9ie_-xcHlaM_6-Xdw","name":"Giving Tree Realty","latitude":35.2023101476,"longitude":-80.845727239,"address":"1244 E Blvd","city":"Charlotte","state":"NC","stars":3.0,"review_count":8,"is_open":1},{"business_id":"DKT_OCAjc4RqKRxnAPawBQ","name":"Great American Handyman","latitude":35.1866227,"longitude":-80.7377035,"address":"6537 Springfield Dr","city":"Charlotte","state":"NC","stars":2.5,"review_count":7,"is_open":1},{"business_id":"6BXU6foUmjvavszN03SXoA","name":"Cox Professional Heating and Air","latitude":35.2500326,"longitude":-80.9624331,"address":"8101 Kerrybrook Cir","city":"Charlotte","state":"NC","stars":5.0,"review_count":5,"is_open":1},{"business_id":"u7BAxXS_y1pnLPPu1IcRPA","name":"Canopy at Baybrook","latitude":35.084949,"longitude":-80.8309,"address":"6609 Reafield Drive","city":"Charlotte","state":"NC","stars":2.5,"review_count":3,"is_open":1},{"business_id":"oDMFLqXTTohoHz3KRAzJkw","name":"The Edge @ NoDa","latitude":35.2559831,"longitude":-80.8046112,"address":"229 Hilo Dr","city":"Charlotte","state":"NC","stars":4.5,"review_count":3,"is_open":1},{"business_id":"UiMsrQADWRo8d5yUjZGFaQ","name":"Weatherguard Roofing","latitude":35.090894,"longitude":-80.866265,"address":"10100 Park Cedar Dr, Ste 152","city":"Charlotte","state":"NC","stars":4.5,"review_count":7,"is_open":1},{"business_id":"BVHK2GVfd9t5ViXIOFzzhw","name":"Hideaway Lake","latitude":35.161696,"longitude":-80.921848,"address":"1825 Carrington Oaks Dr","city":"Charlotte","state":"NC","stars":1.5,"review_count":10,"is_open":1},{"business_id":"4FGYUAji-l-ngjIhprgeEw","name":"2ULaundry","latitude":35.2263714,"longitude":-80.7990185,"address":"","city":"Charlotte","state":"NC","stars":5.0,"review_count":60,"is_open":1},{"business_id":"GpBKIqBQS7mIY_nqZyAobQ","name":"Kronen Realty","latitude":35.209845,"longitude":-80.809464,"address":"2416 Kingsbury Dr","city":"Charlotte","state":"NC","stars":4.5,"review_count":8,"is_open":1},{"business_id":"sPmglaUQL_Pc5a3v-TTxew","name":"Lowe's Home Improvement Warehouse Stores","latitude":35.0905185,"longitude":-80.8556066,"address":"10625 McMullen Creek Pkwy","city":"Charlotte","state":"NC","stars":2.5,"review_count":26,"is_open":1},{"business_id":"bTPfL52bqjoP1bsDA-M2PA","name":"Traditions At Mallard Creek","latitude":35.343177,"longitude":-80.7665163,"address":"2525 Crescent View Dr","city":"Charlotte","state":"NC","stars":2.0,"review_count":6,"is_open":1},{"business_id":"yplOQ1pP-0X5-V44xEppbw","name":"Crestmont At Ballantyne","latitude":35.0571422,"longitude":-80.8323739,"address":"9200 Otter Creek Dr","city":"Charlotte","state":"NC","stars":2.5,"review_count":3,"is_open":0},{"business_id":"uv7oOS31zKDx4KQRpRiCzQ","name":"Adrian's Custom Painting","latitude":35.1825962,"longitude":-80.6548882,"address":"","city":"Charlotte","state":"NC","stars":2.0,"review_count":3,"is_open":1},{"business_id":"u0DjWGFaPdYVfBai14NbUQ","name":"Arbor Village Apartments","latitude":35.181883,"longitude":-80.863632,"address":"839 Scaleybark Rd","city":"Charlotte","state":"NC","stars":2.5,"review_count":11,"is_open":1},{"business_id":"RZQO4upsWa4__1D6XR-ScA","name":"Stallings Refrigeration","latitude":35.2972407,"longitude":-80.7983023,"address":"6109 Hunter Ave","city":"Charlotte","state":"NC","stars":2.5,"review_count":3,"is_open":1},{"business_id":"BIrFzA8FOMDAtn0O67G9uw","name":"Vista Commons","latitude":35.211341,"longitude":-80.80046,"address":"2728 Commonwealth Ave","city":"Charlotte","state":"NC","stars":3.0,"review_count":4,"is_open":1},{"business_id":"3Z3EMzYlOdKtdxQOvwMtPQ","name":"Hollingsworth Roofing","latitude":35.1907539,"longitude":-80.7835697,"address":"4745 Silabert Ave","city":"Charlotte","state":"NC","stars":3.0,"review_count":6,"is_open":1},{"business_id":"6KtVOm4_KVLnLTLFWBWKGA","name":"Cabrera Associates Appliance Service","latitude":35.3711141,"longitude":-80.8014694,"address":"9336 White Aspen Pl","city":"Charlotte","state":"NC","stars":1.0,"review_count":7,"is_open":1},{"business_id":"7Ig8nlIIJmg6RSbg6ZitGQ","name":"Village At Brierfield","latitude":35.318436,"longitude":-80.690945,"address":"11609 Windy Creek Dr","city":"Charlotte","state":"NC","stars":1.5,"review_count":3,"is_open":1},{"business_id":"3GuVhTkxAEOjn0KSjxy8Ow","name":"Affordable Decorative Concrete","latitude":35.2533086,"longitude":-80.9874311,"address":"3021 Overbrook Ter","city":"Charlotte","state":"NC","stars":2.0,"review_count":4,"is_open":1},{"business_id":"1c6IKv4E0-Nl7XfeGRuJug","name":"CPI Security","latitude":35.158309,"longitude":-80.9499525,"address":"4300 Sandy Porter Rd","city":"Charlotte","state":"NC","stars":2.5,"review_count":58,"is_open":1},{"business_id":"BxEX0bsWHoDhNdPInFusLg","name":"Plaza Appliance Service","latitude":35.05492,"longitude":-80.85379,"address":"","city":"Charlotte","state":"NC","stars":1.5,"review_count":15,"is_open":1},{"business_id":"2P2ViYM_EAPmG5lsNLesbQ","name":"Verizon","latitude":35.0992239325,"longitude":-80.9875121713,"address":"12910 Walker Branch Rd, Ste 100","city":"Charlotte","state":"NC","stars":3.0,"review_count":7,"is_open":1},{"business_id":"QdqNasCG59btSTi8VmO4WA","name":"Aurea Station","latitude":35.118716,"longitude":-80.8756705,"address":"8625 Winter Oaks Ln","city":"Charlotte","state":"NC","stars":1.0,"review_count":4,"is_open":1},{"business_id":"Gn4RQCstAToZBna_5AmNSA","name":"Cottage Chic","latitude":35.202537,"longitude":-80.845944,"address":"1232 East Blvd","city":"Charlotte","state":"NC","stars":2.5,"review_count":19,"is_open":0},{"business_id":"4vxpq3gE4p710Wxh82traQ","name":"H & S Roofing & Gutter Company","latitude":35.2202974,"longitude":-80.8610218,"address":"506 W Summit Ave","city":"Charlotte","state":"NC","stars":4.0,"review_count":7,"is_open":1},{"business_id":"USeNrgU8tN5UJTWDZDA59A","name":"Moving and Cleaning Solutions","latitude":35.2270869,"longitude":-80.8431267,"address":"","city":"Charlotte","state":"NC","stars":1.0,"review_count":3,"is_open":1},{"business_id":"tP4_9kaVaYkr9T_iL49XVQ","name":"Meca Realty","latitude":35.2233812,"longitude":-80.8817942,"address":"2459 Wilkinson Blvd, Ste 100","city":"Charlotte","state":"NC","stars":1.0,"review_count":8,"is_open":1},{"business_id":"lcdI8-taDshgRU578a4SIg","name":"City Art Room","latitude":35.3105707,"longitude":-80.7492861,"address":"9009-9 Jm Keynes Dr","city":"Charlotte","state":"NC","stars":4.5,"review_count":16,"is_open":1},{"business_id":"rB85a7laYV9aBjGbrq8P5Q","name":"Suzanne Murtha","latitude":35.2169369,"longitude":-80.8523524,"address":"315 Arlington Ave","city":"Charlotte","state":"NC","stars":3.5,"review_count":3,"is_open":1},{"business_id":"rOBczAlCZqgL-fA0wEidjA","name":"Bank of America","latitude":35.1632801,"longitude":-80.7392624,"address":"7207 E Independence Blvd","city":"Charlotte","state":"NC","stars":2.0,"review_count":7,"is_open":1},{"business_id":"adeWy0eWHWK4b-iy5knYxA","name":"Standard Insulating Company","latitude":35.2584329,"longitude":-80.766352,"address":"5720 General Industrial Rd","city":"Charlotte","state":"NC","stars":3.5,"review_count":3,"is_open":1},{"business_id":"uv6vOi41fFo6mz8NhC7Y6w","name":"Sycamore at Tyvola","latitude":35.1644337,"longitude":-80.9061611,"address":"707 Sycamore Centre Drive","city":"Charlotte","state":"NC","stars":4.5,"review_count":8,"is_open":1},{"business_id":"lTRVrOqZOyQNUk233-HUIA","name":"Accent Comfort Services LLC","latitude":35.332481,"longitude":-80.818228,"address":"5035 W WT Harris Blvd, Ste C","city":"Charlotte","state":"NC","stars":3.5,"review_count":11,"is_open":1},{"business_id":"QDglFJTdSHmUN_7qqHkIvw","name":"Marquis at Carmel Commons","latitude":35.08515,"longitude":-80.8398267,"address":"6818 Northbury Ln","city":"Charlotte","state":"NC","stars":3.5,"review_count":13,"is_open":1},{"business_id":"UTLDBdJJ4UALG5H5oZo4kA","name":"Capital Crossing at Whitehall","latitude":35.1513735632,"longitude":-80.9547996521,"address":"9214 Christy Joy Dr","city":"Charlotte","state":"NC","stars":1.0,"review_count":3,"is_open":1},{"business_id":"XbAmlCDEom73JL3IwuxZZg","name":"Direct Hardwood Flooring","latitude":35.233529,"longitude":-80.928333,"address":"5324 Wilkinson Blvd","city":"Charlotte","state":"NC","stars":3.5,"review_count":3,"is_open":1},{"business_id":"uAuC8wgyA_1SZzu_qFY79g","name":"Charlotte Comfort Systems Inc","latitude":35.2430268,"longitude":-80.8804907,"address":"3125 Tuckaseegee Rd","city":"Charlotte","state":"NC","stars":1.5,"review_count":3,"is_open":1},{"business_id":"fQCg1JP8MtJy35OqSNDYHg","name":"The Penrose","latitude":35.2101897,"longitude":-80.8651485,"address":"327 W Tremont Ave","city":"Charlotte","state":"NC","stars":1.5,"review_count":7,"is_open":1},{"business_id":"ooo2ndQs5VZnF6sYILlKhg","name":"Leslie's Pool Supplies, Service & Repair","latitude":35.088386,"longitude":-80.862882,"address":"8500 Pineville - Matthews Rd","city":"Charlotte","state":"NC","stars":3.0,"review_count":8,"is_open":1},{"business_id":"njoaUo9ZBdX4eTJ_4TB9bA","name":"Carolina Pristine","latitude":35.2276723549,"longitude":-80.8428955078,"address":"","city":"Charlotte","state":"NC","stars":2.5,"review_count":3,"is_open":1},{"business_id":"LhxYjmSnakvKS1xK6HEe7Q","name":"The Flats at Arrowood","latitude":35.139381,"longitude":-80.884678,"address":"8508 Lodge South Cir","city":"Charlotte","state":"NC","stars":1.0,"review_count":3,"is_open":1},{"business_id":"y7AGZPN_58WLi1Ytccxjow","name":"A-1 Upholstery","latitude":35.153224,"longitude":-80.746124,"address":"8539 Monroe Rd, Ste 101","city":"Charlotte","state":"NC","stars":1.0,"review_count":3,"is_open":1},{"business_id":"yfHl46zaB9ozumJaWQUlXQ","name":"Weyland Apartments","latitude":35.228505,"longitude":-80.887919,"address":"2814 Marlowe Ave","city":"Charlotte","state":"NC","stars":2.0,"review_count":5,"is_open":1},{"business_id":"rSOiPODhWCo9N_ne0R-Btg","name":"Daltile Sales Service Center","latitude":35.1197965,"longitude":-80.913609,"address":"405 Forsyth Hall Dr","city":"Charlotte","state":"NC","stars":2.5,"review_count":3,"is_open":1},{"business_id":"FLbeaBhEO4fo46NKWzjmwA","name":"Extended Stay America - Charlotte - Pineville - Park Rd.","latitude":35.0860722,"longitude":-80.8727596,"address":"10930 Park Rd.","city":"Charlotte","state":"NC","stars":2.0,"review_count":6,"is_open":1},{"business_id":"9_0ISYjkk4rlutx2FCOEhw","name":"Essex Condominiums","latitude":35.15539,"longitude":-80.7931909,"address":"4900 Sardis Rd","city":"Charlotte","state":"NC","stars":2.0,"review_count":3,"is_open":1},{"business_id":"sDN6zZ8eT8tQr9r_tp4pxQ","name":"MVP Movers Inc","latitude":35.2513879,"longitude":-80.8240678,"address":"600 W 28th St","city":"Charlotte","state":"NC","stars":1.0,"review_count":3,"is_open":1},{"business_id":"szSAinmd7sORoYt-ke5llg","name":"Caribbean System Services","latitude":35.2652027,"longitude":-80.7597392,"address":"6010 McDaniel Ln, Ste E","city":"Charlotte","state":"NC","stars":5.0,"review_count":4,"is_open":1},{"business_id":"1EEQGPaK2MxWl8G5poyQ-g","name":"Edgeline Flats on Davidson","latitude":35.232832,"longitude":-80.8251445,"address":"525 E 15th St, Unit 203","city":"Charlotte","state":"NC","stars":1.0,"review_count":3,"is_open":1},{"business_id":"EF74N-cH_vAA7wSB_FlXYQ","name":"ACR Master Locksmith","latitude":35.1173473,"longitude":-80.7990185,"address":"","city":"Charlotte","state":"NC","stars":5.0,"review_count":3,"is_open":1},{"business_id":"JmaVXOzIroEWpUFoxAL5gw","name":"University Walk","latitude":35.3042256,"longitude":-80.725383,"address":"1205 University Walk Circle","city":"Charlotte","state":"NC","stars":2.5,"review_count":3,"is_open":1},{"business_id":"aR38j6ieVMgOfSxgkjbCSg","name":"RBC Bank","latitude":35.0522883,"longitude":-80.850665,"address":"14925 Ballantyne Village Way","city":"Charlotte","state":"NC","stars":1.5,"review_count":4,"is_open":0},{"business_id":"bOrZbVgJVTp9-nKB3c4tdw","name":"Carefree Carpets & Floors","latitude":35.0222899173,"longitude":-80.8484797709,"address":"16631 Lancaster Hwy, Suite 103","city":"Charlotte","state":"NC","stars":2.5,"review_count":3,"is_open":1},{"business_id":"55ZfMCUpbJjkLvvmyOB_Ag","name":"Circle at South End","latitude":35.2160363,"longitude":-80.8538011,"address":"222 E Bland St","city":"Charlotte","state":"NC","stars":2.5,"review_count":3,"is_open":0},{"business_id":"wXsz47VpA0tHQx1gmp41XQ","name":"Armstrong Relocation","latitude":35.138,"longitude":-80.9782479,"address":"4400 Westinghouse Blvd","city":"Charlotte","state":"NC","stars":3.0,"review_count":4,"is_open":1},{"business_id":"4cBNx7-eUuXuiniveAOsZQ","name":"1010 Dilworth","latitude":35.2084586,"longitude":-80.8401334,"address":"1010 Kenilworth Ave","city":"Charlotte","state":"NC","stars":5.0,"review_count":8,"is_open":1},{"business_id":"1AfQ4DiYPseqXSEYRGqWew","name":"Chad Fleener - Movement Mortgage","latitude":35.059272,"longitude":-80.8392493,"address":"11605 N Community House Rd, Ste 250","city":"Charlotte","state":"NC","stars":5.0,"review_count":3,"is_open":1},{"business_id":"SU2MqZWuTQJHnBgVu5vFJA","name":"New Beginnings Moving and Storage","latitude":35.24999,"longitude":-80.811654,"address":"2920 N Tryon St","city":"Charlotte","state":"NC","stars":4.0,"review_count":12,"is_open":1},{"business_id":"ubdAwYmt9oAGhe1snf4aAg","name":"Loft One35 Apartments","latitude":35.2216915,"longitude":-80.8528174,"address":"135 W Morehead St","city":"Charlotte","state":"NC","stars":3.5,"review_count":7,"is_open":1},{"business_id":"9vhoI7UR6NPo2jEMmAm2rA","name":"GreenThumb Cleaning & Organizing","latitude":35.0921749,"longitude":-80.8634881,"address":"10317 Kettering Dr, Ste 100","city":"Charlotte","state":"NC","stars":3.5,"review_count":14,"is_open":1},{"business_id":"rcPBdsFW9LVrbKDFUqetsQ","name":"Matthews Moving Systems","latitude":35.270061,"longitude":-80.843692,"address":"2365 Tipton Dr","city":"Charlotte","state":"NC","stars":2.0,"review_count":9,"is_open":1},{"business_id":"DiRH0zal6kOcrk5PLhUaXA","name":"RE\/MAX Executive","latitude":35.149079,"longitude":-80.8284989,"address":"2901 Coltsgate Rd, Ste 100","city":"Charlotte","state":"NC","stars":3.5,"review_count":3,"is_open":1},{"business_id":"4sZjGZmk3LMuEDy6DkdikQ","name":"JF Air and Heat","latitude":35.041572,"longitude":-80.860331,"address":"15108 Edindale Dr","city":"Charlotte","state":"NC","stars":5.0,"review_count":17,"is_open":1},{"business_id":"w1fJ9DUiKKj332Lhc17Ofg","name":"Neighborhood Lender","latitude":35.2094359,"longitude":-80.8410225,"address":"1200 E Morehead St, Ste 290","city":"Charlotte","state":"NC","stars":5.0,"review_count":3,"is_open":1},{"business_id":"PUMLHuoP1CiJttaY-yQPXw","name":"Jim Dickerson","latitude":35.2205512,"longitude":-80.700433,"address":"7832 Pence Rd","city":"Charlotte","state":"NC","stars":2.0,"review_count":4,"is_open":1},{"business_id":"X8FE07ddvuPnHn3Gqz87Rw","name":"Pinehurst on Providence","latitude":35.158356,"longitude":-80.799349,"address":"3904 Providence Rd","city":"Charlotte","state":"NC","stars":3.5,"review_count":14,"is_open":1},{"business_id":"hiO1S2JBBhbfKlHnC1avnw","name":"Rotunda Electric","latitude":35.1105564,"longitude":-80.7103532,"address":"","city":"Charlotte","state":"NC","stars":4.0,"review_count":4,"is_open":1},{"business_id":"h3IVyMIDETKv56GQh_K5iQ","name":"Fountains Southend Apartments","latitude":35.1994047314,"longitude":-80.8693642169,"address":"126 New Bern St","city":"Charlotte","state":"NC","stars":2.0,"review_count":11,"is_open":1},{"business_id":"8zz5ylHUe20CcJQDZPL_Xg","name":"Hawthorne Management","latitude":35.1693117,"longitude":-80.8515309,"address":"4530 Park Rd","city":"Charlotte","state":"NC","stars":1.0,"review_count":16,"is_open":1},{"business_id":"fNThSMjh-m0Jgk02LTrXeQ","name":"Mister Sparky","latitude":35.221112,"longitude":-80.9038999,"address":"2246 Old Steele Creek Rd","city":"Charlotte","state":"NC","stars":1.0,"review_count":3,"is_open":0},{"business_id":"qPjEDvIlJ7eKGKKMRZhzuw","name":"704 Granite and Marble Fabricators","latitude":35.239823,"longitude":-80.927089,"address":"3625 Scott Futrell Dr","city":"Charlotte","state":"NC","stars":3.5,"review_count":6,"is_open":1},{"business_id":"50AKANt6CEb1sinP3MmGoQ","name":"Principle Moving","latitude":35.2398633,"longitude":-80.8290854,"address":"200 Dalton Ave, Ste A","city":"Charlotte","state":"NC","stars":1.0,"review_count":3,"is_open":1},{"business_id":"56iu77QguXtRnQRT0hUsrA","name":"Elements on Park Apartments - BH Management Services","latitude":35.0949821,"longitude":-80.8617891,"address":"10019 Plum Creek Ln","city":"Charlotte","state":"NC","stars":2.5,"review_count":7,"is_open":0},{"business_id":"IsIjhLagHiEna5rZ_GflCg","name":"Google Fiber Space","latitude":35.2277332,"longitude":-80.8373234,"address":"301 E 7th St","city":"Charlotte","state":"NC","stars":4.0,"review_count":5,"is_open":0},{"business_id":"sl6dzanErK00cZ-LIhQylw","name":"Abberly Woods Apartment Homes","latitude":35.3378603,"longitude":-80.8536258,"address":"5301 Roundstone Way","city":"Charlotte","state":"NC","stars":2.5,"review_count":11,"is_open":1},{"business_id":"HEoNLzjhEphK-MUnAt0vCw","name":"Southern Home Services","latitude":35.1454597,"longitude":-80.7409076,"address":"9307 Monroe Rd, Ste O","city":"Charlotte","state":"NC","stars":3.5,"review_count":3,"is_open":1},{"business_id":"gIkmPggTjGSAsRKtq5LQpg","name":"D-Town Wireless","latitude":35.30189,"longitude":-80.801307,"address":"2808 W Sugar Creek Rd","city":"Charlotte","state":"NC","stars":3.5,"review_count":4,"is_open":1},{"business_id":"_q9Ybxocl_vb4-6Ct6cz_A","name":"Bath Fitter","latitude":35.1330628,"longitude":-80.9108362,"address":"8200 Arrowridge Blvd, Ste G","city":"Charlotte","state":"NC","stars":4.0,"review_count":5,"is_open":1},{"business_id":"FmUqdEcqG1eEN27VDNWmNw","name":"Three30Five Luxury Apartments","latitude":35.2119207,"longitude":-80.8640453,"address":"335 Doggett St","city":"Charlotte","state":"NC","stars":4.0,"review_count":9,"is_open":1},{"business_id":"s38Q71imIfoDM1cKVUc2oA","name":"Urban Nest Realty","latitude":35.2495219623,"longitude":-80.8011278138,"address":"3476 N Davidson St","city":"Charlotte","state":"NC","stars":5.0,"review_count":3,"is_open":1},{"business_id":"ZdwNnEhMG272wThKXjPLoA","name":"Robert Lee Lanier Handyman Services","latitude":35.2014301938,"longitude":-80.834407475,"address":"","city":"Charlotte","state":"NC","stars":3.0,"review_count":6,"is_open":1},{"business_id":"xH-Edz2cFYnToDP1fczzRw","name":"Hygge Coworking","latitude":35.2251298,"longitude":-80.8829612,"address":"2128 Remount Rd","city":"Charlotte","state":"NC","stars":5.0,"review_count":5,"is_open":1},{"business_id":"Dabs-nhosQUxk4VfePOFTw","name":"Hefner Bill Plumbing Service","latitude":35.1884656,"longitude":-80.8786603,"address":"204 E Peterson Dr","city":"Charlotte","state":"NC","stars":5.0,"review_count":4,"is_open":1},{"business_id":"dmo0HaZH4MOkChC2ofRdDg","name":"Mosquito Guard","latitude":35.2299999,"longitude":-80.84,"address":"","city":"Charlotte","state":"NC","stars":3.0,"review_count":8,"is_open":1},{"business_id":"kObQpa9fb6wJhue15VKg-Q","name":"Foam Home","latitude":35.1811188,"longitude":-80.8488498,"address":"","city":"Charlotte","state":"NC","stars":5.0,"review_count":3,"is_open":1},{"business_id":"StkhA5PmFmizjeJNWow_Gg","name":"Simply Shutters Shades and Blinds","latitude":35.0818167723,"longitude":-80.8484473061,"address":"","city":"Charlotte","state":"NC","stars":5.0,"review_count":4,"is_open":1},{"business_id":"EiT6jwzbVA4AxdHn4H8mRQ","name":"Hudson Commons by Landmark Apartment Trust","latitude":35.3172868,"longitude":-80.7514754,"address":"9201 Glenwater Dr","city":"Charlotte","state":"NC","stars":1.0,"review_count":4,"is_open":0},{"business_id":"98Jl1qxOJrtCcupwZSe9sw","name":"Calico","latitude":35.172123,"longitude":-80.8484905,"address":"1630 E Woodlawn Rd","city":"Charlotte","state":"NC","stars":3.5,"review_count":13,"is_open":1},{"business_id":"3g2AeZ0n_vx-xq1U8Kpd7w","name":"Electric Genie","latitude":35.3352529,"longitude":-80.7990185,"address":"","city":"Charlotte","state":"NC","stars":3.5,"review_count":3,"is_open":1},{"business_id":"NR2CvbJyq-5SbY7l3lU2Rg","name":"Go-Getters Moving Labor","latitude":35.2399259,"longitude":-80.874015,"address":"1006 State St","city":"Charlotte","state":"NC","stars":1.0,"review_count":3,"is_open":0},{"business_id":"gnDC6o1k6ZAL5yf9r4j4XA","name":"Pathmaker Plumbing","latitude":35.233655171,"longitude":-80.589488575,"address":"5676 Underwood Ave","city":"Charlotte","state":"NC","stars":4.0,"review_count":6,"is_open":1},{"business_id":"E-xIztt8MhWTUV_h05zLtA","name":"The Ramsey Group","latitude":35.320349,"longitude":-80.778936,"address":"8520 Cliff Cameron Dr, Ste 100","city":"Charlotte","state":"NC","stars":3.5,"review_count":3,"is_open":1},{"business_id":"yV6vyWa7Tp7oWqAWZRsHLQ","name":"Hubert Team Cleaning","latitude":35.1290557,"longitude":-80.9539475,"address":"","city":"Charlotte","state":"NC","stars":5.0,"review_count":5,"is_open":1},{"business_id":"TJmcKlPPmTP0RiuEWgT0ng","name":"Rose House Cleaning","latitude":35.0574841963,"longitude":-80.8146464677,"address":"","city":"Charlotte","state":"NC","stars":5.0,"review_count":4,"is_open":1},{"business_id":"qlGMBiMSzyA46hKOhSzsrA","name":"Cunningham & Company","latitude":35.150474,"longitude":-80.838942,"address":"6000 Fairview Rd, Ste 125","city":"Charlotte","state":"NC","stars":2.5,"review_count":3,"is_open":1},{"business_id":"ja6YgPfXrMD7KQ62j1PVmw","name":"Fairpoint Communications","latitude":35.217205,"longitude":-80.847,"address":"521 E Morehead St, Ste 250","city":"Charlotte","state":"NC","stars":1.0,"review_count":4,"is_open":0},{"business_id":"Jb0SZLgQafaMRSCt4NPBbQ","name":"Vistas At 707","latitude":35.2239494236,"longitude":-80.8266948791,"address":"707 Seigle Ave","city":"Charlotte","state":"NC","stars":2.5,"review_count":6,"is_open":1},{"business_id":"O0i-xPrYa42TsxmoBQ5tQA","name":"Pepper & Company","latitude":35.1300336,"longitude":-80.8814052,"address":"4724 Sweden Rd","city":"Charlotte","state":"NC","stars":3.5,"review_count":4,"is_open":1},{"business_id":"LvsS7y4zyp88VKH_ZVgd2A","name":"Brookstone Apartments","latitude":35.3314821,"longitude":-80.7941721,"address":"3800 Dry Brook Rd","city":"Charlotte","state":"NC","stars":1.5,"review_count":3,"is_open":1},{"business_id":"xMg8ImXQMvjLpUPEHOVFmQ","name":"Pro Movers","latitude":35.387669,"longitude":-80.780939,"address":"","city":"Charlotte","state":"NC","stars":1.0,"review_count":3,"is_open":0},{"business_id":"OWENaNlBfDSufPpw87m6_w","name":"Clutter-Me-Not! Junk Removal","latitude":35.140616,"longitude":-80.74742,"address":"9520 Covedale Dr","city":"Charlotte","state":"NC","stars":5.0,"review_count":7,"is_open":1},{"business_id":"imDHZk__p_yxef_PkA2RIQ","name":"Runaway Bay Apartments","latitude":35.157101,"longitude":-80.7431189,"address":"8242 Runaway Bay Dr","city":"Charlotte","state":"NC","stars":1.0,"review_count":4,"is_open":1},{"business_id":"yjqysPiJaBVHPB2xtNNtSg","name":"SuperClean Mobile Detailing and More","latitude":35.3352529,"longitude":-80.7990185,"address":"","city":"Charlotte","state":"NC","stars":5.0,"review_count":17,"is_open":1},{"business_id":"Rs-v0J58RF9_NEeOrV9Ntw","name":"The Shade Store","latitude":35.152495193,"longitude":-80.8279762626,"address":"4310 Sharon Rd, Ste X13","city":"Charlotte","state":"NC","stars":4.5,"review_count":6,"is_open":1},