{"q3GBUyJgSg9Bf8sVaO8WfQ": {"name": "Rountree Plantation", "latitude": 35.171295, "longitude": -80.881687, "address": "517 Rountree Rd", "city": "Charlotte", "state": "NC", "stars": 4.5, "review_count": 21, "is_open": 1}, "TsOdTTYPjV-1F4ZnePJ5kg": {"name": "Finish-Rite Drywall", "latitude": 35.3455083, "longitude": -80.7948753, "address": "7306 W Sugar Creek Rd", "city": "Charlotte", "state": "NC", "stars": 5.0, "review_count": 23, "is_open": 1}, "7Ae_xXS_BWfoLxzQyDVaJQ": {"name": "TBC Movers", "latitude": 35.1990996, "longitude": -80.766626, "address": "4822 Albemarle Rd, Ste 348", "city": "Charlotte", "state": "NC", "stars": 5.0, "review_count": 11, "is_open": 1}, "beg44R3Hl5-ETwLtYbDigA": {"name": "Belk Shoe Repair", "latitude": 35.1513035, "longitude": -80.8314354, "address": "4400 Sharon Rd", "city": "Charlotte", "state": "NC", "stars": 4.5, "review_count": 28, "is_open": 1}, "7emvi57F8xWCDDADWSUKLg": {"name": "Modern Furniture Studio", "latitude": 35.1994741, "longitude": -80.8831774, "address": "800 Clanton Rd, Ste I", "city": "Charlotte", "state": "NC", "stars": 5.0, "review_count": 13, "is_open": 1}, "uoW8NFhCNgVvrl0p9qxzOQ": {"name": "Advent Coworking", "latitude": 35.2245312125, "longitude": -80.8203341067, "address": "933 Louise Ave", "city": "Charlotte", "state": "NC", "stars": 5.0, "review_count": 11, "is_open": 1}, "XvGewAn_Ro8JY-dD1DkTlw": {"name": "House Movers and Boxes", "latitude": 35.2945352, "longitude": -80.7535133, "address": "7828 N Tryon St", "city": "Charlotte", "state": "NC", "stars": 4.5, "review_count": 73, "is_open": 1}, "UXp6lkkMTMob7TsGcSZ6HQ": {"name": "Marc's Tree Service", "latitude": 35.0665146, "longitude": -80.762165, "address": "4612 McKee Rd", "city": "Charlotte", "state": "NC", "stars": 4.5, "review_count": 13, "is_open": 1}, "SyXQdbGIMtNx4ux4VfKyaw": {"name": "All Hours Plumbing", "latitude": 35.0531348889, "longitude": -80.847303973, "address": "15105-D John J Delaney Dr, Ste 156", "city": "Charlotte", "state": "NC", "stars": 5.0, "review_count": 42, "is_open": 1}, "5S18Y7HHUgMtWUH59Qsp_w": {"name": "The VUE Charlotte", "latitude": 35.2309329, "longitude": -80.8447684, "address": "215 N Pine St", "city": "Charlotte", "state": "NC", "stars": 4.5, "review_count": 25, "is_open": 1}, "ZyFEOn4L5juxEsX1Kms-IQ": {"name": "Charlotte Pro Roofing", "latitude": 35.0665073, "longitude": -80.771204, "address": "10612 Providence Rd", "city": "Charlotte", "state": "NC", "stars": 4.5, "review_count": 11, "is_open": 1}, "lzHr7Ki2e12JmaQsOrdxiw": {"name": "Clean Free Carpet Cleaning", "latitude": 35.091276, "longitude": -80.9946398, "address": "13402 Reunion St", "city": "Charlotte", "state": "NC", "stars": 4.5, "review_count": 24, "is_open": 1}, "3lPlfIBjAvNkdaGWGXmnqQ": {"name": "California Closets - Charlotte", "latitude": 35.2108433, "longitude": -80.857044, "address": "224 East Blvd", "city": "Charlotte", "state": "NC", "stars": 4.5, "review_count": 11, "is_open": 1}, "TMT7jcqZ8FjOIb1GTTVY9w": {"name": "Hornet Moving", "latitude": 35.265179, "longitude": -80.805263, "address": "920 W Craighead Rd", "city": "Charlotte", "state": "NC", "stars": 4.5, "review_count": 70, "is_open": 1}, "TKQT8EhCom4WIGKb9PbKpw": {"name": "Camden Cotton Mills Apartments", "latitude": 35.232494, "longitude": -80.846212, "address": "520 W 5th St", "city": "Charlotte", "state": "NC", "stars": 4.5, "review_count": 18, "is_open": 1}, "8gJUInzZ0I7I4GhGqD-XLA": {"name": "Melissa Brown - Helen Adams Realty", "latitude": 35.054327, "longitude": -80.848719, "address": "15235 John J Delaney Dr", "city": "Charlotte", "state": "NC", "stars": 5.0, "review_count": 12, "is_open": 1}, "3AU90T8PugOf22KdTsEv2w": {"name": "Sun Stoppers Charlotte", "latitude": 35.2019886, "longitude": -80.7279815, "address": "6810 Albemarle Rd", "city": "Charlotte", "state": "NC", "stars": 4.5, "review_count": 13, "is_open": 1}, "h_vsOvGHQtEpUroh-5lcHA": {"name": "Camden Gallery Apartments", "latitude": 35.213305664, "longitude": -80.8593057667, "address": "1750 Camden Rd", "city": "Charlotte", "state": "NC", "stars": 5.0, "review_count": 20, "is_open": 1}, "4FGYUAji-l-ngjIhprgeEw": {"name": "2ULaundry", "latitude": 35.2263714, "longitude": -80.7990185, "address": "", "city": "Charlotte", "state": "NC", "stars": 5.0, "review_count": 60, "is_open": 1}, "lcdI8-taDshgRU578a4SIg": {"name": "City Art Room", "latitude": 35.3105707, "longitude": -80.7492861, "address": "9009-9 Jm Keynes Dr", "city": "Charlotte", "state": "NC", "stars": 4.5, "review_count": 16, "is_open": 1}, "4sZjGZmk3LMuEDy6DkdikQ": {"name": "JF Air and Heat", "latitude": 35.041572, "longitude": -80.860331, "address": "15108 Edindale Dr", "city": "Charlotte", "state": "NC", "stars": 5.0, "review_count": 17, "is_open": 1}, "yjqysPiJaBVHPB2xtNNtSg": {"name": "SuperClean Mobile Detailing and More", "latitude": 35.3352529, "longitude": -80.7990185, "address": "", "city": "Charlotte", "state": "NC", "stars": 5.0, "review_count": 17, "is_open": 1}, "0qoOksA51Ns5QgBplftr6A": {"name": "Five Star Electrical And Plumbing", "latitude": 35.1131251, "longitude": -80.9171877, "address": "224 Westinghouse Blvd, Ste O", "city": "Charlotte", "state": "NC", "stars": 4.5, "review_count": 33, "is_open": 1}, "sZb9wrIcWLyyNg0fHlHvzw": {"name": "Spaulding Tree Service", "latitude": 35.3227409, "longitude": -80.9018518, "address": "", "city": "Charlotte", "state": "NC", "stars": 4.5, "review_count": 26, "is_open": 1}, "zZDoSHKqY0yJvIUFa876AQ": {"name": "Pop-A-Lock", "latitude": 35.1789077, "longitude": -80.8001868, "address": "121 Greenwich Rd, Ste 209", "city": "Charlotte", "state": "NC", "stars": 4.5, "review_count": 28, "is_open": 1}, "nUTYXUrW-kJkf8PCv6BGkg": {"name": "Century Painting", "latitude": 35.064123, "longitude": -80.7877026, "address": "6201 Boykin Spaniel Rd", "city": "Charlotte", "state": "NC", "stars": 4.5, "review_count": 53, "is_open": 1}, "SBYpHerinkeC2YKZQJXI7A": {"name": "Absolute Resurface", "latitude": 35.0779132, "longitude": -80.8182957, "address": "6420 Rea Rd, Ste 193", "city": "Charlotte", "state": "NC", "stars": 5.0, "review_count": 12, "is_open": 1}, "UrDmbrGHDQyMOd8F0z_MAQ": {"name": "Naturally Clean", "latitude": 35.1860332, "longitude": -80.8769573, "address": "4208 South Blvd", "city": "Charlotte", "state": "NC", "stars": 4.5, "review_count": 44, "is_open": 1}, "XG1Pg8DlX4C9_q7DHIaEYg": {"name": "Charlotte HERO Patrol Roadside Assistance", "latitude": 35.3372083, "longitude": -80.8257548, "address": "8421 Old Statesville Rd, Ste 2", "city": "Charlotte", "state": "NC", "stars": 5.0, "review_count": 17, "is_open": 1}, "nOGZ5l0rsfbrJ7WWOjQbJg": {"name": "Zen Windows Charlotte", "latitude": 35.0679586, "longitude": -80.8413252, "address": "3440 Toringdon Way, Ste 205", "city": "Charlotte", "state": "NC", "stars": 5.0, "review_count": 20, "is_open": 1}, "pYYVZ0Unh6x7QCCWDs9UcQ": {"name": "Extra Space Storage", "latitude": 35.1959297, "longitude": -80.8726582, "address": "3308 South Blvd", "city": "Charlotte", "state": "NC", "stars": 4.5, "review_count": 12, "is_open": 1}, "shag0nCi0Mae1O5v8XoM5w": {"name": "Rudy Cools", "latitude": 35.2188471051, "longitude": -80.8108447135, "address": "", "city": "Charlotte", "state": "NC", "stars": 4.5, "review_count": 31, "is_open": 1}, "k0Jv4U8y9KB0cbwjQnyhLA": {"name": "TV Mounting Service Free TV Mounts", "latitude": 35.162146, "longitude": -80.752847, "address": "7803 Hummingbird Ln", "city": "Charlotte", "state": "NC", "stars": 4.5, "review_count": 29, "is_open": 1}, "IzbIAnZi5g3TlYWFlRmrBA": {"name": "Skin Therapy of Charlotte", "latitude": 35.025537, "longitude": -80.808764, "address": "10607 Rea Rd", "city": "Charlotte", "state": "NC", "stars": 4.5, "review_count": 13, "is_open": 1}, "2siH96Zxj4SQlAq1uCot1w": {"name": "Mark's Stump Grinding", "latitude": 35.3619431, "longitude": -80.7976555, "address": "11925 DeArmon Rd", "city": "Charlotte", "state": "NC", "stars": 5.0, "review_count": 12, "is_open": 1}, "Ul7IckXQIMelf2pGfynP7A": {"name": "Center City Suites", "latitude": 35.227144, "longitude": -80.8439222, "address": "112 S Tryon St, Fl 16", "city": "Charlotte", "state": "NC", "stars": 5.0, "review_count": 12, "is_open": 0}, "d8wBB01hxUH_r4HiR2kIRw": {"name": "Home Inspection Carolina", "latitude": 35.0281697, "longitude": -80.834946, "address": "10023 Zackery Ave", "city": "Charlotte", "state": "NC", "stars": 4.5, "review_count": 46, "is_open": 1}, "X7ZsGD13AKl6O3D8yD2k_g": {"name": "Budget Blinds", "latitude": 35.2247714304, "longitude": -80.8421891375, "address": "8318 Meadow Lakes Dr", "city": "Charlotte", "state": "NC", "stars": 5.0, "review_count": 17, "is_open": 1}, "X5CS4_Mxz8yw1ERf5U8JfA": {"name": "Exclusive Paint Protection", "latitude": 35.1756277699, "longitude": -80.881520524, "address": "4913 Chastain Ave, Ste 32", "city": "Charlotte", "state": "NC", "stars": 4.5, "review_count": 58, "is_open": 1}, "IU2dDR18mkS7bLKuVAgKrA": {"name": "Inspector Paul", "latitude": 35.222008, "longitude": -80.8339296, "address": "201 N McDowell St", "city": "Charlotte", "state": "NC", "stars": 4.5, "review_count": 13, "is_open": 1}, "mLZCWC-hGkRF09K3zg_COg": {"name": "Big Clean HQ Pressure Washing", "latitude": 35.2278851, "longitude": -80.8462985, "address": "227 W 4th St", "city": "Charlotte", "state": "NC", "stars": 5.0, "review_count": 30, "is_open": 1}, "Dak3j5-HQ4Z4wch6zgi8CA": {"name": "Hector & Sons Moving Company", "latitude": 35.1523151, "longitude": -80.7556721, "address": "6523 Deermont Ct", "city": "Charlotte", "state": "NC", "stars": 4.5, "review_count": 34, "is_open": 1}, "KU2u7y37eESWuVkpJtqexg": {"name": "A-Access Lock & key", "latitude": 35.2034172271, "longitude": -80.7686460086, "address": "4035 Leeds Dr", "city": "Charlotte", "state": "NC", "stars": 5.0, "review_count": 11, "is_open": 1}, "pmp0GowinCJeVMOnxNuZTQ": {"name": "Julian's Plumbing", "latitude": 35.181118747, "longitude": -80.8488496765, "address": "", "city": "Charlotte", "state": "NC", "stars": 5.0, "review_count": 83, "is_open": 1}, "GT1zMQJVc99gafri_wakKA": {"name": "Bradham Brothers", "latitude": 35.2826562743, "longitude": -80.9088606994, "address": "6128 Rozzelles Ferry Rd", "city": "Charlotte", "state": "NC", "stars": 4.5, "review_count": 18, "is_open": 1}, "xwYcyqwMHpyUs9r6zX7VBA": {"name": "Savvy and Company", "latitude": 35.2131877, "longitude": -80.8195041, "address": "1920 E 7th St", "city": "Charlotte", "state": "NC", "stars": 4.5, "review_count": 12, "is_open": 1}, "p5yN7FRBr9MEzdq2yBzkAg": {"name": "Carpet & Rug Superstore", "latitude": 35.1555476, "longitude": -80.8764989, "address": "5892 South Blvd", "city": "Charlotte", "state": "NC", "stars": 4.5, "review_count": 16, "is_open": 1}, "dUOL_LUVG32uB1Vy1hYDgQ": {"name": "Carpet Pros", "latitude": 35.1319046, "longitude": -80.9635342, "address": "3415 Westinghouse Blvd, Ste 3", "city": "Charlotte", "state": "NC", "stars": 4.5, "review_count": 17, "is_open": 1}, "8qX6qmf1JJjCkHldt9D9Aw": {"name": "A1A Roadside Assistance Of Charlotte - Charlotte Road Angels", "latitude": 35.0535496, "longitude": -80.8211696, "address": "", "city": "Charlotte", "state": "NC", "stars": 5.0, "review_count": 20, "is_open": 1}, "lmlA3gYgSGo4_Y_we8kQ3Q": {"name": "The Lamp Place", "latitude": 35.197142, "longitude": -80.870352, "address": "3108 South Blvd", "city": "Charlotte", "state": "NC", "stars": 4.5, "review_count": 14, "is_open": 1}, "iqU-pcyvNJjmy4pEN2Nepw": {"name": "You Move Me Charlotte", "latitude": 35.2404750282, "longitude": -80.913536895, "address": "10617 Kettering Dr, Ste 108", "city": "Charlotte", "state": "NC", "stars": 4.5, "review_count": 55, "is_open": 1}, "Hvef33jY8uu6YB5Mvi5BgQ": {"name": "Painting with a Twist", "latitude": 35.1475442935, "longitude": -80.8332958817, "address": "4724 Sharon Rd, Suite J", "city": "Charlotte", "state": "NC", "stars": 4.5, "review_count": 36, "is_open": 1}, "nLtY-gLcQckwzCVZmns3Ig": {"name": "Sun Stoppers Charlotte", "latitude": 35.132439, "longitude": -80.941411, "address": "9300 S Tryon", "city": "Charlotte", "state": "NC", "stars": 5.0, "review_count": 22, "is_open": 1}, "29CNDTpKLsrr_jObcydMmg": {"name": "Anthony & Sylvan Pools", "latitude": 35.1344261169, "longitude": -80.9122238159, "address": "9201 Southern Pine Blvd, #C", "city": "Charlotte", "state": "NC", "stars": 4.5, "review_count": 20, "is_open": 1}, "Hncs5Mcd1lqFiwgwmmkVFQ": {"name": "Master Services", "latitude": 35.2299999, "longitude": -80.84, "address": "", "city": "Charlotte", "state": "NC", "stars": 5.0, "review_count": 37, "is_open": 1}, "emu6cSh09_RfSlEbkUhnkA": {"name": "Gentle Giant Moving Company", "latitude": 35.196467, "longitude": -80.887562, "address": "3827 Barringer Dr", "city": "Charlotte", "state": "NC", "stars": 4.5, "review_count": 45, "is_open": 1}, "yuNIGL9dK91yGvaFGZwXnA": {"name": "Tip Top Garage Doors", "latitude": 35.0939985, "longitude": -80.7873781, "address": "8001 Raintree Ln, Ste 204", "city": "Charlotte", "state": "NC", "stars": 5.0, "review_count": 40, "is_open": 1}, "0qPnl-4ZQgM7yr0eAON09g": {"name": "Sparkling Clean Maid", "latitude": 35.1825962, "longitude": -80.6548882, "address": "", "city": "Charlotte", "state": "NC", "stars": 4.5, "review_count": 48, "is_open": 1}, "hLvatQ0JRYaU0GaE2ff0xA": {"name": "McCoy Plumbing", "latitude": 35.0393172, "longitude": -80.8286528, "address": "10000 Community House Rd", "city": "Charlotte", "state": "NC", "stars": 4.5, "review_count": 12, "is_open": 1}, "vL71CB__Lm-2FJWE0o9kiA": {"name": "Creative Handyman Services", "latitude": 35.03792, "longitude": -80.807039, "address": "9716-B Realtor Rd, Ste 154", "city": "Charlotte", "state": "NC", "stars": 4.5, "review_count": 23, "is_open": 1}, "8yPtvTZgA0gJ4Y7SvKXI8w": {"name": "Camden Southline Apartments", "latitude": 35.2057424102, "longitude": -80.8632937182, "address": "2300 South Blvd", "city": "Charlotte", "state": "NC", "stars": 5.0, "review_count": 18, "is_open": 1}, "YiRWQOav8cmE7_1qWCwJIw": {"name": "Modern Fabrics", "latitude": 35.1812341, "longitude": -80.8768276, "address": "4450 South Blvd, Ste 1", "city": "Charlotte", "state": "NC", "stars": 4.5, "review_count": 18, "is_open": 1}, "lHG_CQdUR0xQnrivvYqssA": {"name": "Closets by Design - Charlotte", "latitude": 35.1227093, "longitude": -80.9216378, "address": "1108 Continental Blvd, Ste A", "city": "Charlotte", "state": "NC", "stars": 4.5, "review_count": 12, "is_open": 1}, "1qWCDYeIAaUEExZncjGyKw": {"name": "ClearDefense Pest Control", "latitude": 35.1930368, "longitude": -80.8940972, "address": "4324 Barringer Dr, Ste 114", "city": "Charlotte", "state": "NC", "stars": 5.0, "review_count": 15, "is_open": 1}}