{"e1tqT4QNOUqDiOvmaIcxfQ": {"name": "Chef Alyssa's Kitchen", "latitude": 35.186099, "longitude": -80.878288, "address": "4001-C Yancey Rd, Ste 100", "city": "Charlotte", "state": "NC", "stars": 4.5, "review_count": 58, "is_open": 1}, "AZIlk87TRgAjCRIOw46xeg": {"name": "3rd Phaze Body Oils Inc.", "latitude": 35.2617991, "longitude": -80.8185957, "address": "3300 N Graham St", "city": "Charlotte", "state": "NC", "stars": 5.0, "review_count": 11, "is_open": 1}, "dwLfu8PGUIqGB-svwXAnJw": {"name": "Innovative Eye Care", "latitude": 35.202646, "longitude": -80.844436, "address": "1710 Kenilworth Ave, Ste 210", "city": "Charlotte", "state": "NC", "stars": 5.0, "review_count": 68, "is_open": 1}, "q3GBUyJgSg9Bf8sVaO8WfQ": {"name": "Rountree Plantation", "latitude": 35.171295, "longitude": -80.881687, "address": "517 Rountree Rd", "city": "Charlotte", "state": "NC", "stars": 4.5, "review_count": 21, "is_open": 1}, "YJHFNDsyc6XCfZBtT5zWlw": {"name": "Cloister Honey", "latitude": 35.1660032, "longitude": -80.7934798, "address": "", "city": "Charlotte", "state": "NC", "stars": 5.0, "review_count": 17, "is_open": 1}, "5mANVLSLwQjZNpisYGbglQ": {"name": "Nutrishop", "latitude": 35.0540157, "longitude": -80.8469904, "address": "15205 John J Delaney Dr., Ste B", "city": "Charlotte", "state": "NC", "stars": 4.5, "review_count": 11, "is_open": 1}, "7emvi57F8xWCDDADWSUKLg": {"name": "Modern Furniture Studio", "latitude": 35.1994741, "longitude": -80.8831774, "address": "800 Clanton Rd, Ste I", "city": "Charlotte", "state": "NC", "stars": 5.0, "review_count": 13, "is_open": 1}, "jSnVd4bKQGUN_dOG0CdZdg": {"name": "Charlotte Re-Cyclery", "latitude": 35.2325383, "longitude": -80.8256854, "address": "1132 N Caldwell St", "city": "Charlotte", "state": "NC", "stars": 5.0, "review_count": 16, "is_open": 1}, "8vT1HT0VJZKlOSEIcwF0Gw": {"name": "Harris Teeter", "latitude": 35.0518033489, "longitude": -80.772193, "address": "11135 Golf Links Dr", "city": "Charlotte", "state": "NC", "stars": 4.5, "review_count": 14, "is_open": 1}, "InnQkf4j02mnQUXJOtqqJw": {"name": "Malak Jewelers", "latitude": 35.0972580471, "longitude": -80.7793881744, "address": "8042 Providence Rd, Ste 1000", "city": "Charlotte", "state": "NC", "stars": 4.5, "review_count": 27, "is_open": 1}, "uoW8NFhCNgVvrl0p9qxzOQ": {"name": "Advent Coworking", "latitude": 35.2245312125, "longitude": -80.8203341067, "address": "933 Louise Ave", "city": "Charlotte", "state": "NC", "stars": 5.0, "review_count": 11, "is_open": 1}, "r7QEW42Bqo0KvY2Xb6YDXQ": {"name": "Billy Graham Library", "latitude": 35.1903725, "longitude": -80.9092806, "address": "4330 Westmont Dr", "city": "Charlotte", "state": "NC", "stars": 5.0, "review_count": 71, "is_open": 1}, "hRPfERezqBjiXECo78cuDw": {"name": "Stash Charlotte", "latitude": 35.2191188478, "longitude": -80.815523649, "address": "1318 Central Ave, Ste E3", "city": "Charlotte", "state": "NC", "stars": 4.5, "review_count": 11, "is_open": 1}, "a4MBM5uRAVPjpDs-AiBH8Q": {"name": "Lebo's", "latitude": 35.1613453, "longitude": -80.7404099, "address": "7300 E Independence Blvd", "city": "Charlotte", "state": "NC", "stars": 4.5, "review_count": 13, "is_open": 1}, "QTIGCJTStFTfHhQhlIZH6w": {"name": "Gymboree Play & Music, Charlotte", "latitude": 35.0686131, "longitude": -80.8425752, "address": "3419 Toringdon Wy, Ste 112", "city": "Charlotte", "state": "NC", "stars": 4.5, "review_count": 13, "is_open": 1}, "iLWw1o32JwBMbTdISVtL6A": {"name": "Kelilabee Flower Company", "latitude": 35.048281, "longitude": -80.8162572, "address": "11914 Elm Ln, Ste 140", "city": "Charlotte", "state": "NC", "stars": 4.5, "review_count": 19, "is_open": 1}, "7htadHUhD1kKC26TaP9nBw": {"name": "Art Space Studio", "latitude": 35.1028582, "longitude": -80.9849921, "address": "14126 Rivergate Pkwy", "city": "Charlotte", "state": "NC", "stars": 4.5, "review_count": 14, "is_open": 1}, "6gLOJe9tOB4hdIUjjal1Ng": {"name": "Revolve", "latitude": 35.203112, "longitude": -80.846204, "address": "1222 East Blvd", "city": "Charlotte", "state": "NC", "stars": 4.5, "review_count": 16, "is_open": 0}, "ILhjPp8qly2K-3fgxwJY6w": {"name": "Barefoot Archery", "latitude": 35.1834287, "longitude": -80.8789464, "address": "4410 Old Pineville Rd", "city": "Charlotte", "state": "NC", "stars": 4.5, "review_count": 33, "is_open": 1}, "3GHyCzABbvBaZM23ySt3aQ": {"name": "Summerbird", "latitude": 35.2412283, "longitude": -80.8119118, "address": "2424 N Davidson, Ste 105 A/b", "city": "Charlotte", "state": "NC", "stars": 4.5, "review_count": 39, "is_open": 1}, "dQOnVrU5O0tSY5ZS8t3ScA": {"name": "Optimist Hall", "latitude": 35.2339090889, "longitude": -80.8276032284, "address": "1115 N Brevard St", "city": "Charlotte", "state": "NC", "stars": 4.5, "review_count": 97, "is_open": 1}, "8VmrHzfkG4yHXI-aypcF4A": {"name": "Charlotte Running Co.", "latitude": 35.200131, "longitude": -80.843848, "address": "1412 E Blvd, Ste G", "city": "Charlotte", "state": "NC", "stars": 4.5, "review_count": 54, "is_open": 1}, "yXXZZGtOop9En69M6YPIcA": {"name": "Carolinas Vision Group", "latitude": 35.0591902, "longitude": -80.8498829, "address": "15640 Don Lochman Ln, Ste C", "city": "Charlotte", "state": "NC", "stars": 4.5, "review_count": 37, "is_open": 1}, "rE7v_faHw6HLEgGL3YlAxw": {"name": "Executive Shoe Shine", "latitude": 35.2204993103, "longitude": -80.9425674101, "address": "Charlotte Airport", "city": "Charlotte", "state": "NC", "stars": 4.5, "review_count": 72, "is_open": 1}, "-x2tiFz2Belrwz6q1S5ELg": {"name": "NC Guitar Works", "latitude": 35.246238, "longitude": -80.8285231, "address": "1941 Bancroft St, Ste D", "city": "Charlotte", "state": "NC", "stars": 5.0, "review_count": 12, "is_open": 1}, "tMlVZWa4SsI01qYMRQerKg": {"name": "7th Street Public Market", "latitude": 35.2276651687, "longitude": -80.8381052823, "address": "224 E 7th St", "city": "Charlotte", "state": "NC", "stars": 4.5, "review_count": 237, "is_open": 1}, "0IS9L4T1ogzVmKsQXDxigQ": {"name": "Run For Your Life - University", "latitude": 35.3365842706, "longitude": -80.7543396949, "address": "1816 E Arbors Dr, Ste 420", "city": "Charlotte", "state": "NC", "stars": 4.5, "review_count": 24, "is_open": 1}, "3lPlfIBjAvNkdaGWGXmnqQ": {"name": "California Closets - Charlotte", "latitude": 35.2108433, "longitude": -80.857044, "address": "224 East Blvd", "city": "Charlotte", "state": "NC", "stars": 4.5, "review_count": 11, "is_open": 1}, "3vfwZkmxVsipUe4jdrkBkg": {"name": "Krazy Kats Tattoo & Body Piercing", "latitude": 35.191247, "longitude": -80.7774871, "address": "5014 Monroe Rd", "city": "Charlotte", "state": "NC", "stars": 4.5, "review_count": 30, "is_open": 1}, "kByTQFPz2kGwIwNGZGUb7Q": {"name": "Canvas Tattoo & Art Gallery", "latitude": 35.2455793, "longitude": -80.8078234, "address": "3012 N Davidson St", "city": "Charlotte", "state": "NC", "stars": 4.5, "review_count": 23, "is_open": 1}, "HsS0Z0mo00w_2TAVu_nsEg": {"name": "HeroesCon", "latitude": 35.223081, "longitude": -80.846099, "address": "501 S College St", "city": "Charlotte", "state": "NC", "stars": 5.0, "review_count": 13, "is_open": 1}, "czz6zFMuRmQlUQw3CZ6Arw": {"name": "Elle C Luxury", "latitude": 35.249702, "longitude": -80.798796, "address": "3536 N Davidson St", "city": "Charlotte", "state": "NC", "stars": 5.0, "review_count": 14, "is_open": 0}, "N9oZ9GDPf65x6zv7fsKJvA": {"name": "Trader Joe's", "latitude": 35.078704, "longitude": -80.818063, "address": "6418 Rea Rd", "city": "Charlotte", "state": "NC", "stars": 4.5, "review_count": 106, "is_open": 1}, "Iqa63jYzUBPXNjZcc4IaNA": {"name": "Midwood Flower Shop", "latitude": 35.2197664, "longitude": -80.8008582, "address": "2415 Central Ave", "city": "Charlotte", "state": "NC", "stars": 4.5, "review_count": 25, "is_open": 1}, "7qJXAOTg91ny9SrNGToS8g": {"name": "ImaginOn - The Joe and Joan Martin Center", "latitude": 35.2270185, "longitude": -80.8376924, "address": "300 E 7th St", "city": "Charlotte", "state": "NC", "stars": 4.5, "review_count": 44, "is_open": 1}, "Jr0-xuQYSKzfjn6B0O-3hg": {"name": "Seven Jars", "latitude": 35.287571, "longitude": -80.906342, "address": "6148-A Brookshire Blvd", "city": "Charlotte", "state": "NC", "stars": 4.5, "review_count": 13, "is_open": 1}, "LRwkfgrkxxzLG24grsHkWw": {"name": "Toucan Louie's", "latitude": 35.2495468783, "longitude": -80.8701420575, "address": "2753 Rozzelles Ferry Rd", "city": "Charlotte", "state": "NC", "stars": 4.5, "review_count": 78, "is_open": 1}, "-pxlxqzZq5fde5tWAaViYA": {"name": "Pavel's Jewelry Repair", "latitude": 35.172126, "longitude": -80.848491, "address": "1630 E Woodlawn Rd, Ste 287", "city": "Charlotte", "state": "NC", "stars": 4.5, "review_count": 30, "is_open": 1}, "9H1_B5KgjWpsQrjt-p64LA": {"name": "Ladies of Lineage- Charlotte", "latitude": 35.200946, "longitude": -80.842701, "address": "1419 East Blvd, Ste E", "city": "Charlotte", "state": "NC", "stars": 4.5, "review_count": 32, "is_open": 1}, "7xexR4-efQRT-jDS7Nxbyw": {"name": "Windsor Jewelers - Charlotte", "latitude": 35.1465345, "longitude": -80.8270092, "address": "6809-D Phillips Place Ct", "city": "Charlotte", "state": "NC", "stars": 4.5, "review_count": 11, "is_open": 1}, "50-psRXlsW6duFPC1INn8Q": {"name": "Green Light Tattoo", "latitude": 35.2204089, "longitude": -80.8168589, "address": "820 Lamar Ave", "city": "Charlotte", "state": "NC", "stars": 4.5, "review_count": 23, "is_open": 1}, "oLhb7tWPNP5SttENVmGtHw": {"name": "Salud Cerveceria", "latitude": 35.2477994, "longitude": -80.8040482, "address": "3306-C N Davidson St", "city": "Charlotte", "state": "NC", "stars": 4.5, "review_count": 44, "is_open": 1}, "VG_-373vxytoK9w2SB5yFQ": {"name": "Autarchic Spec Shop", "latitude": 35.171873, "longitude": -80.849032, "address": "1600 E Woodlawn Rd, Ste 362", "city": "Charlotte", "state": "NC", "stars": 5.0, "review_count": 17, "is_open": 1}, "WPMVmc-Btv06Mv3rrkdJiA": {"name": "Christie's Alterations", "latitude": 35.167434, "longitude": -80.874965, "address": "5101 South Blvd", "city": "Charlotte", "state": "NC", "stars": 4.5, "review_count": 28, "is_open": 1}, "-C1TuPTKUq-s5VPAcg81Sg": {"name": "Noda Company Store", "latitude": 35.2470061423, "longitude": -80.8045076865, "address": "3221 Yadkin Ave", "city": "Charlotte", "state": "NC", "stars": 4.5, "review_count": 80, "is_open": 1}, "SIVLCoxA71fOZ2YHkzDq7Q": {"name": "Custom", "latitude": 35.2471047, "longitude": -80.8054084, "address": "3206 N Davidson St", "city": "Charlotte", "state": "NC", "stars": 4.5, "review_count": 37, "is_open": 1}, "lcdI8-taDshgRU578a4SIg": {"name": "City Art Room", "latitude": 35.3105707, "longitude": -80.7492861, "address": "9009-9 Jm Keynes Dr", "city": "Charlotte", "state": "NC", "stars": 4.5, "review_count": 16, "is_open": 1}, "abUOHFzY9-WpNv-WxPGrhw": {"name": "Beads", "latitude": 35.2042686, "longitude": -80.8247425, "address": "339 Circle Ave", "city": "Charlotte", "state": "NC", "stars": 5.0, "review_count": 23, "is_open": 1}, "SDZdJS2M7gVf6m0JJvhWHw": {"name": "Benefit BrowBar at Belk", "latitude": 35.1524126607, "longitude": -80.8320447786, "address": "4400 Sharon Rd", "city": "Charlotte", "state": "NC", "stars": 4.5, "review_count": 56, "is_open": 1}, "pCZrmhZFRis_G2sQMGxg3A": {"name": "Sally's Optical Secrets", "latitude": 35.2009674, "longitude": -80.8427523, "address": "1419 East Blvd, Ste C", "city": "Charlotte", "state": "NC", "stars": 5.0, "review_count": 13, "is_open": 1}, "oMo0lmnmIT8myQ3OPvm9nA": {"name": "Nectar", "latitude": 35.216979, "longitude": -80.814549, "address": "910 Pecan Ave", "city": "Charlotte", "state": "NC", "stars": 5.0, "review_count": 42, "is_open": 1}, "q1oK85jooM7eD0m44na0qQ": {"name": "Ballantyne Jewelers", "latitude": 35.069754, "longitude": -80.842339, "address": "12335 N Community House Rd, Ste A", "city": "Charlotte", "state": "NC", "stars": 5.0, "review_count": 57, "is_open": 1}, "AAqJm_XIRzvQanp-u2tr0w": {"name": "Couture Bridal - Wedding Alterations By Jablonska", "latitude": 35.03901, "longitude": -80.7936564, "address": "8145 Ardrey Kell Rd, Ste 102", "city": "Charlotte", "state": "NC", "stars": 5.0, "review_count": 14, "is_open": 1}, "FtFp56W6LcWcZeAFWdt-zQ": {"name": "Uptown Cycles", "latitude": 35.2294623, "longitude": -80.8651222, "address": "1432 W Morehead St", "city": "Charlotte", "state": "NC", "stars": 4.5, "review_count": 23, "is_open": 1}, "Et2MLEGT9hbh6LtI6RHj0Q": {"name": "Secret Society Cigar Bar And Lounge", "latitude": 35.223929, "longitude": -80.8780446, "address": "2415 W Morehead St", "city": "Charlotte", "state": "NC", "stars": 4.5, "review_count": 13, "is_open": 0}, "fnxKfHf-ANBph4EqVARvQQ": {"name": "Trader Joe's", "latitude": 35.211682, "longitude": -80.8355447, "address": "1133 Metropolitan Ave", "city": "Charlotte", "state": "NC", "stars": 4.5, "review_count": 181, "is_open": 1}, "i3Nvs6YwMkZEhhSsD0fq4g": {"name": "Cellular Doctor Cell Phone Repair", "latitude": 35.1631678, "longitude": -80.7414058, "address": "7146 E Independence Blvd, Ste B", "city": "Charlotte", "state": "NC", "stars": 4.5, "review_count": 25, "is_open": 1}, "40pl2pdyczbk6q-caOapcw": {"name": "New York Bride & Groom", "latitude": 35.178246, "longitude": -80.8771821, "address": "4618 South Blvd", "city": "Charlotte", "state": "NC", "stars": 4.5, "review_count": 74, "is_open": 1}, "T7o7Q_WqKDkH5_FjjgMxqw": {"name": "uBreakiFix", "latitude": 35.0880249, "longitude": -80.8456065, "address": "7510 Pineville-Matthews Rd", "city": "Charlotte", "state": "NC", "stars": 4.5, "review_count": 80, "is_open": 1}, "jdL7Y1QkTAE7klg9SAT53g": {"name": "Dilworth Drug", "latitude": 35.2014531, "longitude": -80.8447395, "address": "1300 East Blvd, Ste B", "city": "Charlotte", "state": "NC", "stars": 5.0, "review_count": 11, "is_open": 1}, "Jrtdn89P8dp8aoStRk3znA": {"name": "The Light Factory", "latitude": 35.220697, "longitude": -80.809002, "address": "1817 Central Ave", "city": "Charlotte", "state": "NC", "stars": 4.5, "review_count": 12, "is_open": 1}, "pIs9EYf0BISJ63WqNVFqtA": {"name": "Bryan Swisher Photography", "latitude": 35.2308228542, "longitude": -80.7786721288, "address": "3009 Telford Pl", "city": "Charlotte", "state": "NC", "stars": 5.0, "review_count": 16, "is_open": 1}, "25A5cs0ZmdPPF5x21mSxyA": {"name": "The Jewelry Stop", "latitude": 35.086498, "longitude": -80.8482169, "address": "7617 Pineville Matthews Rd, Ste A", "city": "Charlotte", "state": "NC", "stars": 5.0, "review_count": 11, "is_open": 1}, "pPW9j7AQ1FmgnISqpG-SxA": {"name": "Charlotte Mecklenburg Library - Morrison Regional", "latitude": 35.151162, "longitude": -80.823154, "address": "7015 Morrison Blvd", "city": "Charlotte", "state": "NC", "stars": 4.5, "review_count": 20, "is_open": 1}, "v6zBH_Nsdr8meRGstAE9fA": {"name": "Blackstone Shooting Sports", "latitude": 35.2227098, "longitude": -80.8726521, "address": "2001 Wilkinson Blvd", "city": "Charlotte", "state": "NC", "stars": 4.5, "review_count": 112, "is_open": 1}, "Ps2ruNKnYRppfeDe26ZnAA": {"name": "Repo Records & Collectibles", "latitude": 35.2084691, "longitude": -80.7906021, "address": "3325 Commonwealth Ave", "city": "Charlotte", "state": "NC", "stars": 4.5, "review_count": 26, "is_open": 1}, "sAX1q1kLvOnXKURq_MP_Wg": {"name": "Park Road Books", "latitude": 35.1752678, "longitude": -80.8492694, "address": "4139 Park Rd", "city": "Charlotte", "state": "NC", "stars": 4.5, "review_count": 37, "is_open": 1}, "Rw4qP9OYppI4FWHUTC5nnw": {"name": "I.C. London", "latitude": 35.1527576503, "longitude": -80.8285264067, "address": "4310 Sharon Rd", "city": "Charlotte", "state": "NC", "stars": 4.5, "review_count": 19, "is_open": 1}, "VzpiCBzPPlhtGZSgKcSDyA": {"name": "uBreakiFix", "latitude": 35.3465213, "longitude": -80.8601786, "address": "9304 Northlake West Dr, Ste C", "city": "Charlotte", "state": "NC", "stars": 4.5, "review_count": 35, "is_open": 1}, "qzpxSSoPA8-0a0v7iy3tEQ": {"name": "Trek Bicycle Store", "latitude": 35.346151, "longitude": -80.853333, "address": "10129 Perimeter Pkwy", "city": "Charlotte", "state": "NC", "stars": 4.5, "review_count": 13, "is_open": 1}, "xRvhSnjtEf5ouE4loEK6vw": {"name": "Don's Tennis Accessories", "latitude": 35.209848, "longitude": -80.8356164, "address": "601 S Kings Dr", "city": "Charlotte", "state": "NC", "stars": 4.5, "review_count": 14, "is_open": 1}, "fvYvzoOHyfPrAiY3FX_PlQ": {"name": "Tattoo Me", "latitude": 35.2167541, "longitude": -80.8566764, "address": "1440 S Tryon St, Ste 106", "city": "Charlotte", "state": "NC", "stars": 4.5, "review_count": 15, "is_open": 1}, "AEhqCRezM4nha02O0lYmCw": {"name": "Charlotte Cycles", "latitude": 35.2101554, "longitude": -80.8311831, "address": "337 Baldwin Ave", "city": "Charlotte", "state": "NC", "stars": 5.0, "review_count": 18, "is_open": 1}, "Bm2fPxw9oTnYvO5oL_ArTA": {"name": "FY Eye Care Associates", "latitude": 35.3644429, "longitude": -80.7862708, "address": "10210 Prosperity Park Dr, Ste 200", "city": "Charlotte", "state": "NC", "stars": 4.5, "review_count": 13, "is_open": 1}, "UMmM7RmhJeAVBtXmccFGrQ": {"name": "The Hobbyist", "latitude": 35.2384482, "longitude": -80.8161948, "address": "2100 N Davidson St, Ste D", "city": "Charlotte", "state": "NC", "stars": 4.5, "review_count": 56, "is_open": 1}, "WdE6ehdIisIJ4Gj3blKvzA": {"name": "eyecarecenter", "latitude": 35.0915339, "longitude": -80.8435308, "address": "6311 Carmel Rd", "city": "Charlotte", "state": "NC", "stars": 4.5, "review_count": 14, "is_open": 1}, "q6d9oEIHr07Eb_IrdFCTFw": {"name": "The Wine Palette", "latitude": 35.2753246, "longitude": -80.853602, "address": "1308-C The Plz", "city": "Charlotte", "state": "NC", "stars": 4.5, "review_count": 14, "is_open": 0}, "XagMSw5tADQbNSx0IM7TaA": {"name": "Paper Skyscraper", "latitude": 35.2099837, "longitude": -80.8557118, "address": "330 East Blvd", "city": "Charlotte", "state": "NC", "stars": 4.5, "review_count": 207, "is_open": 1}, "tJYjKlkuy6xG1vx_9NgjSw": {"name": "Cigars Etc 2", "latitude": 35.1478235167, "longitude": -80.7451826334, "address": "9007 Monroe Rd", "city": "Charlotte", "state": "NC", "stars": 4.5, "review_count": 23, "is_open": 1}, "vFT7XuyisWFUjS6-4u5IKg": {"name": "Julia's Caf\u00e9 and Books", "latitude": 35.194574, "longitude": -80.79543, "address": "1133 N Wendover Rd", "city": "Charlotte", "state": "NC", "stars": 4.5, "review_count": 87, "is_open": 1}, "kigNaYFBycivgqRP0sZe9A": {"name": "Hayden Olivia Bridal", "latitude": 35.2259534, "longitude": -80.8446717, "address": "221 S Tryon St, Ste 200", "city": "Charlotte", "state": "NC", "stars": 4.5, "review_count": 23, "is_open": 1}, "JePoHo0qm7lHd2Nsg3zA3w": {"name": "Pasta & Provisions", "latitude": 35.1864682, "longitude": -80.8220131, "address": "1528 Providence Rd", "city": "Charlotte", "state": "NC", "stars": 4.5, "review_count": 111, "is_open": 1}, "47h0gyvH9zxU0FOo5cPLrQ": {"name": "Botanical Tans", "latitude": 35.1486773844, "longitude": -80.8349468981, "address": "6324 Fairview Rd, Ste 160-112", "city": "Charlotte", "state": "NC", "stars": 4.5, "review_count": 48, "is_open": 1}, "mDvoAn07gx2HPrNo-6JTJg": {"name": "Alpine Ski Center", "latitude": 35.2004105, "longitude": -80.8421469, "address": "1501 E Blvd", "city": "Charlotte", "state": "NC", "stars": 4.5, "review_count": 12, "is_open": 1}, "Q1duJUEsxDP74bmPsPweWA": {"name": "The Boulevard at South End", "latitude": 35.2166767, "longitude": -80.856644, "address": "1440 S Tryon St, Ste 100", "city": "Charlotte", "state": "NC", "stars": 4.5, "review_count": 29, "is_open": 0}, "xjPcUJgyJ78lhkoQuNxbZA": {"name": "The Artisan's Palate", "latitude": 35.241229, "longitude": -80.7977646589, "address": "1218 E 36th St, Ste A", "city": "Charlotte", "state": "NC", "stars": 4.5, "review_count": 16, "is_open": 1}, "qwsnybLXT2h94-r8yQV5tg": {"name": "Oakdale Greenhouses", "latitude": 35.2973549, "longitude": -80.8389466, "address": "5626 Statesville Rd", "city": "Charlotte", "state": "NC", "stars": 5.0, "review_count": 11, "is_open": 1}, "rG8-KDIbnLsEFBT3pi-Q6g": {"name": "Black Cloud Tattoo Piercing and Supply", "latitude": 35.236437, "longitude": -80.801916, "address": "2814 The Plz", "city": "Charlotte", "state": "NC", "stars": 4.5, "review_count": 54, "is_open": 1}, "9K1y0Gt2L1ymSb0YgcTfWQ": {"name": "Mama Bessie's Place", "latitude": 35.2038411, "longitude": -80.804485, "address": "3010 Monroe Rd, Ste 104", "city": "Charlotte", "state": "NC", "stars": 4.5, "review_count": 15, "is_open": 1}, "mjjlXI5Hd3Ht0amDFXMfBg": {"name": "Computer Repair - Laptop Repair by Vellve Systems", "latitude": 35.1806194, "longitude": -80.8799355, "address": "4548 Old Pineville Rd, Ste D", "city": "Charlotte", "state": "NC", "stars": 4.5, "review_count": 37, "is_open": 1}, "Ad6MuVLFW4PlFZ4cAEnfwQ": {"name": "Daily Mews Cat Cafe", "latitude": 35.1988743, "longitude": -80.7954054, "address": "3748 Monroe Rd", "city": "Charlotte", "state": "NC", "stars": 5.0, "review_count": 20, "is_open": 1}, "oWSnCxKSEcFaloRElaRmRA": {"name": "Alexander South NC", "latitude": 35.2326781, "longitude": -80.8460822, "address": "", "city": "Charlotte", "state": "NC", "stars": 5.0, "review_count": 13, "is_open": 1}, "pARBR6CZxKiwO25oKtMsYw": {"name": "Cannon Pharmacy", "latitude": 35.205216, "longitude": -80.863477, "address": "2334 South Blvd", "city": "Charlotte", "state": "NC", "stars": 5.0, "review_count": 22, "is_open": 1}, "Z4cBD2l_AaFvrtllK8Zhxw": {"name": "No Bull Mattress", "latitude": 35.2039026, "longitude": -80.8052924, "address": "2928 Monroe Rd", "city": "Charlotte", "state": "NC", "stars": 4.5, "review_count": 24, "is_open": 1}, "3KawP-W-C87wR0XUyyUNHw": {"name": "Big Frog Custom T-Shirts & More", "latitude": 35.0683915, "longitude": -80.8419739, "address": "3429 Toringdon Way, Ste. B112", "city": "Charlotte", "state": "NC", "stars": 4.5, "review_count": 24, "is_open": 1}, "Pl76WoNmRMVsaftuwbzb3w": {"name": "Charlotte Mecklenburg Library - South County Regional", "latitude": 35.086323, "longitude": -80.811689, "address": "5801 Rea Rd", "city": "Charlotte", "state": "NC", "stars": 4.5, "review_count": 13, "is_open": 1}, "s0BaXPzeYucbUq9ARlT3EQ": {"name": "The Bike Medics", "latitude": 35.2263714, "longitude": -80.7990185, "address": "", "city": "Charlotte", "state": "NC", "stars": 5.0, "review_count": 18, "is_open": 1}, "p5yN7FRBr9MEzdq2yBzkAg": {"name": "Carpet & Rug Superstore", "latitude": 35.1555476, "longitude": -80.8764989, "address": "5892 South Blvd", "city": "Charlotte", "state": "NC", "stars": 4.5, "review_count": 16, "is_open": 1}, "R92bHB8zCNLuJhT9j1usAA": {"name": "Escape Kings", "latitude": 35.115215, "longitude": -80.9291117, "address": "11333 Granite St, Ste B", "city": "Charlotte", "state": "NC", "stars": 5.0, "review_count": 25, "is_open": 1}, "UQskW_QxF4kKyMh5Fpmn9A": {"name": "Winnie Couture", "latitude": 35.1733628, "longitude": -80.8399867, "address": "2909 Selwyn Ave", "city": "Charlotte", "state": "NC", "stars": 5.0, "review_count": 17, "is_open": 1}, "cmS3mR0pEorJx39PrSNBLw": {"name": "Heroes Aren't Hard To Find", "latitude": 35.2129087, "longitude": -80.8175575, "address": "417 Pecan Ave", "city": "Charlotte", "state": "NC", "stars": 4.5, "review_count": 62, "is_open": 1}, "_ABVTPkUnbCWgBmakmKXMw": {"name": "Vin Master", "latitude": 35.209251702, "longitude": -80.8609794074, "address": "2000 S Blvd, Ste 610", "city": "Charlotte", "state": "NC", "stars": 4.5, "review_count": 75, "is_open": 1}, "KPD7yZS85MLAiWVOPEexEw": {"name": "Dressed", "latitude": 35.1765453, "longitude": -80.8752127, "address": "415 East Woodlawn Rd, Fl 2", "city": "Charlotte", "state": "NC", "stars": 5.0, "review_count": 15, "is_open": 1}, "3C-PkpCWu2SXRwGao9UHTA": {"name": "Charlotte Mecklenburg Library - Steele Creek", "latitude": 35.1068185, "longitude": -80.9887958, "address": "13620 Steele Creek Road", "city": "Charlotte", "state": "NC", "stars": 4.5, "review_count": 12, "is_open": 1}, "q8v-UupBEhvoxQgl44ZtIA": {"name": "City Cigar Company", "latitude": 35.0355952, "longitude": -80.8044731, "address": "9815 Rea Rd", "city": "Charlotte", "state": "NC", "stars": 5.0, "review_count": 11, "is_open": 1}, "lmlA3gYgSGo4_Y_we8kQ3Q": {"name": "The Lamp Place", "latitude": 35.197142, "longitude": -80.870352, "address": "3108 South Blvd", "city": "Charlotte", "state": "NC", "stars": 4.5, "review_count": 14, "is_open": 1}, "yt__7tlJA3qUzwAa-okFPQ": {"name": "Jeffre Scott", "latitude": 35.2016262, "longitude": -80.8246527, "address": "607 Providence Rd", "city": "Charlotte", "state": "NC", "stars": 5.0, "review_count": 21, "is_open": 1}, "TFzdiAKlWdTteocfwglHVw": {"name": "Charlotte Yarn", "latitude": 35.203146, "longitude": -80.845019, "address": "1235 East Blvd", "city": "Charlotte", "state": "NC", "stars": 4.5, "review_count": 11, "is_open": 1}, "o-0WufDHC2Wsz0Xk2y1BAA": {"name": "Tip Top Daily Market", "latitude": 35.2369496, "longitude": -80.8007276, "address": "2902 The Plz", "city": "Charlotte", "state": "NC", "stars": 4.5, "review_count": 17, "is_open": 1}, "tsSZDrHEjomSvkVk40sGZw": {"name": "Well-Loved Piano", "latitude": 35.1969898, "longitude": -80.8362746, "address": "2001 Norton Rd", "city": "Charlotte", "state": "NC", "stars": 4.5, "review_count": 12, "is_open": 1}, "UbnlrSzL6gMPVAjHHKv-Mg": {"name": "Denver Mattress", "latitude": 35.2947809526, "longitude": -80.7615826036, "address": "8215 Ikea Blvd, Ste DM", "city": "Charlotte", "state": "NC", "stars": 4.5, "review_count": 15, "is_open": 1}, "Hvef33jY8uu6YB5Mvi5BgQ": {"name": "Painting with a Twist", "latitude": 35.1475442935, "longitude": -80.8332958817, "address": "4724 Sharon Rd, Suite J", "city": "Charlotte", "state": "NC", "stars": 4.5, "review_count": 36, "is_open": 1}, "29CNDTpKLsrr_jObcydMmg": {"name": "Anthony & Sylvan Pools", "latitude": 35.1344261169, "longitude": -80.9122238159, "address": "9201 Southern Pine Blvd, #C", "city": "Charlotte", "state": "NC", "stars": 4.5, "review_count": 20, "is_open": 1}, "acPCrxMhwM0W3oJkbiVeFA": {"name": "Charlotte Running Company", "latitude": 35.0626979, "longitude": -80.7738817, "address": "5355 Ballantyne Commons Pkwy, Ste 200", "city": "Charlotte", "state": "NC", "stars": 5.0, "review_count": 29, "is_open": 1}, "bunwY9WfYsi7lweOXR02mw": {"name": "Ultra Running Company", "latitude": 35.1953622, "longitude": -80.8258629, "address": "1027 Providence Rd", "city": "Charlotte", "state": "NC", "stars": 5.0, "review_count": 18, "is_open": 1}, "h1S9CQd5p6YuuCJKKdFiTA": {"name": "Blink Eyecare and Eyewear", "latitude": 35.0267867949, "longitude": -80.8401014222, "address": "16618 Riverstone Way", "city": "Charlotte", "state": "NC", "stars": 4.5, "review_count": 11, "is_open": 1}, "PSK42ktIllSGv0cC1Ma9dw": {"name": "Walker's Drug Store", "latitude": 35.1771165, "longitude": -80.798331, "address": "4390 Colwick Rd", "city": "Charlotte", "state": "NC", "stars": 4.5, "review_count": 11, "is_open": 1}, "oiyZTq_c6hJVK2HiisBMOQ": {"name": "Malone's Nursery", "latitude": 35.301293, "longitude": -80.895323, "address": "100 Radio Rd", "city": "Charlotte", "state": "NC", "stars": 4.5, "review_count": 11, "is_open": 1}, "DMnfEufWdQ0hHg9XDPW50g": {"name": "Morrison Smith Fine & Custom Jewelers", "latitude": 35.2006348, "longitude": -80.8249329, "address": "705 Providence Rd", "city": "Charlotte", "state": "NC", "stars": 4.5, "review_count": 36, "is_open": 1}, "KwqWSF4o7Jl30hBclJB2MA": {"name": "FABO", "latitude": 35.174778, "longitude": -80.839997, "address": "2820 Selwyn Ave, Ste 180", "city": "Charlotte", "state": "NC", "stars": 4.5, "review_count": 41, "is_open": 0}, "gA7ohl3hjhDWA8dP2-9Rig": {"name": "Modern Salon & Spa", "latitude": 35.211682, "longitude": -80.8355447, "address": "1133 Metropolitan Ave, Ste 150", "city": "Charlotte", "state": "NC", "stars": 4.5, "review_count": 45, "is_open": 1}, "i-ru0phv1GiCe6gx85uQAw": {"name": "The Rat's Nest", "latitude": 35.247904, "longitude": -80.805151, "address": "442 E 36th St", "city": "Charlotte", "state": "NC", "stars": 4.5, "review_count": 27, "is_open": 1}, "hLvatQ0JRYaU0GaE2ff0xA": {"name": "McCoy Plumbing", "latitude": 35.0393172, "longitude": -80.8286528, "address": "10000 Community House Rd", "city": "Charlotte", "state": "NC", "stars": 4.5, "review_count": 12, "is_open": 1}, "1nmjYVBhO0q3s6ldAXqPLA": {"name": "The LALA Girl Makeup & Hair Mobile Grooming", "latitude": 35.1811188, "longitude": -80.8488498, "address": "", "city": "Charlotte", "state": "NC", "stars": 4.5, "review_count": 14, "is_open": 1}, "7hSr8Higx__vvRG3ri4L4A": {"name": "NC Velo Bicycles", "latitude": 35.0355794, "longitude": -80.8041674, "address": "9815 Rea Rd", "city": "Charlotte", "state": "NC", "stars": 4.5, "review_count": 20, "is_open": 1}, "4JG8O5kGk7WEYFD7MjkfPw": {"name": "Eco-Licious", "latitude": 35.218503, "longitude": -80.81262, "address": "1916 Commonwealth Ave", "city": "Charlotte", "state": "NC", "stars": 4.5, "review_count": 11, "is_open": 0}, "cXCLIvD481-w4Y6JG1SKtA": {"name": "Bartique", "latitude": 35.246403, "longitude": -80.806468, "address": "3100 N Davidson St, Ste 103", "city": "Charlotte", "state": "NC", "stars": 4.5, "review_count": 23, "is_open": 1}, "cjq6pMGwctZT9OhS9_fDpw": {"name": "Fresh Salon", "latitude": 35.0622318, "longitude": -80.7733528, "address": "5349 Ballantyne Commons Pkwy, Ste 800", "city": "Charlotte", "state": "NC", "stars": 4.5, "review_count": 52, "is_open": 1}, "poIxgdfXbVsPZgpZLQRu_w": {"name": "Save Point Video Games", "latitude": 35.296678, "longitude": -80.738035, "address": "8640 University Blvd, Ste A9", "city": "Charlotte", "state": "NC", "stars": 4.5, "review_count": 13, "is_open": 1}, "nkSEOpr7208vIkJpz8NqDA": {"name": "Starclaire House Of Flowers", "latitude": 35.1565966, "longitude": -80.8745969, "address": "1421 Emerywood dr", "city": "Charlotte", "state": "NC", "stars": 4.5, "review_count": 20, "is_open": 1}, "HVgvbYaFRUN1-vwO6OgDsA": {"name": "FROCK Shop", "latitude": 35.221828, "longitude": -80.823029, "address": "901 Central Ave", "city": "Charlotte", "state": "NC", "stars": 4.5, "review_count": 23, "is_open": 0}, "Ek_AWCGolMUUfJ1UCzSbiQ": {"name": "Bicycle Sport", "latitude": 35.1734518, "longitude": -80.8408279, "address": "2916 Selwyn Ave, Ste A", "city": "Charlotte", "state": "NC", "stars": 4.5, "review_count": 23, "is_open": 1}, "F3Csz6QiOQ8cZvAycA27CA": {"name": "Allen's Jewelers", "latitude": 35.17705, "longitude": -80.79826, "address": "4400 Colwick Rd", "city": "Charlotte", "state": "NC", "stars": 5.0, "review_count": 24, "is_open": 1}, "Rs-VhTqmuAdHg3CGGUr4Dg": {"name": "Orrman's Cheese Shop", "latitude": 35.2277626, "longitude": -80.8379816, "address": "224 E 7th St", "city": "Charlotte", "state": "NC", "stars": 4.5, "review_count": 60, "is_open": 1}, "7yj_8Zt4uvbXBZQgqyXrIw": {"name": "Bella Bridesmaids", "latitude": 35.2009674, "longitude": -80.8427523, "address": "1419 East Blvd, Ste F", "city": "Charlotte", "state": "NC", "stars": 4.5, "review_count": 23, "is_open": 1}, "qthmjdP_v2pLaq3QpAZNgA": {"name": "QueenCity Bicycles", "latitude": 35.2139117, "longitude": -80.856244, "address": "128 E Park Ave", "city": "Charlotte", "state": "NC", "stars": 4.5, "review_count": 11, "is_open": 1}, "l15YOYvy1cmOkNCDNEva4g": {"name": "Trader Joe's", "latitude": 35.3359058678, "longitude": -80.7539963722, "address": "1820 E Arbors Dr", "city": "Charlotte", "state": "NC", "stars": 4.5, "review_count": 112, "is_open": 1}, "38xokRb75s1T9TrBRAFKBA": {"name": "Pura Vida Worldly Art", "latitude": 35.2470055, "longitude": -80.8055104, "address": "3202A N Davidson St", "city": "Charlotte", "state": "NC", "stars": 4.5, "review_count": 44, "is_open": 1}, "pXVqNo2c2PoHXirwRXXMIA": {"name": "Ultimate Bicycle", "latitude": 35.146342, "longitude": -80.7424883, "address": "9129 Monroe Rd, Ste 115", "city": "Charlotte", "state": "NC", "stars": 4.5, "review_count": 20, "is_open": 1}, "uwEu_-bR4YoWkv1ZJ7L5WA": {"name": "Creative By Nature", "latitude": 35.034628, "longitude": -80.8067629, "address": "9830 Rea Rd, Ste H", "city": "Charlotte", "state": "NC", "stars": 4.5, "review_count": 11, "is_open": 1}, "xRs4aFJGAT8eO86pIZ362Q": {"name": "Bruce Julian Clothier", "latitude": 35.1733410461, "longitude": -80.8400050052, "address": "2913 Selwyn Ave", "city": "Charlotte", "state": "NC", "stars": 4.5, "review_count": 22, "is_open": 1}, "sY4hXAlKijQ97C3yZSi2dw": {"name": "Infinity's End", "latitude": 35.296693, "longitude": -80.7378605019, "address": "8640 University City Blvd, Ste A-6", "city": "Charlotte", "state": "NC", "stars": 4.5, "review_count": 12, "is_open": 1}, "IOpssLQ_3v34Q-BV9J3mJg": {"name": "Run For Your Life - Midtown", "latitude": 35.20664459, "longitude": -80.8353733454, "address": "901 S Kings Dr, Ste 100", "city": "Charlotte", "state": "NC", "stars": 4.5, "review_count": 13, "is_open": 1}, "QFQ6XBax_hJFGyqjb-TZAQ": {"name": "University Eye Associates", "latitude": 35.319082, "longitude": -80.774821, "address": "8316 Medical Plaza Dr, Ste E", "city": "Charlotte", "state": "NC", "stars": 4.5, "review_count": 31, "is_open": 1}, "YiRWQOav8cmE7_1qWCwJIw": {"name": "Modern Fabrics", "latitude": 35.1812341, "longitude": -80.8768276, "address": "4450 South Blvd, Ste 1", "city": "Charlotte", "state": "NC", "stars": 4.5, "review_count": 18, "is_open": 1}, "TEdtu4fe7yZ5biKsYpURBw": {"name": "Campbell's Greenhouses", "latitude": 35.207719, "longitude": -80.859788, "address": "209 McDonald Ave", "city": "Charlotte", "state": "NC", "stars": 4.5, "review_count": 38, "is_open": 1}, "1HgcjCu6GRG8K64ZBpiIlQ": {"name": "Myers Park Tailors", "latitude": 35.206972, "longitude": -80.835227, "address": "901 S Kings Dr, Ste 145", "city": "Charlotte", "state": "NC", "stars": 4.5, "review_count": 67, "is_open": 1}, "mT9_bONG4iIaMt2_V_xoXg": {"name": "Infinity's End", "latitude": 35.166802, "longitude": -80.875046, "address": "5119-A South Blvd", "city": "Charlotte", "state": "NC", "stars": 4.5, "review_count": 18, "is_open": 1}, "j_-AlmCecYEtIl-mjZaKqA": {"name": "Trek Bike Store of Charlotte", "latitude": 35.0722774686, "longitude": -80.8424565984, "address": "12194 Johnston Way", "city": "Charlotte", "state": "NC", "stars": 5.0, "review_count": 21, "is_open": 1}, "d1bb-V9tZDnu-teb_CST4A": {"name": "Charlotte Mattress Warehouse", "latitude": 35.136201, "longitude": -80.8755573, "address": "7143 South Blvd", "city": "Charlotte", "state": "NC", "stars": 5.0, "review_count": 12, "is_open": 1}, "hANUhA9UU9Wj1aQgPbpZuA": {"name": "City Art Works", "latitude": 35.171964, "longitude": -80.848423, "address": "1630 Woodlawn Rd", "city": "Charlotte", "state": "NC", "stars": 4.5, "review_count": 19, "is_open": 0}, "ysq_dA5tsPs3EYGMAL7pTQ": {"name": "Flowers Plus", "latitude": 35.2254513, "longitude": -80.84528, "address": "301 S Tryon St, Ste 50", "city": "Charlotte", "state": "NC", "stars": 4.5, "review_count": 44, "is_open": 1}, "bZPSGc8ng5ADLwffg3eSiA": {"name": "Rebel Base Comics & Toys", "latitude": 35.1714531, "longitude": -80.8066092, "address": "701 S Sharon Amity Rd, Ste C", "city": "Charlotte", "state": "NC", "stars": 4.5, "review_count": 37, "is_open": 1}, "dehUIFD1VtnZZKJxc6Jh5Q": {"name": "Visionworks", "latitude": 35.1765554, "longitude": -80.799488, "address": "4456 Randolph Rd", "city": "Charlotte", "state": "NC", "stars": 4.5, "review_count": 27, "is_open": 1}, "jAzhMXlm1lg388k-xlANKA": {"name": "Ruby's Gift", "latitude": 35.2469918, "longitude": -80.8054654, "address": "3204 N Davidson St", "city": "Charlotte", "state": "NC", "stars": 4.5, "review_count": 21, "is_open": 1}, "VRjMOWAzUIbM7Yd5QaiGnw": {"name": "University Eye Associates", "latitude": 35.2828178, "longitude": -80.6691502, "address": "9651 Brookdale Dr, Ste 800", "city": "Charlotte", "state": "NC", "stars": 4.5, "review_count": 29, "is_open": 1}, "2lPpKp6C3YDRBIxbPQV7kQ": {"name": "SK Alterations & Shoe Repair", "latitude": 35.3671, "longitude": -80.785982, "address": "5342 Docia Crossing Rd, Ste C", "city": "Charlotte", "state": "NC", "stars": 4.5, "review_count": 23, "is_open": 1}, "DPTZmSh2hOmq_gZUyL4Smw": {"name": "32 Flavors Boutique", "latitude": 35.2109644359, "longitude": -80.8570723147, "address": "224 East Blvd, Ste B", "city": "Charlotte", "state": "NC", "stars": 5.0, "review_count": 11, "is_open": 0}, "mOgOyznktg1xZcGNwT63-w": {"name": "The Map Shop", "latitude": 35.204434, "longitude": -80.8357324, "address": "1500 E Morehead St", "city": "Charlotte", "state": "NC", "stars": 4.5, "review_count": 23, "is_open": 1}}