{"yem1oUuZGl073Dlq_dMKIQ": {"name": "GreaterThan Coffee", "latitude": 33.447987, "longitude": -112.0592962, "address": "1027 E Washington St, Ste 107", "city": "Phoenix", "state": "AZ", "stars": 4.5, "review_count": 25, "is_open": 0}, "IghwtXL8ZgK2dEL62Pzhrw": {"name": "Tacos Huicho", "latitude": 33.4727632963, "longitude": -112.0394180042, "address": "1941 E Oak St", "city": "Phoenix", "state": "AZ", "stars": 4.5, "review_count": 227, "is_open": 1}, "Jr1_Pt8TQihTISYc5RbKtw": {"name": "Saenz Cleaning", "latitude": 33.6364503, "longitude": -112.0118669, "address": "", "city": "Phoenix", "state": "AZ", "stars": 5.0, "review_count": 29, "is_open": 1}, "JC1tcGar1T3jko1iX2fIHg": {"name": "Walter Station Brewery", "latitude": 33.448488, "longitude": -111.992928, "address": "4056 E Washington St", "city": "Phoenix", "state": "AZ", "stars": 4.5, "review_count": 45, "is_open": 1}, "ViErpcikhbAjsDcpdAfwSQ": {"name": "Maui Dog", "latitude": 33.4954475, "longitude": -112.0050862, "address": "3538 E Indian School Rd", "city": "Phoenix", "state": "AZ", "stars": 4.5, "review_count": 93, "is_open": 0}, "bH7XKWeGeNL5UrBaTtvrtQ": {"name": "Maskadores Taco", "latitude": 33.6401069, "longitude": -111.9951461, "address": "4015 E Bell Rd, Ste 124", "city": "Phoenix", "state": "AZ", "stars": 4.5, "review_count": 145, "is_open": 1}, "5DDumAHRKumv3gZiPKW6iw": {"name": "Nami", "latitude": 33.469968, "longitude": -112.065431, "address": "2014 N 7th St", "city": "Phoenix", "state": "AZ", "stars": 4.5, "review_count": 768, "is_open": 1}, "dja9beNvdd_SmXxn8At5aQ": {"name": "Oliver's Sophisticated Bean", "latitude": 33.4584453, "longitude": -112.0694742, "address": "333 E Roosevelt St, Ste 110", "city": "Phoenix", "state": "AZ", "stars": 5.0, "review_count": 101, "is_open": 0}, "yTTEhnUOirRjGjxkObQTVw": {"name": "Odelay Bagel", "latitude": 33.3377046576, "longitude": -111.9947783418, "address": "12020 S Warner Elliott Lp", "city": "Phoenix", "state": "AZ", "stars": 4.5, "review_count": 126, "is_open": 0}, "dq4c_0btrrdcz_Nq6RV02g": {"name": "Cactus Tavern", "latitude": 33.5962128, "longitude": -112.0361236, "address": "2017 E Cactus Rd", "city": "Phoenix", "state": "AZ", "stars": 4.5, "review_count": 71, "is_open": 1}, "tT5kEAq2DFTKqc6mJ9ptCg": {"name": "Gyro House 32", "latitude": 33.5983785, "longitude": -112.0136019, "address": "12308 N 32nd St", "city": "Phoenix", "state": "AZ", "stars": 4.5, "review_count": 72, "is_open": 1}, "Cd2ERofxOeCbCi-0yDs0aw": {"name": "Maria's Frybread & Mexican Food", "latitude": 33.4797876515, "longitude": -111.9949702173, "address": "4041 E Thomas Rd, Ste 124", "city": "Phoenix", "state": "AZ", "stars": 4.5, "review_count": 498, "is_open": 1}, "rgZjPYSdZtS4xSTrx45PLQ": {"name": "Seed Cafe", "latitude": 33.495495, "longitude": -111.9995627, "address": "3802 E Indian School Rd", "city": "Phoenix", "state": "AZ", "stars": 4.5, "review_count": 60, "is_open": 0}, "EWo5usxVpjAs25NFBbsITQ": {"name": "Corridors Cafe", "latitude": 33.699034, "longitude": -112.1068993, "address": "2155 W Pinnacle Peak Rd, Unit 1", "city": "Phoenix", "state": "AZ", "stars": 4.5, "review_count": 43, "is_open": 1}, "02eESJZNF3qigrJ3GNRgIQ": {"name": "Taqueria Yaqui", "latitude": 33.4658914, "longitude": -112.0056629, "address": "3516 E McDowell Rd", "city": "Phoenix", "state": "AZ", "stars": 4.5, "review_count": 19, "is_open": 0}, "zidkKI_N1OPxsiddTOQH_Q": {"name": "Naked BBQ", "latitude": 33.6408095, "longitude": -112.1113381, "address": "2340 W Bell Rd, Ste 130", "city": "Phoenix", "state": "AZ", "stars": 4.5, "review_count": 457, "is_open": 1}, "G_mqw9nNYDFkwtCe5Jd8QA": {"name": "Tacos Kissi", "latitude": 33.5243184155, "longitude": -112.1179967746, "address": "2720 W Bethany Home", "city": "Phoenix", "state": "AZ", "stars": 4.5, "review_count": 268, "is_open": 1}, "kBJfBVaXJtPEKLTov1hJdQ": {"name": "Reathrey Sekong", "latitude": 33.4948878, "longitude": -112.0535765, "address": "1312 E Indian School Rd", "city": "Phoenix", "state": "AZ", "stars": 4.5, "review_count": 513, "is_open": 1}, "JXhi6GuB6wqBfw2Tc7ohvw": {"name": "Golden Thai Kitchen", "latitude": 33.4679027715, "longitude": -112.2213678798, "address": "1820 N 75th Ave, Ste 110", "city": "Phoenix", "state": "AZ", "stars": 4.5, "review_count": 152, "is_open": 1}, "ZCzey5aPhd7jYIoHsUfjmQ": {"name": "The Clever Koi", "latitude": 33.497502, "longitude": -112.0740325, "address": "4236 N Central Ave, Ste 100", "city": "Phoenix", "state": "AZ", "stars": 4.5, "review_count": 1221, "is_open": 1}, "kplbTXzOaUJqP2BwanoYjw": {"name": "Dino's Ristorante", "latitude": 33.630768475, "longitude": -112.0312417299, "address": "15842 N Cave Creek Rd", "city": "Phoenix", "state": "AZ", "stars": 4.5, "review_count": 36, "is_open": 0}, "osJfovV0FGBDo4n7eD4-AQ": {"name": "Sammiches Bistro", "latitude": 33.626378, "longitude": -112.1002165, "address": "15414 N 19th Ave, Ste C", "city": "Phoenix", "state": "AZ", "stars": 4.5, "review_count": 216, "is_open": 0}, "_287i8ZeEf0H1LiqPhyvBg": {"name": "Yi's Chinese Restaurant", "latitude": 33.6409957, "longitude": -112.0922881, "address": "1512 W Bell Rd, Ste 7", "city": "Phoenix", "state": "AZ", "stars": 4.5, "review_count": 151, "is_open": 1}, "ec9mv9cUMObXqyh3yjgIbA": {"name": "Walrus & The Pearl", "latitude": 33.458382, "longitude": -112.073555, "address": "915 N Central Ave", "city": "Phoenix", "state": "AZ", "stars": 4.5, "review_count": 67, "is_open": 0}, "AMeoWQtfv7LXvv8AMqL9Fw": {"name": "Lychee Kitchen", "latitude": 33.698647, "longitude": -112.1006129734, "address": "23450 N 19th Ave, Ste 103", "city": "Phoenix", "state": "AZ", "stars": 4.5, "review_count": 95, "is_open": 1}, "eNcYNWN1e5zgIwxebVV6PA": {"name": "MJ's BBQ - Chicken & Fish", "latitude": 33.4474046927, "longitude": -112.0288648094, "address": "2426 E Jefferson St", "city": "Phoenix", "state": "AZ", "stars": 4.5, "review_count": 78, "is_open": 0}, "Xdzd_3-eh0sxCZOXGhEWkw": {"name": "Arroy Thai", "latitude": 33.3212152, "longitude": -111.9795485, "address": "4810 E Ray Rd, Ste A-1", "city": "Phoenix", "state": "AZ", "stars": 4.5, "review_count": 188, "is_open": 0}, "CqsJjzullOVp29m0l__k5Q": {"name": "Thai Long-An", "latitude": 33.5019465832, "longitude": -112.0821349695, "address": "4447 N 7th Ave", "city": "Phoenix", "state": "AZ", "stars": 4.5, "review_count": 198, "is_open": 1}, "Hv_F1yErD0slkYCI1V9SPw": {"name": "Rita's Italian Ice", "latitude": 33.4952900055, "longitude": -111.979879816, "address": "4730 E Indian School Rd, Ste 113", "city": "Phoenix", "state": "AZ", "stars": 4.5, "review_count": 71, "is_open": 1}, "E_DXCeVllZtHV93hsAIZvw": {"name": "Tacos Sahuaro", "latitude": 33.4738447, "longitude": -112.0131943, "address": "2320 N 32nd St", "city": "Phoenix", "state": "AZ", "stars": 4.5, "review_count": 325, "is_open": 1}, "StzNuzqg25fLRWIzvpwaJA": {"name": "McKenzie's Midtown Tavern", "latitude": 33.5027088, "longitude": -112.064637, "address": "4531 N 7th St", "city": "Phoenix", "state": "AZ", "stars": 4.5, "review_count": 86, "is_open": 1}, "4aF5GfnVkJPj9IwJ2yxPtQ": {"name": "The Tamale Store", "latitude": 33.6308566, "longitude": -112.0313822, "address": "15842 N Cave Creek Rd", "city": "Phoenix", "state": "AZ", "stars": 4.5, "review_count": 302, "is_open": 1}, "0V18KwdtfsdrIu9xyO4GLg": {"name": "Thai Delight", "latitude": 33.3045643515, "longitude": -111.9821897439, "address": "4645 E Chandler Blvd, Ste 106", "city": "Phoenix", "state": "AZ", "stars": 4.5, "review_count": 276, "is_open": 1}, "VoTi4yVhTVyFdmxUpoyUsg": {"name": "Sonora Mesquite Grill", "latitude": 33.480203, "longitude": -111.9825532, "address": "4613 E Thomas Rd", "city": "Phoenix", "state": "AZ", "stars": 4.5, "review_count": 165, "is_open": 0}, "IrmJ-Ah6Jhr3fApoZtA_Nw": {"name": "The Coffee Conspiracy", "latitude": 33.449188, "longitude": -112.0772, "address": "Conspire, 901 N 5th St", "city": "Phoenix", "state": "AZ", "stars": 4.5, "review_count": 18, "is_open": 0}, "GQxpWDw3MuCwAMV9BA-62w": {"name": "Gyro House", "latitude": 33.5839175, "longitude": -112.0141794, "address": "10652 N 32nd St", "city": "Phoenix", "state": "AZ", "stars": 4.5, "review_count": 124, "is_open": 0}, "6aDfalYZOkWzwtVRA2wYaA": {"name": "Z-Grill", "latitude": 33.466978, "longitude": -111.9959254, "address": "Zam Zam Whole Foods, 1638 N 40th St", "city": "Phoenix", "state": "AZ", "stars": 4.5, "review_count": 20, "is_open": 0}, "VJVEDDJKccmrW1fhJCWmsQ": {"name": "Taqueria La Hacienda", "latitude": 33.437162, "longitude": -112.070483, "address": "254 E Buckeye Rd", "city": "Phoenix", "state": "AZ", "stars": 4.5, "review_count": 104, "is_open": 1}, "E3qxMkbKxQR6Aca36c53GA": {"name": "Helpings Cafe, Market and Catering", "latitude": 33.4508289, "longitude": -112.0094532, "address": "3333 E Van Buren St", "city": "Phoenix", "state": "AZ", "stars": 4.5, "review_count": 53, "is_open": 1}, "FdrZJQL_FYKqR96L05gzcg": {"name": "New Orleans Sno Ball", "latitude": 33.5221451, "longitude": -112.0649741, "address": "5809 N 7th St", "city": "Phoenix", "state": "AZ", "stars": 4.5, "review_count": 56, "is_open": 0}, "MeSrAvgBNWHP2Js2--b6zw": {"name": "El Cafezito", "latitude": 33.4955059, "longitude": -112.2221483, "address": "7540 W Indian School Rd, Ste A4", "city": "Phoenix", "state": "AZ", "stars": 4.5, "review_count": 88, "is_open": 1}, "n2tiSHECXkFv47aIkxvSDA": {"name": "Greektown", "latitude": 33.5617148, "longitude": -112.0649024, "address": "8519 N 7th St", "city": "Phoenix", "state": "AZ", "stars": 4.5, "review_count": 375, "is_open": 1}, "PxTKXsdYqoFHWAG2amz0XQ": {"name": "Nook Kitchen", "latitude": 33.4500922, "longitude": -112.0735794, "address": "15 E Monroe St", "city": "Phoenix", "state": "AZ", "stars": 4.5, "review_count": 354, "is_open": 1}, "YBIhTjmEH3IEZW4Dr5ReRA": {"name": "Wong's Chinese Cuisine", "latitude": 33.4942321105, "longitude": -112.288113428, "address": "10540 W Indian School Rd, Ste 4", "city": "Phoenix", "state": "AZ", "stars": 4.5, "review_count": 380, "is_open": 1}, "4bfKtdnkkhq8qA21sjVXlg": {"name": "Habanero Fresh Mexican Grill", "latitude": 33.683216, "longitude": -112.083836, "address": "701 W Deer Valley Rd", "city": "Phoenix", "state": "AZ", "stars": 4.5, "review_count": 112, "is_open": 1}, "eQtknHB0KrfO1bff68ZWtw": {"name": "The Larry", "latitude": 33.4399843, "longitude": -112.066826, "address": "515 E Grant St", "city": "Phoenix", "state": "AZ", "stars": 4.5, "review_count": 69, "is_open": 1}, "1YBpnyR_VlJNjrUzNVXYDQ": {"name": "Mr Submarine", "latitude": 33.4876081937, "longitude": -112.0301229134, "address": "3306 N 24th St", "city": "Phoenix", "state": "AZ", "stars": 4.5, "review_count": 20, "is_open": 1}, "9o-DUVGYaoKkqnCP5BT_NA": {"name": "Mi Pueblo Mexican Food", "latitude": 33.6560951, "longitude": -112.0646835, "address": "710 E Union Hills Dr, Ste 16-A", "city": "Phoenix", "state": "AZ", "stars": 4.5, "review_count": 240, "is_open": 1}, "suKUa4POLciD5VfoR2wzGQ": {"name": "Ruta 15 Mexican Grill", "latitude": 33.4659056, "longitude": -111.9893287, "address": "4310 E McDowell, Ste 1", "city": "Phoenix", "state": "AZ", "stars": 4.5, "review_count": 37, "is_open": 1}, "9SaFi9c_imgP8LqeJC1YEA": {"name": "Carouns Restaurant", "latitude": 33.6532417, "longitude": -112.0983571, "address": "18425 N 19th Ave", "city": "Phoenix", "state": "AZ", "stars": 4.5, "review_count": 34, "is_open": 1}, "mss-LiOfL1vtoNo3WoEoJw": {"name": "Kiss Pollos Estilo Sinaloa", "latitude": 33.4361690201, "longitude": -112.0775882558, "address": "306 W Yavapai St", "city": "Phoenix", "state": "AZ", "stars": 5.0, "review_count": 234, "is_open": 1}, "zc1sur_MxkKkD6P8gYXQbg": {"name": "Kay's Kafe", "latitude": 33.4168466048, "longitude": -112.1504557299, "address": "3401 S 43rd Ave", "city": "Phoenix", "state": "AZ", "stars": 4.5, "review_count": 134, "is_open": 1}, "X1-AbThDu9tmijcGnsi8Ug": {"name": "Binkley's Restaurant", "latitude": 33.4878196716, "longitude": -112.0312957764, "address": "2320 E Osborn Rd", "city": "Phoenix", "state": "AZ", "stars": 5.0, "review_count": 79, "is_open": 1}, "WpzRURptZ2FIxBmJMl4MXA": {"name": "KamanaWana Hawaiian Treats", "latitude": 33.6120371499, "longitude": -112.0991789711, "address": "13825 N 19th Ave", "city": "Phoenix", "state": "AZ", "stars": 4.5, "review_count": 251, "is_open": 1}, "75vRgse6O3P4GL_vi3Xr9Q": {"name": "Taqueria Los Yaquis", "latitude": 33.5089602511, "longitude": -112.083414397, "address": "727 W Camelback Rd", "city": "Phoenix", "state": "AZ", "stars": 4.5, "review_count": 252, "is_open": 0}, "CmnezL_cKtzlgE3AWkgSwQ": {"name": "Pork on a Fork Catering", "latitude": 33.6412559, "longitude": -112.0969133, "address": "1732 W Bell Rd", "city": "Phoenix", "state": "AZ", "stars": 5.0, "review_count": 21, "is_open": 1}, "S-oLPRdhlyL5HAknBKTUcQ": {"name": "Harumi Sushi", "latitude": 33.449749181, "longitude": -112.0753309742, "address": "114 W Adams St, Ste C101", "city": "Phoenix", "state": "AZ", "stars": 4.5, "review_count": 1342, "is_open": 1}, "MZkP-I91Df4XgmVelGBGng": {"name": "Fillmore Coffee", "latitude": 33.454661, "longitude": -112.068853, "address": "600 N 4th St", "city": "Phoenix", "state": "AZ", "stars": 4.5, "review_count": 185, "is_open": 1}, "SC4J9kQJ5-bYjXCTVxHXzA": {"name": "The Sub Shop", "latitude": 33.42182, "longitude": -112.0315219, "address": "2810 S 24th St", "city": "Phoenix", "state": "AZ", "stars": 4.5, "review_count": 38, "is_open": 1}, "BJRZ_7NSFU7xSrUQh1dVdQ": {"name": "Cha Cha's Tea", "latitude": 33.457255, "longitude": -112.0901609, "address": "1325 Grand Ave, Ste 3", "city": "Phoenix", "state": "AZ", "stars": 5.0, "review_count": 70, "is_open": 1}, "Auky7_gMsUdB91V0EAgbhA": {"name": "Mejico Cocina Mejicana", "latitude": 33.4872924, "longitude": -112.0308358, "address": "2333 E Osborn Rd", "city": "Phoenix", "state": "AZ", "stars": 4.5, "review_count": 126, "is_open": 0}, "F6rZDgYtqfjs9sQC6bv81w": {"name": "Gluten Free Creations Bakery", "latitude": 33.4808928, "longitude": -112.0177308, "address": "2940 E Thomas Rd", "city": "Phoenix", "state": "AZ", "stars": 4.5, "review_count": 30, "is_open": 0}, "Cp-clhAJs3NJRwXpXk_saw": {"name": "The Whining Pig-Phoenix", "latitude": 33.523744, "longitude": -112.0467307, "address": "1612 E Bethany Home Rd", "city": "Phoenix", "state": "AZ", "stars": 4.5, "review_count": 403, "is_open": 1}, "SxqNnm4piAlFNNiBaXM0kg": {"name": "Dilla Libre Uno", "latitude": 33.5527841, "longitude": -112.0532028, "address": "1339 E Northern Ave", "city": "Phoenix", "state": "AZ", "stars": 4.5, "review_count": 194, "is_open": 1}, "u-SJ5QUwrNquL9VnXwl8cg": {"name": "Postino Arcadia", "latitude": 33.5021572, "longitude": -111.9963105, "address": "3939 E Campbell Ave", "city": "Phoenix", "state": "AZ", "stars": 4.5, "review_count": 1307, "is_open": 1}, "kzKoDFhpHeExqGHH5wlA7g": {"name": "Stanley's Home Made Sausage Company - Westside", "latitude": 33.6407809, "longitude": -112.0962906, "address": "1712 W Bell Rd", "city": "Phoenix", "state": "AZ", "stars": 4.5, "review_count": 52, "is_open": 1}, "GjT8ZitwOVdP2ttJIam-ug": {"name": "Vegan House", "latitude": 33.449498, "longitude": -112.0744168, "address": "20 W Adams St", "city": "Phoenix", "state": "AZ", "stars": 4.5, "review_count": 323, "is_open": 1}, "--g-a85VwrdZJNf0R95GcQ": {"name": "Kabab House", "latitude": 33.6412984, "longitude": -112.0063922, "address": "3510 E Bell Rd, Ste 3", "city": "Phoenix", "state": "AZ", "stars": 4.5, "review_count": 22, "is_open": 0}, "h-bBnFFTZ2cNiuBMFu2UaQ": {"name": "Tommy's Place", "latitude": 33.6402141, "longitude": -112.0210245, "address": "2827 E Bell Rd", "city": "Phoenix", "state": "AZ", "stars": 4.5, "review_count": 460, "is_open": 1}, "cvu61K0_g7ZIpaEPCiaNcA": {"name": "Seoul BBQ & Sushi", "latitude": 33.587091, "longitude": -112.115786, "address": "11025 N Black Canyon Hwy", "city": "Phoenix", "state": "AZ", "stars": 4.5, "review_count": 382, "is_open": 1}, "JQYkVnUzS5vgFxZgCuW7ag": {"name": "Thai E-San", "latitude": 33.4951554, "longitude": -112.0822129, "address": "616 W Indian School Rd", "city": "Phoenix", "state": "AZ", "stars": 4.5, "review_count": 688, "is_open": 1}, "OrZqdidKeZVHic9Ef8omHA": {"name": "La Marquesa", "latitude": 33.4655562, "longitude": -112.0405343, "address": "1915 E McDowell Rd", "city": "Phoenix", "state": "AZ", "stars": 4.5, "review_count": 38, "is_open": 1}, "a4L-Fy0agN3RNM7O49bIHA": {"name": "CRUjiente Tacos", "latitude": 33.5089963, "longitude": -111.99574, "address": "3961 E Camelback Rd", "city": "Phoenix", "state": "AZ", "stars": 4.5, "review_count": 319, "is_open": 1}, "2bbz-vF5bEbmPU52OPIWKw": {"name": "Tacos y Mariscos El Sinaloa", "latitude": 33.4529980234, "longitude": -112.0481034638, "address": "410 N 16th St", "city": "Phoenix", "state": "AZ", "stars": 5.0, "review_count": 20, "is_open": 1}, "FFpobLkaQkoZAv6xIKI25g": {"name": "Dos Gordos", "latitude": 33.3790137, "longitude": -112.135104, "address": "3552 W Baseline Rd, Ste 144", "city": "Phoenix", "state": "AZ", "stars": 4.5, "review_count": 43, "is_open": 1}, "T-KniGykrZ46ZC9plOTspw": {"name": "PHX Burrito House", "latitude": 33.4963856007, "longitude": -112.0839831856, "address": "4140 N 7th Ave", "city": "Phoenix", "state": "AZ", "stars": 4.5, "review_count": 676, "is_open": 1}, "GGbo2tJk2yQuPxO5aWG3rg": {"name": "Brooklyn Mike's subs", "latitude": 33.4736022, "longitude": -111.9862264, "address": "2303 N 44th St, Ste 16", "city": "Phoenix", "state": "AZ", "stars": 4.5, "review_count": 58, "is_open": 1}, "E7XMQjuNhU2v31JMwHDciA": {"name": "Europa Pastry Cafe", "latitude": 33.5318417, "longitude": -112.0479816, "address": "6522 N 16th St", "city": "Phoenix", "state": "AZ", "stars": 4.5, "review_count": 36, "is_open": 0}, "X-ZAD3eMkThGL9hrKdQooQ": {"name": "Papa Joe's Fish-N-Que", "latitude": 33.5236705, "longitude": -112.1025545, "address": "2019 W Bethany Home Rd", "city": "Phoenix", "state": "AZ", "stars": 4.5, "review_count": 285, "is_open": 1}, "Z0PvhaSGgR5NsoXctsUa5A": {"name": "Kaleidoscope Juice", "latitude": 33.495495, "longitude": -111.9995476, "address": "3802 E Indian School Rd", "city": "Phoenix", "state": "AZ", "stars": 4.5, "review_count": 53, "is_open": 1}, "len2nrEtgD9bjnoYSyLPjA": {"name": "Saba's Mediterranean Kitchen", "latitude": 33.639783, "longitude": -111.97826, "address": "4747 E Bell Rd", "city": "Phoenix", "state": "AZ", "stars": 4.5, "review_count": 507, "is_open": 1}, "w1S46TdjMdQj-zCZoXPd4Q": {"name": "Wally's American Pub N Grill", "latitude": 33.5104882, "longitude": -111.9861795, "address": "5029 N 44th St", "city": "Phoenix", "state": "AZ", "stars": 4.5, "review_count": 211, "is_open": 1}, "WZVnmFXoE42coc4FmcbEDQ": {"name": "My Gal Sal Bakery & Cafe", "latitude": 33.6294936, "longitude": -112.1343102, "address": "15820 N 35th Ave", "city": "Phoenix", "state": "AZ", "stars": 5.0, "review_count": 100, "is_open": 1}, "ksZfCKQHYdCu0e8KbMuBDg": {"name": "Olives Mediterranean Grill", "latitude": 33.5993478, "longitude": -111.9835952, "address": "4575 E Cactus Rd, Ste 140", "city": "Phoenix", "state": "AZ", "stars": 4.5, "review_count": 181, "is_open": 1}, "Z0ojefRCqnvVLdNUjSYA1g": {"name": "Green Chile Grill", "latitude": 33.6782379, "longitude": -112.1012912, "address": "", "city": "Phoenix", "state": "AZ", "stars": 4.5, "review_count": 27, "is_open": 1}, "CNRXPwmj5EvSNdXnOXcpJg": {"name": "Desert Swirl Frozen Yogurt", "latitude": 33.610178, "longitude": -112.1508843902, "address": "4273 W Thunderbird Rd", "city": "Phoenix", "state": "AZ", "stars": 4.5, "review_count": 91, "is_open": 1}, "AkpuhGyLAxhD_sLMQv3kOg": {"name": "Kai", "latitude": 33.2678103, "longitude": -111.9784795, "address": "5594 W Wild Horse Pass Blvd", "city": "Phoenix", "state": "AZ", "stars": 4.5, "review_count": 265, "is_open": 1}, "RLz9j9QASwaPXFM0i3kSHQ": {"name": "Jimmy's Hot Dogs", "latitude": 33.4078458, "longitude": -111.9936686, "address": "4022 E Broadway Rd, Ste 101", "city": "Phoenix", "state": "AZ", "stars": 4.5, "review_count": 107, "is_open": 1}, "LV63vo4iBHIo7gjiz-Oqgg": {"name": "Pozoleria Mexican Food", "latitude": 33.4508835, "longitude": -112.0210424, "address": "2801 E Van Buren St", "city": "Phoenix", "state": "AZ", "stars": 4.5, "review_count": 65, "is_open": 1}, "kYATtIsqVEoawS47UcSlDA": {"name": "Truckin' Good Food", "latitude": 33.5690679813, "longitude": -111.8901574017, "address": "", "city": "Phoenix", "state": "AZ", "stars": 4.5, "review_count": 28, "is_open": 0}, "3aKmNE2coy5YLBCIu676og": {"name": "Love Cuisine", "latitude": 33.5091503, "longitude": -112.1372596, "address": "3633 W Camelback Rd, Ste 7", "city": "Phoenix", "state": "AZ", "stars": 4.5, "review_count": 89, "is_open": 0}, "SvlTuwslYKdqvqWtDe2dgA": {"name": "Aioli Gourmet Burgers", "latitude": 33.583922, "longitude": -112.0141794, "address": "10652 N 32nd St", "city": "Phoenix", "state": "AZ", "stars": 4.5, "review_count": 339, "is_open": 1}, "XB5_UKDqkZqpD_nZSIASvw": {"name": "Across The Pond", "latitude": 33.4975038, "longitude": -112.0740325, "address": "4236 N Central Ave, Ste 101", "city": "Phoenix", "state": "AZ", "stars": 4.5, "review_count": 39, "is_open": 1}, "XmxRXzCFkzQK23kkHgUgLA": {"name": "Wink 24", "latitude": 33.510564, "longitude": -112.026669, "address": "2502 E Camelback Rd, Ste 148 A & B", "city": "Phoenix", "state": "AZ", "stars": 4.5, "review_count": 168, "is_open": 0}, "JSNc3GdNH3LpE3HdTQl17w": {"name": "True Brew Coffee", "latitude": 33.64215, "longitude": -112.047752, "address": "1606 E Bell Rd, Ste 108A", "city": "Phoenix", "state": "AZ", "stars": 4.5, "review_count": 96, "is_open": 0}, "b5bkY8fj3Q8LL2jdMFDUBg": {"name": "Bikini Beans Coffee", "latitude": 33.474409, "longitude": -112.065492, "address": "2330 N 7th St", "city": "Phoenix", "state": "AZ", "stars": 4.5, "review_count": 120, "is_open": 1}, "B1TlRyjCW3Ygkp95MACffA": {"name": "Que Huong Restaurant", "latitude": 33.4884076, "longitude": -112.10022, "address": "3424 N 19th Ave, Ste 8", "city": "Phoenix", "state": "AZ", "stars": 4.5, "review_count": 22, "is_open": 1}, "WiqmuzPxWGiWDPxdSuVCXw": {"name": "crunch50", "latitude": 33.6068351, "longitude": -112.0656855, "address": "13240 N 7th St", "city": "Phoenix", "state": "AZ", "stars": 4.5, "review_count": 23, "is_open": 0}, "GmLkyWb_zYrTEp1SpWxHIA": {"name": "Julia Baker Confections", "latitude": 33.5082687981, "longitude": -112.0317156455, "address": "Biltmore Fashion Park, 2502 E Camelback, Ste 130", "city": "Phoenix", "state": "AZ", "stars": 4.5, "review_count": 71, "is_open": 0}, "EsJ_iCNSHu_8N--XsK9Rjg": {"name": "Raspados Solaris", "latitude": 33.570089, "longitude": -112.0656616, "address": "9204 N 7th St, Unit 6", "city": "Phoenix", "state": "AZ", "stars": 5.0, "review_count": 65, "is_open": 1}, "JrEMvvNR1rUVkAMvPPZYkg": {"name": "Danky's Bar-B-Q", "latitude": 33.6384005, "longitude": -111.9795246, "address": "4727 E Bell Rd, Ste 31", "city": "Phoenix", "state": "AZ", "stars": 4.5, "review_count": 442, "is_open": 1}, "M18hT6GFwcU7nPLPEwab2A": {"name": "56th St Deli & Market", "latitude": 33.4888232, "longitude": -111.959853, "address": "5619 E Indian School Rd", "city": "Phoenix", "state": "AZ", "stars": 4.5, "review_count": 30, "is_open": 1}, "1_1tBodx57a2r1zvD0pQMw": {"name": "The Sicilian Baker", "latitude": 33.6272473, "longitude": -111.9784718, "address": "15530 N Tatum Blvd, Ste 140", "city": "Phoenix", "state": "AZ", "stars": 4.5, "review_count": 115, "is_open": 1}, "LR1JNvpNrx2N4HNAyhHvrg": {"name": "The Little Woody", "latitude": 33.4951657676, "longitude": -111.9898844138, "address": "4228 E Indian School Rd", "city": "Phoenix", "state": "AZ", "stars": 4.5, "review_count": 237, "is_open": 1}, "GLVahCssTKPBY_06LzUGQA": {"name": "Rainbow Donuts Cafe and Deli", "latitude": 33.611676987, "longitude": -111.9984461607, "address": "3831 E Thunderbird Rd, Ste 1", "city": "Phoenix", "state": "AZ", "stars": 4.5, "review_count": 155, "is_open": 1}, "DW5TmdNGhepqrB0JGHnJ_A": {"name": "Bragg's Factory Diner", "latitude": 33.4572256, "longitude": -112.0898341, "address": "1301 NW Grand Ave", "city": "Phoenix", "state": "AZ", "stars": 4.5, "review_count": 208, "is_open": 0}, "ZqNuleQMaEBYjAPVeaKrug": {"name": "El Jacal Mexican Restaurant", "latitude": 33.4796198, "longitude": -112.0134039, "address": "2822 N 32nd St", "city": "Phoenix", "state": "AZ", "stars": 4.5, "review_count": 49, "is_open": 1}, "_1dS8bRrhN8hoCn58vmoHg": {"name": "Press Coffee - Biltmore Center", "latitude": 33.509869, "longitude": -112.031869, "address": "2390 E Camelback Rd", "city": "Phoenix", "state": "AZ", "stars": 4.5, "review_count": 56, "is_open": 1}, "CV0knwCFA-x-8jJHot6Few": {"name": "Good Fellas Grill", "latitude": 33.6259032, "longitude": -112.1001269, "address": "15414 N 19th Ave", "city": "Phoenix", "state": "AZ", "stars": 4.5, "review_count": 431, "is_open": 1}, "5oDq-41R4lvbHRC0IkkEtA": {"name": "Three Bowls and a Burro", "latitude": 33.6540765934, "longitude": -112.0665004503, "address": "18440 N 7th St", "city": "Phoenix", "state": "AZ", "stars": 4.5, "review_count": 46, "is_open": 1}, "OkqWYzkPYcBrsvjiCJQjWw": {"name": "La Parilla Villa Catering", "latitude": 33.5090913, "longitude": -112.0837831, "address": "727 W Camelback Rd", "city": "Phoenix", "state": "AZ", "stars": 5.0, "review_count": 19, "is_open": 0}, "ckJXV05NfciL2S1aHAleaA": {"name": "Wildflower - Crown", "latitude": 33.522359, "longitude": -112.0645588, "address": "5813 N 7th St, Ste 130", "city": "Phoenix", "state": "AZ", "stars": 4.5, "review_count": 73, "is_open": 1}, "xzlJ6hhfDSEF0d6ebSKRAg": {"name": "Flyin' Hawaiian", "latitude": 33.563442, "longitude": -112.0893682, "address": "808 St", "city": "Phoenix", "state": "AZ", "stars": 4.5, "review_count": 21, "is_open": 1}, "SJbXs2aVMhFawgjCcbH8aQ": {"name": "KOVO Modern Mediterranean", "latitude": 33.5834399, "longitude": -111.9768301, "address": "10625 N Tatum Blvd, Ste 150", "city": "Phoenix", "state": "AZ", "stars": 4.5, "review_count": 196, "is_open": 1}, "42_t0Xt1jothP3uccQrX0w": {"name": "Pane Bianco - Van Buren", "latitude": 33.451067, "longitude": -112.0495208, "address": "1505 E Van Buren St", "city": "Phoenix", "state": "AZ", "stars": 4.5, "review_count": 27, "is_open": 1}, "TdupOOzuT917Ps3g6X2GTA": {"name": "AZ Chimney Cakes", "latitude": 33.601524, "longitude": -111.984878, "address": "4568 E Cactus Rd, Ste 234", "city": "Phoenix", "state": "AZ", "stars": 5.0, "review_count": 46, "is_open": 1}, "KmlHgbdAXJ2OE5wV1vwVEw": {"name": "T\u016aK Urban Kaf\u00e9", "latitude": 33.3030628, "longitude": -111.9745428, "address": "15815 S 50th St", "city": "Phoenix", "state": "AZ", "stars": 4.5, "review_count": 74, "is_open": 1}, "ryozSJKdiwD_knRFasIyhA": {"name": "Cheba Hut Toasted Subs", "latitude": 33.317436, "longitude": -111.977688, "address": "4905 E Ray Rd", "city": "Phoenix", "state": "AZ", "stars": 4.5, "review_count": 103, "is_open": 1}, "VtKYA6Fu1jTDrEhDHRlUvg": {"name": "Maskadores Taco shop", "latitude": 33.576095, "longitude": -112.0659411, "address": "9822 N 7th St, Ste 7", "city": "Phoenix", "state": "AZ", "stars": 4.5, "review_count": 117, "is_open": 1}, "FcEpsffXdHAr7_D8V5kCGw": {"name": "Luu's Chicken Bowl", "latitude": 33.5849779664, "longitude": -112.0134564677, "address": "10876 N 32nd St", "city": "Phoenix", "state": "AZ", "stars": 4.5, "review_count": 58, "is_open": 0}, "-0aIra_B6iALlfqAriBSYA": {"name": "Tea2go", "latitude": 33.6754894, "longitude": -111.9649133, "address": "5415 E High St, Ste 103", "city": "Phoenix", "state": "AZ", "stars": 4.5, "review_count": 32, "is_open": 0}, "Veb_YSP2PL3xGbu9JJVuOA": {"name": "Casa De Don Pancho", "latitude": 33.5413162243, "longitude": -112.1348951994, "address": "7124 N 35th Ave", "city": "Phoenix", "state": "AZ", "stars": 4.5, "review_count": 69, "is_open": 1}, "QMI6A2H1N3SwKU69SiASJA": {"name": "Couscous Express", "latitude": 33.4656279532, "longitude": -112.0409429446, "address": "1915 E McDowell Rd", "city": "Phoenix", "state": "AZ", "stars": 4.5, "review_count": 145, "is_open": 0}, "UDucqwO8PwUOwcmUsJ-gOA": {"name": "Asadero Norte De Sonora", "latitude": 33.4500202, "longitude": -112.0479398, "address": "122 N 16th St", "city": "Phoenix", "state": "AZ", "stars": 4.5, "review_count": 131, "is_open": 1}, "UNtyzcZySio-7DphgQu2cw": {"name": "CJ's Talley's Pub", "latitude": 33.5378509, "longitude": -112.0551356, "address": "1219 E Glendale", "city": "Phoenix", "state": "AZ", "stars": 4.5, "review_count": 68, "is_open": 1}, "1E1Qp9HWSZmqruir3sTeKw": {"name": "The Greek Pita", "latitude": 33.609811, "longitude": -112.119194, "address": "2737 W Thunderbird Rd, Ste 108", "city": "Phoenix", "state": "AZ", "stars": 4.5, "review_count": 167, "is_open": 1}, "7cK9uEV09iPmsTqOqmY3kQ": {"name": "La Grande Orange Pizzeria", "latitude": 33.5020532515, "longitude": -111.9957802209, "address": "4410 N 40th St", "city": "Phoenix", "state": "AZ", "stars": 4.5, "review_count": 850, "is_open": 1}, "V9i_QTpg2QG0s2Pol0-b2Q": {"name": "Berry Divine Acai Bowls", "latitude": 33.4790124, "longitude": -112.0479886, "address": "2816 N 16th St", "city": "Phoenix", "state": "AZ", "stars": 4.5, "review_count": 26, "is_open": 1}, "QxoEkFbKsmpPrzPpWGfJgg": {"name": "Lucky Donuts", "latitude": 33.611213, "longitude": -112.110114, "address": "2510 W Thunderbird Rd, Ste 1", "city": "Phoenix", "state": "AZ", "stars": 4.5, "review_count": 133, "is_open": 1}, "KtByU3UDMR19himevLdzqg": {"name": "Treehouse Bakery", "latitude": 33.4462721, "longitude": -112.0893682, "address": "", "city": "Phoenix", "state": "AZ", "stars": 4.5, "review_count": 175, "is_open": 0}, "UmfpoTxp4QdgQvswf8YxXw": {"name": "El Caprichoso Hot Dogs Estilo Sonora", "latitude": 33.479886, "longitude": -112.134721, "address": "2826 N 35th Ave", "city": "Phoenix", "state": "AZ", "stars": 4.5, "review_count": 38, "is_open": 1}, "EgwGTDZ705TwudPJwAY0yQ": {"name": "Bell' Italia Pizzeria", "latitude": 33.30394, "longitude": -111.9782764923, "address": "4909 E Chandler Blvd, Ste 506", "city": "Phoenix", "state": "AZ", "stars": 4.5, "review_count": 167, "is_open": 1}, "3U__XOTBFptjhBeHrPGqrg": {"name": "George's Kitchen", "latitude": 33.5256394, "longitude": -112.0483357, "address": "6102 N 16th St", "city": "Phoenix", "state": "AZ", "stars": 4.5, "review_count": 228, "is_open": 1}, "c79drEBxcX3LsiK6AFgGew": {"name": "Castillon Family Mexican Restaurant", "latitude": 33.6413010557, "longitude": -112.0066810772, "address": "3510 E Bell Rd, Ste 3", "city": "Phoenix", "state": "AZ", "stars": 4.5, "review_count": 19, "is_open": 0}, "NgDyxaeItFSInv7J5paGLQ": {"name": "The Kettle Black Kitchen & Pub", "latitude": 33.448727, "longitude": -112.07236, "address": "1 N 1st St, Ste 108", "city": "Phoenix", "state": "AZ", "stars": 4.5, "review_count": 863, "is_open": 1}, "E4JyAzB5_2quptwtemyhYA": {"name": "Original Breakfast House", "latitude": 33.6108041847, "longitude": -112.0128359656, "address": "13623 N 32nd St", "city": "Phoenix", "state": "AZ", "stars": 4.5, "review_count": 1729, "is_open": 1}, "8kMq3UEGOTlOI-lmClK1Qw": {"name": "Ethiopian Famous Restaurant & Coffee", "latitude": 33.4653292, "longitude": -111.9925464, "address": "4111 E McDowell Rd, Ste 1", "city": "Phoenix", "state": "AZ", "stars": 4.5, "review_count": 31, "is_open": 0}, "Qb1amWCBTeBQQzQyrkyNAg": {"name": "Middle Eastern Bakery & Deli", "latitude": 33.4835581, "longitude": -112.0479525, "address": "3052 N 16th St", "city": "Phoenix", "state": "AZ", "stars": 4.5, "review_count": 383, "is_open": 1}, "fg69aogbeD-GKjmr_4cN4w": {"name": "Eat By Stacey Weber", "latitude": 33.5831802, "longitude": -111.9786115, "address": "4740 E Shea Blvd, Ste 109", "city": "Phoenix", "state": "AZ", "stars": 4.5, "review_count": 75, "is_open": 1}, "kQbo5EmBXphXfLFddMqsug": {"name": "The Courtyard Cafe at Heard Museum", "latitude": 33.4724737, "longitude": -112.0722009, "address": "2301 N Central Ave", "city": "Phoenix", "state": "AZ", "stars": 4.5, "review_count": 39, "is_open": 1}, "yuU0beBIjiacZVSY0tf4LA": {"name": "Authentic Thai Kitchen", "latitude": 33.5021375332, "longitude": -112.0565352961, "address": "4500 N 12th St", "city": "Phoenix", "state": "AZ", "stars": 4.5, "review_count": 138, "is_open": 1}, "ukCTLs6T8LY1eUBXiAlmCg": {"name": "Steak 44", "latitude": 33.5114708111, "longitude": -111.9860756349, "address": "5101 N 44th St", "city": "Phoenix", "state": "AZ", "stars": 4.5, "review_count": 1201, "is_open": 1}, "PJVjfGtVc71M0XlUr83teQ": {"name": "My Pie Pizza", "latitude": 33.6001599, "longitude": -111.9786989, "address": "12601 N Tatum Blvd", "city": "Phoenix", "state": "AZ", "stars": 4.5, "review_count": 372, "is_open": 1}, "W36vefYka0IZAPWygxJtqg": {"name": "Johnnie's Chicago Style Pizza", "latitude": 33.6279892, "longitude": -112.0302644, "address": "15443 N Cave Creek Rd", "city": "Phoenix", "state": "AZ", "stars": 4.5, "review_count": 122, "is_open": 0}, "NBtUS6ihgRMbrk0s8g3RUw": {"name": "Taste of Thai", "latitude": 33.3312427228, "longitude": -111.9782163462, "address": "4855 E Warner Rd, Ste 16", "city": "Phoenix", "state": "AZ", "stars": 4.5, "review_count": 181, "is_open": 1}, "c0exbGNQvCDJZLorPeYY7Q": {"name": "The Refuge Cafe", "latitude": 33.5067002, "longitude": -112.0821724, "address": "4727 N 7th Ave", "city": "Phoenix", "state": "AZ", "stars": 4.5, "review_count": 202, "is_open": 1}, "-Bdw-5H5C4AYSMGnAvmnzw": {"name": "Tuck Shop", "latitude": 33.4728423, "longitude": -112.056137, "address": "2245 N 12th St", "city": "Phoenix", "state": "AZ", "stars": 4.5, "review_count": 668, "is_open": 1}, "uHZDCuzXrgWBKrGP7JVPmA": {"name": "The Bread and Honey House", "latitude": 33.4513874, "longitude": -111.9811274, "address": "4700 E Van Buren St", "city": "Phoenix", "state": "AZ", "stars": 5.0, "review_count": 147, "is_open": 1}, "f1KTr8efZfDUZcxG32kKIw": {"name": "Polish Goodies", "latitude": 33.566447, "longitude": -112.0639383, "address": "8903 N 7th St", "city": "Phoenix", "state": "AZ", "stars": 4.5, "review_count": 35, "is_open": 1}, "R9GAIXv4DcbgZH-eUd_qIw": {"name": "Giving Tree Cafe", "latitude": 33.4704453, "longitude": -112.0657354, "address": "2024 N 7th St, Ste 111", "city": "Phoenix", "state": "AZ", "stars": 5.0, "review_count": 67, "is_open": 1}, "MoxLG0Yk3MhuyuPxhQ-POQ": {"name": "Trans Am PHX", "latitude": 33.4593080601, "longitude": -112.091659829, "address": "1506 N W Grand Ave", "city": "Phoenix", "state": "AZ", "stars": 5.0, "review_count": 20, "is_open": 1}, "d7dklIgsXNOj1hWAKcUvNQ": {"name": "In Perfetto Gelateria", "latitude": 33.4661739, "longitude": -112.0741848, "address": "1616 N Central Ave, Ste 103", "city": "Phoenix", "state": "AZ", "stars": 5.0, "review_count": 35, "is_open": 1}, "vGDhK2Lc4Np5iZYZ7FG0QA": {"name": "Escobar Mexican Kitchen", "latitude": 33.5378928, "longitude": -112.0551005, "address": "1219 E Glendale Ave, Ste 14", "city": "Phoenix", "state": "AZ", "stars": 4.5, "review_count": 129, "is_open": 0}, "GF-Xv-NyAXh-xCC-PJq6Ng": {"name": "Mariscos Chihuahua", "latitude": 33.4947007, "longitude": -112.1537886, "address": "4347 W Indian School Rd", "city": "Phoenix", "state": "AZ", "stars": 4.5, "review_count": 18, "is_open": 0}, "CFyPbqZaxoBTjOmVjSn_8Q": {"name": "Sonora Taco Shop", "latitude": 33.4372597, "longitude": -112.0648, "address": "1009 S 7th St", "city": "Phoenix", "state": "AZ", "stars": 4.5, "review_count": 171, "is_open": 1}, "9VKXdVbyHM5CyGmMffWKnQ": {"name": "The Newton", "latitude": 33.5097699, "longitude": -112.0788401, "address": "300 W Camelback Rd", "city": "Phoenix", "state": "AZ", "stars": 4.5, "review_count": 25, "is_open": 1}, "ogW-9p7lcXQYTPymXy9KXw": {"name": "Songbird Coffee & Tea House", "latitude": 33.4570106, "longitude": -112.0702779, "address": "812 N 3rd St", "city": "Phoenix", "state": "AZ", "stars": 4.5, "review_count": 244, "is_open": 1}, "rjlAUHT8B6KhKAmkZqS1xw": {"name": "Ladera Taverna y Cocina", "latitude": 33.5637904, "longitude": -112.0734862, "address": "8729 N Central Ave", "city": "Phoenix", "state": "AZ", "stars": 4.5, "review_count": 472, "is_open": 1}, "0f5NHsmf7voKaFxjXmvfQQ": {"name": "Taco Boy's", "latitude": 33.4589136, "longitude": -112.0655685, "address": "620 E Roosevelt St", "city": "Phoenix", "state": "AZ", "stars": 5.0, "review_count": 36, "is_open": 1}, "PlTdQdCWu2_hjbSuenB3pg": {"name": "PHO 43", "latitude": 33.4794638, "longitude": -112.1521331, "address": "2844 N 43rd Ave", "city": "Phoenix", "state": "AZ", "stars": 4.5, "review_count": 565, "is_open": 1}, "aPSRMtV2V7MPXi6DU_UlRA": {"name": "Radish", "latitude": 33.4583212411, "longitude": -112.0733099491, "address": "915 N Central Ave", "city": "Phoenix", "state": "AZ", "stars": 4.5, "review_count": 87, "is_open": 0}, "KDh82ODr4adz9ck6ltQ_YQ": {"name": "Tastybox", "latitude": 33.4554106, "longitude": -112.0648466, "address": "621 N 7th St", "city": "Phoenix", "state": "AZ", "stars": 5.0, "review_count": 127, "is_open": 1}, "5pEQwYimyfp5wpeudYNahw": {"name": "El Charro Hipster Bar and Cafe", "latitude": 33.457374, "longitude": -112.090051, "address": "1325 Grand Ave, Ste 4", "city": "Phoenix", "state": "AZ", "stars": 5.0, "review_count": 122, "is_open": 1}, "RztX0zV7ObHZD08SDUhI0Q": {"name": "Spinato's Pizzeria", "latitude": 33.6413465, "longitude": -112.0472623, "address": "1614 E Bell Rd", "city": "Phoenix", "state": "AZ", "stars": 4.5, "review_count": 545, "is_open": 1}, "Ap17p-tA4Ipzy1s35DfCfg": {"name": "Buck & Rider", "latitude": 33.509163, "longitude": -111.9887419, "address": "4225 E Camelback Rd", "city": "Phoenix", "state": "AZ", "stars": 4.5, "review_count": 891, "is_open": 1}, "1JF9TbJ2d5hH8xsQvvklHg": {"name": "Irma's Kitchen", "latitude": 33.4579287, "longitude": -112.0914873, "address": "906 N 15th Ave", "city": "Phoenix", "state": "AZ", "stars": 4.5, "review_count": 290, "is_open": 1}, "IQVka-wzJmN3jw2W70aCzw": {"name": "Michelina's", "latitude": 33.5819174, "longitude": -112.0115409, "address": "3241 E Shea Blvd", "city": "Phoenix", "state": "AZ", "stars": 4.5, "review_count": 143, "is_open": 1}, "_eKvk2GoGKb3CoYolHgRlg": {"name": "Fresko A Mediterranean Kitchen", "latitude": 33.347893, "longitude": -111.9768218, "address": "5033 E Elliot Rd", "city": "Phoenix", "state": "AZ", "stars": 4.5, "review_count": 172, "is_open": 1}, "Przkeh1xJn-xwJWK95ceUw": {"name": "CreAsian Bar & Grill", "latitude": 33.6059575659, "longitude": -112.0662513884, "address": "13216 N 7th St, Ste B", "city": "Phoenix", "state": "AZ", "stars": 4.5, "review_count": 85, "is_open": 0}, "m506zjQ67j0msTfANwB6RA": {"name": "Flower Child", "latitude": 33.5096102531, "longitude": -112.0719529688, "address": "100 E Camelback Rd", "city": "Phoenix", "state": "AZ", "stars": 4.5, "review_count": 471, "is_open": 1}, "DmUH79s03PG_uWJHSzPuBA": {"name": "Azukar Coffee", "latitude": 33.3797922, "longitude": -112.0736504, "address": "7246 S Central Ave", "city": "Phoenix", "state": "AZ", "stars": 5.0, "review_count": 106, "is_open": 1}, "Fr1LlI9nCVBYD5-vc6cWyQ": {"name": "City Tacos", "latitude": 33.6397675699, "longitude": -112.0608349811, "address": "903 E Bell Rd, Ste 105", "city": "Phoenix", "state": "AZ", "stars": 4.5, "review_count": 106, "is_open": 1}, "VXOmtsBy1QnMXY34M6qeMQ": {"name": "DK Dogs", "latitude": 33.5058503, "longitude": -112.0567192, "address": "4700 North 12th St, Ste 122", "city": "Phoenix", "state": "AZ", "stars": 4.5, "review_count": 73, "is_open": 0}, "muzZW1AqlfdWGMND0jf_kw": {"name": "Hilal Grill", "latitude": 33.4669527, "longitude": -111.9959845, "address": "1638 N 40th St", "city": "Phoenix", "state": "AZ", "stars": 4.5, "review_count": 215, "is_open": 1}, "xdD3EXvF_p9WUiwwKpol_w": {"name": "Ten Handcrafted American Fare & Spirits", "latitude": 33.5085550461, "longitude": -112.0271378994, "address": "2501 E Camelback Rd, Ste 40", "city": "Phoenix", "state": "AZ", "stars": 4.5, "review_count": 579, "is_open": 0}, "byWNAuUrvmGTLkbJpXe4iA": {"name": "Bobby Q - Biltmore", "latitude": 33.511345226, "longitude": -112.0136327675, "address": "3154 E Camelback Rd", "city": "Phoenix", "state": "AZ", "stars": 4.5, "review_count": 461, "is_open": 1}, "fSBhe0A6Dfa8JCYccfpMog": {"name": "The Bagel Man", "latitude": 33.3479252192, "longitude": -111.9766594349, "address": "5035 E Elliot Rd", "city": "Phoenix", "state": "AZ", "stars": 4.5, "review_count": 615, "is_open": 1}, "0859wfd1BQHG46Zpwhc0ZQ": {"name": "Oven + Vine", "latitude": 33.474235, "longitude": -112.0746535, "address": "14 W Vernon Ave", "city": "Phoenix", "state": "AZ", "stars": 4.5, "review_count": 298, "is_open": 1}, "HNy2_rt86gfZMCM4qsVvFw": {"name": "Arts All American Cafe", "latitude": 33.4515172, "longitude": -112.0967989, "address": "1724 W Van Buren", "city": "Phoenix", "state": "AZ", "stars": 4.5, "review_count": 30, "is_open": 1}, "sm0stXMEmnR4fjAAVbCYtw": {"name": "Two Hippies Gnarly Burger Joint", "latitude": 33.4799186, "longitude": -111.9942959, "address": "4041 E Thomas Rd, Ste 124", "city": "Phoenix", "state": "AZ", "stars": 4.5, "review_count": 131, "is_open": 0}, "EhplcymNbSX5TvPgGilL7Q": {"name": "Ocean Poke", "latitude": 33.49471, "longitude": -112.003319, "address": "3619 E Indian School Rd", "city": "Phoenix", "state": "AZ", "stars": 4.5, "review_count": 308, "is_open": 1}, "UUtWoDyREiy9MPdtTRFUYQ": {"name": "George & Son's Asian Cuisine", "latitude": 33.6667301603, "longitude": -112.1243880755, "address": "3049 W Agua Fria Fwy", "city": "Phoenix", "state": "AZ", "stars": 4.5, "review_count": 487, "is_open": 1}, "w6frk94BwGwxenre_zeXUg": {"name": "CAPS Sports Grill", "latitude": 33.675977, "longitude": -112.096882, "address": "1721 W Rose Garden Ln", "city": "Phoenix", "state": "AZ", "stars": 4.5, "review_count": 214, "is_open": 1}, "WB7346WSdkTHvtHfWPilaA": {"name": "Be Coffee + Food + Stuff", "latitude": 33.4589658497, "longitude": -112.0704891357, "address": "214 E Roosevelt St", "city": "Phoenix", "state": "AZ", "stars": 4.5, "review_count": 397, "is_open": 1}, "m2zASwlOL2vecCKHfmGAnQ": {"name": "Rusconi's American Kitchen", "latitude": 33.5842663, "longitude": -111.9767865, "address": "10637 N Tatum Blvd", "city": "Phoenix", "state": "AZ", "stars": 4.5, "review_count": 700, "is_open": 1}, "rmD9BPsucgR4q3WiygrjEA": {"name": "Sr Ozzy's Tacos Y Mariscos", "latitude": 33.3917798242, "longitude": -112.0957354076, "address": "1717 W Southern Ave, Ste 100", "city": "Phoenix", "state": "AZ", "stars": 4.5, "review_count": 118, "is_open": 1}, "2g4ZTD3ePNSbDAvh6qAOKQ": {"name": "Los Reyes De La Torta", "latitude": 33.570843, "longitude": -112.0656524, "address": "9230 N 7th St", "city": "Phoenix", "state": "AZ", "stars": 4.5, "review_count": 736, "is_open": 1}, "lody-V-zjxBxockQnFq9SA": {"name": "Verdura", "latitude": 33.5179651, "longitude": -112.0633794, "address": "5555 N 7th St, Ste 108", "city": "Phoenix", "state": "AZ", "stars": 4.5, "review_count": 230, "is_open": 1}, "txOOuDuj6m2fW-ietZRw0w": {"name": "Da Burger Shack", "latitude": 33.484011, "longitude": -112.048027, "address": "3102 N 16th St", "city": "Phoenix", "state": "AZ", "stars": 4.5, "review_count": 22, "is_open": 0}, "45JwLE2ol0WozeHtzPToXg": {"name": "Detroit Coney Grill", "latitude": 33.449487, "longitude": -112.0742204, "address": "16 W Adams St", "city": "Phoenix", "state": "AZ", "stars": 4.5, "review_count": 175, "is_open": 1}, "aVvMVhCSNT3d4W37Ue1aUw": {"name": "Caffe Daniel", "latitude": 33.530322, "longitude": -112.01424, "address": "3115 E Lincoln Dr", "city": "Phoenix", "state": "AZ", "stars": 4.5, "review_count": 50, "is_open": 0}, "eZqoDfBg-xOS8WdcZCYM2A": {"name": "JL Smokehouse", "latitude": 33.4069903648, "longitude": -112.0445367694, "address": "1712 E Broadway", "city": "Phoenix", "state": "AZ", "stars": 5.0, "review_count": 146, "is_open": 1}, "PzItDWhnWrViLmAXQuMASQ": {"name": "Island Loco", "latitude": 33.4455124268, "longitude": -112.0822770461, "address": "", "city": "Phoenix", "state": "AZ", "stars": 4.5, "review_count": 37, "is_open": 1}, "tIOjJWfu4Dqz-FIzXHRvCg": {"name": "Salad and Go", "latitude": 33.5236942821, "longitude": -112.0643750578, "address": "719 E Bethany Home Rd", "city": "Phoenix", "state": "AZ", "stars": 4.5, "review_count": 201, "is_open": 1}, "Nbhpg1TbDwtMuyh9ZIPceA": {"name": "Thai Thai Kitchen", "latitude": 33.5829193, "longitude": -112.0990715, "address": "10639 N 19th Ave", "city": "Phoenix", "state": "AZ", "stars": 4.5, "review_count": 130, "is_open": 1}, "JLWd6yDyt9oEp70_4KqYeg": {"name": "Cafeteria on Thomas", "latitude": 33.4802080509, "longitude": -112.0808311511, "address": "507 W Thomas Rd, Ste 4", "city": "Phoenix", "state": "AZ", "stars": 4.5, "review_count": 28, "is_open": 0}, "i4hvmTd4RH9HvOyG8ndYGw": {"name": "Raffaele's Pizza", "latitude": 33.539317, "longitude": -112.098602, "address": "7019 N 19th Ave", "city": "Phoenix", "state": "AZ", "stars": 4.5, "review_count": 156, "is_open": 1}, "YZQVfJOprZIN6eTc8q_C7w": {"name": "China Chef Bistro", "latitude": 33.5962128, "longitude": -112.0361329, "address": "2017 E Cactus Rd, Ste G", "city": "Phoenix", "state": "AZ", "stars": 4.5, "review_count": 23, "is_open": 1}, "9IaomgzTHXsNkZHnZGv8fg": {"name": "Barb's Bakery", "latitude": 33.481711, "longitude": -112.029757, "address": "2929 N 24th St", "city": "Phoenix", "state": "AZ", "stars": 4.5, "review_count": 210, "is_open": 1}, "rK0Sz8xlX-ni_u_K9CQq-g": {"name": "Lunch Time Cafe", "latitude": 33.485845, "longitude": -112.134374, "address": "3330 N 35th Ave", "city": "Phoenix", "state": "AZ", "stars": 4.5, "review_count": 46, "is_open": 1}, "ZedqK_MSaSKCwbu4VRuTzA": {"name": "The Teapot", "latitude": 33.4572939485, "longitude": -112.0805154299, "address": "818 N 5th Ave", "city": "Phoenix", "state": "AZ", "stars": 4.5, "review_count": 161, "is_open": 1}, "ZOpiqtjJlcC8-VctNHE8xg": {"name": "The Original Rainbow Donuts", "latitude": 33.6299102, "longitude": -112.0312192, "address": "15834 N Cave Creek Rd", "city": "Phoenix", "state": "AZ", "stars": 4.5, "review_count": 115, "is_open": 1}, "TgjB-wlAVzol6HoDpE8KYg": {"name": "Duza's Kitchen", "latitude": 33.4727683736, "longitude": -112.0562698478, "address": "2243 N 12th St", "city": "Phoenix", "state": "AZ", "stars": 4.5, "review_count": 513, "is_open": 0}, "nLGgJBtMfGv7_juXipXheA": {"name": "Cloth & Flame", "latitude": 33.6782379, "longitude": -112.1012912, "address": "", "city": "Phoenix", "state": "AZ", "stars": 5.0, "review_count": 18, "is_open": 1}, "RU6E7WsAfsTRcjXxH1Lo5A": {"name": "Twisted Curry", "latitude": 33.6581015288, "longitude": -111.9328180707, "address": "7000 E Mayo Blvd, Ste 1076", "city": "Phoenix", "state": "AZ", "stars": 4.5, "review_count": 141, "is_open": 1}, "TBnB4iIU0pVKkAzN4T8xNg": {"name": "Neveria Chayos", "latitude": 33.5381782, "longitude": -112.1334426, "address": "2647 W Glendale Ave", "city": "Phoenix", "state": "AZ", "stars": 4.5, "review_count": 48, "is_open": 1}, "m5GreWn7OFv3hR6pFnHiRg": {"name": "Pokeworks", "latitude": 33.640035, "longitude": -111.9781923, "address": "4747 E Bell Rd", "city": "Phoenix", "state": "AZ", "stars": 4.5, "review_count": 44, "is_open": 1}, "HGvNE87fvK5PwKMZBDkTbA": {"name": "Fuego Bistro", "latitude": 33.521715, "longitude": -112.0641236, "address": "713 E Palo Verde Dr", "city": "Phoenix", "state": "AZ", "stars": 4.5, "review_count": 746, "is_open": 1}, "lbo8gncBXedeeogWD1JDag": {"name": "Birrieria Las Marias", "latitude": 33.5081669194, "longitude": -112.2358899191, "address": "4819 N 83rd Ave, Ste 106A", "city": "Phoenix", "state": "AZ", "stars": 4.5, "review_count": 21, "is_open": 1}, "cEAzE_cAD42RpNQQYv6Png": {"name": "Ginza Sushi Fusion Cuisine", "latitude": 33.6060967446, "longitude": -112.0662773925, "address": "13216 N 7th St, Ste B2", "city": "Phoenix", "state": "AZ", "stars": 4.5, "review_count": 54, "is_open": 1}, "TqAXKLF1P5XAIG9Uq2eUmQ": {"name": "El Pollo Correteado", "latitude": 33.4659515, "longitude": -112.1215774, "address": "2904 W McDowell Rd", "city": "Phoenix", "state": "AZ", "stars": 4.5, "review_count": 34, "is_open": 1}, "q4i-kcryM2X8VXWQcGbiSw": {"name": "Aishiteru Asian Bistro", "latitude": 33.5961862, "longitude": -112.0361235, "address": "2017 E Cactus Rd, Ste G", "city": "Phoenix", "state": "AZ", "stars": 4.5, "review_count": 81, "is_open": 0}, "ezrNxiPJUYLJpDtTQyj9eA": {"name": "The Loaded Potato", "latitude": 33.3932579, "longitude": -112.0459022, "address": "1638 E Southern Ave", "city": "Phoenix", "state": "AZ", "stars": 4.5, "review_count": 65, "is_open": 0}, "jsuUmIEefPjV__ads62Z5w": {"name": "Dick's Hideaway", "latitude": 33.5241701059, "longitude": -112.0478405939, "address": "6008 N 16th St", "city": "Phoenix", "state": "AZ", "stars": 4.5, "review_count": 985, "is_open": 1}, "ewvBhAgfJi43aZmWCd3Zag": {"name": "Bicycle Nomad", "latitude": 33.4574348274, "longitude": -112.0716389291, "address": "828 N 2nd St", "city": "Phoenix", "state": "AZ", "stars": 4.5, "review_count": 48, "is_open": 1}, "ahfAFuFHO9tfFkoBIkVdmg": {"name": "Zabari Mediterranean Grill", "latitude": 33.6113539, "longitude": -111.9985593, "address": "3831 E Thunderbird Rd, Ste 3", "city": "Phoenix", "state": "AZ", "stars": 4.5, "review_count": 108, "is_open": 0}, "0jDvRJS-z9zdMgOUXgr6rA": {"name": "Sunfare", "latitude": 33.6834068, "longitude": -112.0848039, "address": "811 W Deer Valley Rd", "city": "Phoenix", "state": "AZ", "stars": 5.0, "review_count": 31, "is_open": 1}, "OfLdWSqZ4HM_-B5khUtS8w": {"name": "Olive Tree Market & Grill", "latitude": 33.6988861, "longitude": -112.1012447, "address": "1930 W Pinnacle Peak Rd, Ste 101", "city": "Phoenix", "state": "AZ", "stars": 4.5, "review_count": 180, "is_open": 0}, "9a3DrZvpYxVs3k_qwlCNSw": {"name": "Cibo", "latitude": 33.45496, "longitude": -112.079908, "address": "603 N 5th Ave", "city": "Phoenix", "state": "AZ", "stars": 4.5, "review_count": 2164, "is_open": 1}, "mRxUCEoUUe-XsEYS1SlrTA": {"name": "New Tokyo Food Market", "latitude": 33.5527619, "longitude": -112.1332876, "address": "3435 W Northern Ave", "city": "Phoenix", "state": "AZ", "stars": 4.5, "review_count": 71, "is_open": 1}, "ngIcoAQTtsDIWuBQcjdHOQ": {"name": "Hola Cabrito", "latitude": 33.4022388, "longitude": -112.0468685, "address": "4835 S 16th St", "city": "Phoenix", "state": "AZ", "stars": 4.5, "review_count": 48, "is_open": 1}, "Llm_iXzE0-8_XKwI2e4JdA": {"name": "Saffron JAK", "latitude": 33.6561613, "longitude": -112.062774, "address": "814 E Union Hills Dr, Ste C-6", "city": "Phoenix", "state": "AZ", "stars": 5.0, "review_count": 151, "is_open": 1}, "zJ__js7-Cx_wU4GhdBdeRA": {"name": "The Refuge Coffee & Wine", "latitude": 33.43763, "longitude": -111.996638, "address": "4000 E Sky Harbor Blvd", "city": "Phoenix", "state": "AZ", "stars": 5.0, "review_count": 163, "is_open": 1}, "5eK_pgro9_LxPYDoRVJnEA": {"name": "Vovomeena", "latitude": 33.46542, "longitude": -112.082074, "address": "1515 N 7th Ave, Ste 170", "city": "Phoenix", "state": "AZ", "stars": 4.5, "review_count": 1074, "is_open": 1}, "WsQ-TrX-6W32rzb-vBygZQ": {"name": "Gracie's Tax Bar", "latitude": 33.45641, "longitude": -112.082211, "address": "711 N 7th Ave", "city": "Phoenix", "state": "AZ", "stars": 4.5, "review_count": 81, "is_open": 1}, "SE6VY8EWjEuAOzl19IQiCw": {"name": "Carefree Hwy Cafe", "latitude": 33.7977104, "longitude": -112.0636901, "address": "711 E Carefree Hwy, Ste 109", "city": "Phoenix", "state": "AZ", "stars": 4.5, "review_count": 35, "is_open": 1}, "0wKOp9CBQbiByRn8Qp7NIg": {"name": "Veterinary Neurological Center", "latitude": 33.4135206, "longitude": -111.9907679, "address": "4202 E Raymond St", "city": "Phoenix", "state": "AZ", "stars": 4.5, "review_count": 45, "is_open": 1}, "Kp729o1Pqeoc1oNS31wBJA": {"name": "Gadzooks Enchiladas and Soup", "latitude": 33.509546, "longitude": -111.99345, "address": "4031 E Camelback Rd", "city": "Phoenix", "state": "AZ", "stars": 4.5, "review_count": 185, "is_open": 1}, "I9nziYEw4YIFjr3ZDBpFog": {"name": "Abyssinia Restaurant and Cafe", "latitude": 33.495331, "longitude": -112.063083, "address": "842 E Indian School Rd", "city": "Phoenix", "state": "AZ", "stars": 4.5, "review_count": 198, "is_open": 1}, "6Leb5-5Wl7OfPM12LaFQeA": {"name": "Pubblico Italian Eatery", "latitude": 33.522359, "longitude": -112.0645588, "address": "5813 N 7th St", "city": "Phoenix", "state": "AZ", "stars": 4.5, "review_count": 222, "is_open": 1}, "VRC7J-ahI4em9ddhihxq5w": {"name": "Pizza A Metro", "latitude": 33.4810028, "longitude": -112.1101705, "address": "2336 W Thomas Rd", "city": "Phoenix", "state": "AZ", "stars": 4.5, "review_count": 388, "is_open": 1}, "uV9aSQGHpEMhEWCJ9DT_aQ": {"name": "LOVECRAFT / Ale House. Bottle Shop. Smoke Kitchen.", "latitude": 33.5973274, "longitude": -112.0139861, "address": "3128 E Cactus Rd", "city": "Phoenix", "state": "AZ", "stars": 4.5, "review_count": 130, "is_open": 1}, "ZGtWgDcgU6bYq4opGMH9cA": {"name": "Wild Tuna Sushi and Spirits", "latitude": 33.6071136, "longitude": -112.0627334, "address": "805 E Thunderbird Rd", "city": "Phoenix", "state": "AZ", "stars": 4.5, "review_count": 206, "is_open": 1}, "M3tvxyxkgSuZD3vVjlKW-Q": {"name": "El Caprichoso", "latitude": 33.572647, "longitude": -112.100098, "address": "9444 N 19th Ave", "city": "Phoenix", "state": "AZ", "stars": 5.0, "review_count": 33, "is_open": 1}, "hhhHgSaSl6GLtuDoDrMUZQ": {"name": "Rott n\u2019 Grapes Uptown", "latitude": 33.5072383, "longitude": -112.0741104, "address": "4750 N Central Ave, Ste 140", "city": "Phoenix", "state": "AZ", "stars": 4.5, "review_count": 182, "is_open": 1}, "qUrjlSVbHr6ZB7Td46hbMw": {"name": "Century Grand - Platform 18", "latitude": 33.4954188031, "longitude": -112.0030007511, "address": "3626 E Indian School Rd", "city": "Phoenix", "state": "AZ", "stars": 4.5, "review_count": 66, "is_open": 1}, "h9pEt23IAyjBtUaYA9v46A": {"name": "La Poblanita", "latitude": 33.4933261, "longitude": -112.2210158, "address": "4012 N 75th Ave", "city": "Phoenix", "state": "AZ", "stars": 4.5, "review_count": 158, "is_open": 1}, "iZMdwe0xebE3rF0x3LOr4w": {"name": "Banh Mi Bistro Vietnamese Eatery", "latitude": 33.6406782417, "longitude": -112.1105400776, "address": "2340 W Bell Rd, Ste 110", "city": "Phoenix", "state": "AZ", "stars": 4.5, "review_count": 480, "is_open": 1}, "85o8XAZDoPmRqHFhdJLAGg": {"name": "Song Lynn", "latitude": 33.4780159, "longitude": -112.254559, "address": "2755 N 91st Ave", "city": "Phoenix", "state": "AZ", "stars": 4.5, "review_count": 332, "is_open": 1}, "d6kfTFKpKJX93qAEPhBGAg": {"name": "Lupita's Hot Dogs", "latitude": 33.6378373236, "longitude": -112.0136707705, "address": "16618 N 32nd St", "city": "Phoenix", "state": "AZ", "stars": 5.0, "review_count": 119, "is_open": 1}, "Mpy2zw01M1IcEP4svSPOIg": {"name": "Mingo's Louisiana Kitchen", "latitude": 33.3926488, "longitude": -112.1323686, "address": "3424 West Southern Ave, Ste 180", "city": "Phoenix", "state": "AZ", "stars": 4.5, "review_count": 152, "is_open": 1}, "GdgGAINCqMXqcuKd2nKEBg": {"name": "Phoenix Art Museum", "latitude": 33.4667716102, "longitude": -112.0727462322, "address": "1625 N Central Ave", "city": "Phoenix", "state": "AZ", "stars": 4.5, "review_count": 406, "is_open": 1}, "QPmeZrxpWkKBV_p8RW_lnA": {"name": "The Panini People", "latitude": 33.2761422, "longitude": -112.28609, "address": "", "city": "Phoenix", "state": "AZ", "stars": 5.0, "review_count": 19, "is_open": 1}, "cTZmf7B-4yciMc1WKiCVOA": {"name": "Welcome Diner", "latitude": 33.4555996562, "longitude": -112.0608097315, "address": "929 E Pierce St", "city": "Phoenix", "state": "AZ", "stars": 4.5, "review_count": 1073, "is_open": 1}, "IycHntUVv2kyIo7w9FJWlA": {"name": "Hao Bao", "latitude": 33.4483412922, "longitude": -112.0739943847, "address": "234 Johnson St", "city": "Phoenix", "state": "AZ", "stars": 4.5, "review_count": 43, "is_open": 0}, "rbywwnfMjFjJwLQkgpdIEw": {"name": "Rito's Mexican Food- Phoenix", "latitude": 33.4579361, "longitude": -112.0520629, "address": "907 N 14th St", "city": "Phoenix", "state": "AZ", "stars": 4.5, "review_count": 394, "is_open": 1}, "Dj4AepxMBS-5DUvPegSb2g": {"name": "Gorditas Lily", "latitude": 33.605771082, "longitude": -112.0363093679, "address": "13035 N Cave Creek Rd", "city": "Phoenix", "state": "AZ", "stars": 4.5, "review_count": 22, "is_open": 1}, "_MI20v3QRDrCVXgpzje-Ag": {"name": "City Square Deli & Grill", "latitude": 33.6918459, "longitude": -112.0991488, "address": "22601 N 19th Ave, Ste 121", "city": "Phoenix", "state": "AZ", "stars": 5.0, "review_count": 150, "is_open": 1}, "JCZEK7wiazoM6xiq8YeZyw": {"name": "The Peppersauce Cafe", "latitude": 33.412592, "longitude": -111.996111, "address": "3937 E Anne St", "city": "Phoenix", "state": "AZ", "stars": 4.5, "review_count": 151, "is_open": 1}, "ajJl5Q55kWKoI05hhid8-w": {"name": "FLINT By Baltaire", "latitude": 33.508713, "longitude": -112.0281132, "address": "2425 E Camelback Rd", "city": "Phoenix", "state": "AZ", "stars": 4.5, "review_count": 32, "is_open": 1}, "rPqBgtehp4I-VmFyQQmyzQ": {"name": "Hatch-it Green Chile Burgers & Tacos", "latitude": 33.5162419, "longitude": -112.0820825, "address": "5341 N 7th Ave", "city": "Phoenix", "state": "AZ", "stars": 4.5, "review_count": 115, "is_open": 1}, "S_bG5WWbtNXhhY9Y0GTcSg": {"name": "F\u00e0me Caffe", "latitude": 33.505854666, "longitude": -112.0740099241, "address": "4700 N Central Ave", "city": "Phoenix", "state": "AZ", "stars": 4.5, "review_count": 619, "is_open": 1}, "wB2mrl_xHyj55UObucaVRA": {"name": "Ollie Vaughn's", "latitude": 33.4659576, "longitude": -112.0487597, "address": "1526 E McDowell Rd", "city": "Phoenix", "state": "AZ", "stars": 4.5, "review_count": 297, "is_open": 1}, "yCK1Ok69D7TSWJESZQZHiQ": {"name": "Yama Sushi House - Phoenix", "latitude": 33.5072383, "longitude": -112.0741104, "address": "4750 North Central Ave", "city": "Phoenix", "state": "AZ", "stars": 4.5, "review_count": 423, "is_open": 1}, "QtxTLatcq133Pfnl90ZB9Q": {"name": "Pa'La", "latitude": 33.4706474, "longitude": -112.0299616, "address": "2107 N 24th St", "city": "Phoenix", "state": "AZ", "stars": 4.5, "review_count": 150, "is_open": 1}, "nYpxA8exNB1VPuM7XYS7fg": {"name": "Taquerias El Chino", "latitude": 33.451097, "longitude": -112.0985706, "address": "1803 W Van Buren St", "city": "Phoenix", "state": "AZ", "stars": 4.5, "review_count": 201, "is_open": 1}, "-X9QS8l7u5R3CswmfZtn-Q": {"name": "Valley Vietnamese food", "latitude": 33.601554, "longitude": -111.9837624, "address": "4568 E Cactus Rd", "city": "Phoenix", "state": "AZ", "stars": 4.5, "review_count": 43, "is_open": 0}, "MgbjD3OrQpFRIop1jQ9NvA": {"name": "Wedge & Bottle", "latitude": 33.3044612, "longitude": -111.9945753, "address": "4025 E Chandler Blvd, Ste 44", "city": "Phoenix", "state": "AZ", "stars": 4.5, "review_count": 50, "is_open": 0}, "apdb7MGnmnx6nGWBJ0ch_g": {"name": "Copper Star Coffee", "latitude": 33.4974705, "longitude": -112.0838957, "address": "4220 N 7th Ave", "city": "Phoenix", "state": "AZ", "stars": 4.5, "review_count": 624, "is_open": 1}, "najluTSbgZEpCdLIbpvnxQ": {"name": "Maryln's Fish & Chips", "latitude": 33.396343, "longitude": -112.0736492, "address": "5436 S Central Ave", "city": "Phoenix", "state": "AZ", "stars": 4.5, "review_count": 191, "is_open": 1}, "5P7zzVhWvO8nXGPdy7xqhw": {"name": "LaMar's Donuts & Coffee", "latitude": 33.640451, "longitude": -112.111163, "address": "2340 W Bell Rd", "city": "Phoenix", "state": "AZ", "stars": 4.5, "review_count": 260, "is_open": 1}, "hH8002bWtOFYtLgarFZBsg": {"name": "First Watch", "latitude": 33.5745287027, "longitude": -112.1163084061, "address": "9645 N Black Canyon Hwy", "city": "Phoenix", "state": "AZ", "stars": 4.5, "review_count": 507, "is_open": 1}, "qms2KpC7A0KM3DxGqXWzaQ": {"name": "Flower Child", "latitude": 33.6748827045, "longitude": -111.9769078005, "address": "21001 North Tatum Blvd, Ste 16-1000", "city": "Phoenix", "state": "AZ", "stars": 4.5, "review_count": 170, "is_open": 1}, "y1VInN5m3RbHU59kiQbmxA": {"name": "Asi Es La Vida", "latitude": 33.4895374, "longitude": -112.030474, "address": "3602 N 24th St", "city": "Phoenix", "state": "AZ", "stars": 4.5, "review_count": 276, "is_open": 1}, "NM46GnLtWWocCu2o1iCuSA": {"name": "Carniceria Los Amigos", "latitude": 33.392514, "longitude": -111.980219, "address": "4705 E Southern Ave", "city": "Phoenix", "state": "AZ", "stars": 4.5, "review_count": 35, "is_open": 1}, "lkpoSg7xf60BsrOjdm0CBA": {"name": "BoSa Donuts", "latitude": 33.3203458669, "longitude": -111.9773173182, "address": "4910 E Ray Rd", "city": "Phoenix", "state": "AZ", "stars": 4.5, "review_count": 92, "is_open": 1}, "mPfdYJj4d5KBPINDkaZY-Q": {"name": "Churn", "latitude": 33.5135036416, "longitude": -112.0733894232, "address": "5223 N Central Ave", "city": "Phoenix", "state": "AZ", "stars": 4.5, "review_count": 900, "is_open": 1}, "k1QpHAkzKTrFYfk6u--VgQ": {"name": "The Parlor", "latitude": 33.5094461, "longitude": -112.0403946, "address": "1916 E Camelback Rd", "city": "Phoenix", "state": "AZ", "stars": 4.5, "review_count": 1381, "is_open": 1}, "EEGajOchS2BIZNvJcPK3uw": {"name": "Bar Pesce", "latitude": 33.4942271024, "longitude": -112.0031128735, "address": "3603 E Indian School Rd, Ste B", "city": "Phoenix", "state": "AZ", "stars": 4.5, "review_count": 437, "is_open": 0}, "1rebduwtmrHQhl32djRS7A": {"name": "McGurkee's Italian Kitchen", "latitude": 33.4801488, "longitude": -112.0916666, "address": "2822 N 15th Ave", "city": "Phoenix", "state": "AZ", "stars": 4.5, "review_count": 190, "is_open": 1}, "Q7bAF6MrZ8wWfLsxaPl2Yw": {"name": "Ta'Carbon", "latitude": 33.48189, "longitude": -112.151272, "address": "2929 N 43rd Ave", "city": "Phoenix", "state": "AZ", "stars": 4.5, "review_count": 271, "is_open": 1}, "_n0B8mRTWP6ZfX8npDGEqw": {"name": "Yutaka Japanese Restaurant", "latitude": 33.639089, "longitude": -112.063179, "address": "751 E Bell Rd, Ste 9", "city": "Phoenix", "state": "AZ", "stars": 4.5, "review_count": 121, "is_open": 1}, "NeDqVEiin0q-FxCvOKiERw": {"name": "My Slice of the Pie Pizzeria", "latitude": 33.4956620524, "longitude": -112.0010075757, "address": "3724 E Indian School Rd", "city": "Phoenix", "state": "AZ", "stars": 4.5, "review_count": 429, "is_open": 1}, "lCd20nDS9rFHW_2KViqWUA": {"name": "El Chullo Peruvian Restaurant & Bar", "latitude": 33.4770298133, "longitude": -112.0648466176, "address": "2605 N 7th St", "city": "Phoenix", "state": "AZ", "stars": 4.5, "review_count": 364, "is_open": 1}, "CJxRsR81ETN4QXQyB3YjQQ": {"name": "Jimmy G's Burgers", "latitude": 33.484011, "longitude": -112.048027, "address": "3102 N 16 St", "city": "Phoenix", "state": "AZ", "stars": 4.5, "review_count": 42, "is_open": 0}, "pBwOqgpkaDmFUDYX8cbnNQ": {"name": "Tortas El Guero", "latitude": 33.4753332, "longitude": -112.0480562, "address": "2518 N 16th St", "city": "Phoenix", "state": "AZ", "stars": 4.5, "review_count": 230, "is_open": 1}, "9u7knPXVCUOwnsz8sTTT_w": {"name": "Las 15 Salsas", "latitude": 33.5716991, "longitude": -112.0835696, "address": "722 W Hatcher Rd", "city": "Phoenix", "state": "AZ", "stars": 4.5, "review_count": 76, "is_open": 1}, "5OmuCo0kdvWQZXidGuxrsw": {"name": "NY Slicers Deli", "latitude": 33.4572549, "longitude": -112.1510793, "address": "835 N 43rd Ave", "city": "Phoenix", "state": "AZ", "stars": 4.5, "review_count": 173, "is_open": 1}, "X_RwGnty-Pl7YLSX3wsCoQ": {"name": "Luccicare", "latitude": 33.63835, "longitude": -111.978388, "address": "4727 E Bell Rd, Ste 59 (FACING TATUM)", "city": "Phoenix", "state": "AZ", "stars": 4.5, "review_count": 82, "is_open": 1}, "iXV2kGGyXJlKM8JKek-HNg": {"name": "Centrico", "latitude": 33.4504069086, "longitude": -112.0739261258, "address": "202 N Central Ave", "city": "Phoenix", "state": "AZ", "stars": 4.5, "review_count": 257, "is_open": 1}, "l0rbgnvy2jSeUUEBUK4B8A": {"name": "Best of Europe Meats & Deli", "latitude": 33.6273791275, "longitude": -112.0122645532, "address": "3202 E Greenway Rd, Ste 1611", "city": "Phoenix", "state": "AZ", "stars": 4.5, "review_count": 89, "is_open": 1}, "F-ULgBFmiSqG9udQmu6CCw": {"name": "Baiz Market Place", "latitude": 33.4549864, "longitude": -112.0386014, "address": "523 N 20th St", "city": "Phoenix", "state": "AZ", "stars": 4.5, "review_count": 204, "is_open": 1}, "rydwhaJPcQhxHlHO0PMZMQ": {"name": "Mucha Lucha Taco Shop", "latitude": 33.6026941924, "longitude": -111.983230859, "address": "4568 E Cactus Rd, Ste 110", "city": "Phoenix", "state": "AZ", "stars": 4.5, "review_count": 62, "is_open": 0}, "DjbJRMqb4-YbVDQRG5eGJA": {"name": "Phoenix Slice House", "latitude": 33.4517937, "longitude": -111.978939, "address": "326 N 48th St", "city": "Phoenix", "state": "AZ", "stars": 4.5, "review_count": 18, "is_open": 1}, "G8vA6pq4p8KslaURm-q65Q": {"name": "Romanelli's Italian Deli", "latitude": 33.5670713, "longitude": -112.1332876, "address": "3437 W Dunlap Ave", "city": "Phoenix", "state": "AZ", "stars": 4.5, "review_count": 361, "is_open": 1}, "Zp9RMGJKVc9Qkhj4QqyROw": {"name": "JJ's Gyros", "latitude": 33.683252, "longitude": -112.098474, "address": "1855 W Deer Valley Rd, Ste 101", "city": "Phoenix", "state": "AZ", "stars": 4.5, "review_count": 118, "is_open": 1}, "Ut4nk4AzlMX62Hy2_rqIew": {"name": "Karl's Quality Bakery", "latitude": 33.5665786, "longitude": -112.0723153, "address": "111 E Dunlap Ave, Ste 13", "city": "Phoenix", "state": "AZ", "stars": 4.5, "review_count": 133, "is_open": 1}, "e1nAwDPG9xMY7blz_UYc8g": {"name": "Meat the Ball", "latitude": 33.5106689747, "longitude": -112.0265172598, "address": "2502 E Camelback Rd, Ste 148 A&B", "city": "Phoenix", "state": "AZ", "stars": 4.5, "review_count": 89, "is_open": 1}, "AOcDW5FZJJG3YsyKGhiSMQ": {"name": "Persepshen", "latitude": 33.506478867, "longitude": -112.0741614544, "address": "4700 N Central Ave", "city": "Phoenix", "state": "AZ", "stars": 4.5, "review_count": 31, "is_open": 1}, "uBapvMNLJ6dtwJH9HQQamg": {"name": "Press Coffee", "latitude": 33.6758542337, "longitude": -111.9667339325, "address": "5410 E High St, Ste 115", "city": "Phoenix", "state": "AZ", "stars": 4.5, "review_count": 57, "is_open": 0}, "VSX3ixrqQFwwGBUf15s0EQ": {"name": "The Macintosh", "latitude": 33.5075723503, "longitude": -112.0375021066, "address": "2119 E Camelback Rd, Ste A21", "city": "Phoenix", "state": "AZ", "stars": 4.5, "review_count": 760, "is_open": 1}, "mUVAMNN7BCQ9HGA9w_7C1g": {"name": "Ingo's Tasty Food", "latitude": 33.502758, "longitude": -111.99565, "address": "4502 N 40th St", "city": "Phoenix", "state": "AZ", "stars": 4.5, "review_count": 542, "is_open": 1}, "k-fLKf1Qbq08jDrOuNn5ZA": {"name": "The Brown Bag", "latitude": 33.5464488728, "longitude": -112.0472846515, "address": "7575 N 16th St", "city": "Phoenix", "state": "AZ", "stars": 4.5, "review_count": 197, "is_open": 0}, "48IAxa7b8mdl9FqHE8jlbA": {"name": "Gluten Free Creations", "latitude": 33.5857413, "longitude": -112.0140094, "address": "10880 N 32nd St, Ste 39", "city": "Phoenix", "state": "AZ", "stars": 4.5, "review_count": 79, "is_open": 1}, "STLglfaKvGbuMHCV5B6jjA": {"name": "Blue Seas Express & Catering AZ", "latitude": 33.4475121, "longitude": -112.0288671, "address": "2426 E Jefferson St", "city": "Phoenix", "state": "AZ", "stars": 4.5, "review_count": 22, "is_open": 1}, "Q4n0Olo50fIhi6a5apuraA": {"name": "Rott n' Grapes RoRo", "latitude": 33.4590038, "longitude": -112.0775848, "address": "1001 N 3rd Ave, Ste 1", "city": "Phoenix", "state": "AZ", "stars": 4.5, "review_count": 150, "is_open": 0}, "R1k-z3Mauqk4v-7ZeEVsHQ": {"name": "Restaurante El Guanaquito", "latitude": 33.4660115, "longitude": -112.0503186, "address": "1438 E McDowell Rd", "city": "Phoenix", "state": "AZ", "stars": 4.5, "review_count": 163, "is_open": 1}, "y5bQlEMCMnYba9I5XRzlzA": {"name": "Frank's New York Style Deli", "latitude": 33.5119468, "longitude": -112.108625, "address": "2301 W Orange Dr", "city": "Phoenix", "state": "AZ", "stars": 5.0, "review_count": 214, "is_open": 1}, "-e_UQJVTzIPweX4TcPUYVw": {"name": "Mexx32", "latitude": 33.5112826364, "longitude": -112.0136957257, "address": "3154 E Camelback Rd", "city": "Phoenix", "state": "AZ", "stars": 4.5, "review_count": 173, "is_open": 0}, "n6IWvkVMWB9OIRZBXh5tHw": {"name": "Elevate Coffee", "latitude": 33.7154693739, "longitude": -112.1137994528, "address": "2530 W Happy Valley Rd, Ste 1273", "city": "Phoenix", "state": "AZ", "stars": 4.5, "review_count": 406, "is_open": 1}, "hU-I172AdpBahJqP-GTSbA": {"name": "Lifeboat Coffee", "latitude": 33.5681918348, "longitude": -112.0657731593, "address": "536 E Dunlap Ave", "city": "Phoenix", "state": "AZ", "stars": 4.5, "review_count": 42, "is_open": 1}, "Ag1S9ttGzV0oikz80pRPbA": {"name": "Pok\u00e9 Catcher", "latitude": 33.480032, "longitude": -112.076564, "address": "49 W Thomas Rd", "city": "Phoenix", "state": "AZ", "stars": 4.5, "review_count": 115, "is_open": 0}, "pjpUOlJLlkIxBZ5BquA2PA": {"name": "Pomo Pizzeria - Phoenix", "latitude": 33.4558709, "longitude": -112.0722832, "address": "705 N 1st St, Ste 120", "city": "Phoenix", "state": "AZ", "stars": 4.5, "review_count": 798, "is_open": 1}, "L_9g6y_EJqJ7A7nJMV9rmA": {"name": "ThirdSpace", "latitude": 33.4552266, "longitude": -112.0867833, "address": "1028 Grand Ave", "city": "Phoenix", "state": "AZ", "stars": 4.5, "review_count": 137, "is_open": 0}, "aXgF2q1ciYIwUS2ULNNCgQ": {"name": "White Cup Coffee", "latitude": 33.4943965, "longitude": -111.9955077, "address": "3933 E Indian School Rd", "city": "Phoenix", "state": "AZ", "stars": 4.5, "review_count": 82, "is_open": 0}, "w-q9UTLqk6njQWOJEWelwA": {"name": "Wildflower", "latitude": 33.435635, "longitude": -111.997765, "address": "3400 E Sky Harbor Blvd", "city": "Phoenix", "state": "AZ", "stars": 4.5, "review_count": 269, "is_open": 1}, "rh6yL-dxvCEo-bJk_UTE7w": {"name": "Vecina", "latitude": 33.4886753, "longitude": -111.9604499, "address": "3433 N 56th St", "city": "Phoenix", "state": "AZ", "stars": 4.5, "review_count": 45, "is_open": 1}, "itJJHcstARVqibAUtxjyUQ": {"name": "O2 Sushi", "latitude": 33.6790557, "longitude": -112.0300781, "address": "21043 N Cave Creek Rd, A10a", "city": "Phoenix", "state": "AZ", "stars": 4.5, "review_count": 140, "is_open": 1}, "KMxOoHyRKP74PgosuRkkdg": {"name": "Paquime- Street Food of Mexico", "latitude": 33.567471, "longitude": -112.0730792, "address": "17 E Dunlap Ave", "city": "Phoenix", "state": "AZ", "stars": 4.5, "review_count": 396, "is_open": 1}, "G8k2E3oYHHl2o4lNJQwR-g": {"name": "Eden's Grill Inn", "latitude": 33.612935, "longitude": -111.976905, "address": "13843 N Tatum Blvd, Ste 29", "city": "Phoenix", "state": "AZ", "stars": 4.5, "review_count": 353, "is_open": 1}, "_lD9Y_0OfzZjfz5s-FVwqQ": {"name": "Doner Kebab Chef RD", "latitude": 33.6020499851, "longitude": -111.9836961531, "address": "4550 E Cactus Rd", "city": "Phoenix", "state": "AZ", "stars": 4.5, "review_count": 55, "is_open": 1}, "wWgsKvkbq8rzdGpx5gr-Tw": {"name": "Sweet Land Cake", "latitude": 33.4798377, "longitude": -111.9787958, "address": "4747 E Thomas Rd, Ste E", "city": "Phoenix", "state": "AZ", "stars": 5.0, "review_count": 33, "is_open": 1}, "imZGzMSS6fB_h20zu35DBw": {"name": "The Churchill", "latitude": 33.4578468, "longitude": -112.0721821, "address": "901 N 1st St", "city": "Phoenix", "state": "AZ", "stars": 4.5, "review_count": 109, "is_open": 1}, "NL95JTNTh_gebXKSz2ElNg": {"name": "Alaskan Pride Seafoods", "latitude": 33.4954247625, "longitude": -112.0034630164, "address": "3634 E Indian School Rd", "city": "Phoenix", "state": "AZ", "stars": 4.5, "review_count": 48, "is_open": 1}, "Ayt0hEO4siFH8h4lsCa4VQ": {"name": "Wildflower", "latitude": 33.4356341622, "longitude": -111.9978996327, "address": "3800 E Sky Harbor Blvd", "city": "Phoenix", "state": "AZ", "stars": 4.5, "review_count": 136, "is_open": 1}, "HkivRKsvPfSag81YgcLuwg": {"name": "Lunch Break", "latitude": 33.4000146461, "longitude": -112.0015894322, "address": "3702 E Roeser Rd", "city": "Phoenix", "state": "AZ", "stars": 4.5, "review_count": 105, "is_open": 1}, "uZkysgjMeC3UO03cPyBD2g": {"name": "Smooth Brew", "latitude": 33.4655402, "longitude": -112.0500298, "address": "1447 E Mcdowell Rd", "city": "Phoenix", "state": "AZ", "stars": 4.5, "review_count": 219, "is_open": 1}, "QoC81Y4w5aZZ2VLI4Mxwlw": {"name": "Coffee Zona", "latitude": 33.5133606072, "longitude": -112.0652211397, "address": "5202 N 7th St, Ste 130", "city": "Phoenix", "state": "AZ", "stars": 5.0, "review_count": 55, "is_open": 1}, "oVmk03sRsExksDLkhIezHw": {"name": "Bobby D's Restaurant & Lounge", "latitude": 33.5825187, "longitude": -112.0515606, "address": "10604 N Cave Creek Rd", "city": "Phoenix", "state": "AZ", "stars": 4.5, "review_count": 26, "is_open": 1}, "QMj2_aQU9gh4d6LXzbmDLg": {"name": "Grady's", "latitude": 33.5937119, "longitude": -112.099237, "address": "11801 N 19th Ave", "city": "Phoenix", "state": "AZ", "stars": 4.5, "review_count": 20, "is_open": 0}, "XPgurhZwZgNAwHcrpoe3Zg": {"name": "Niccoli's Italian Grocery & Deli", "latitude": 33.5258592966, "longitude": -112.0483986578, "address": "6102 N 16th St", "city": "Phoenix", "state": "AZ", "stars": 4.5, "review_count": 188, "is_open": 1}, "5mTbPNAl9ObpmI1lc7Ug0w": {"name": "Pho 32", "latitude": 33.4959568706, "longitude": -112.0141227227, "address": "3170 E Indian School Rd", "city": "Phoenix", "state": "AZ", "stars": 4.5, "review_count": 108, "is_open": 1}, "9iy6scMRbs5ue41XRLGEkw": {"name": "Coup Des Tartes", "latitude": 33.4872242, "longitude": -112.0447185, "address": "1725 E Osborn", "city": "Phoenix", "state": "AZ", "stars": 4.5, "review_count": 176, "is_open": 0}, "Xg5qEQiB-7L6kGJ5F4K3bQ": {"name": "Little Miss BBQ", "latitude": 33.4217144, "longitude": -111.9891611, "address": "4301 E University Dr", "city": "Phoenix", "state": "AZ", "stars": 5.0, "review_count": 2329, "is_open": 1}, "o60ONA3T9gzCX6_8LjWB8w": {"name": "Emilio's Tacos & Hotdogs", "latitude": 33.612046, "longitude": -112.099311, "address": "13803 N 19th Ave", "city": "Phoenix", "state": "AZ", "stars": 4.5, "review_count": 71, "is_open": 1}, "H9tJl_ntsan-YSZElKKK2w": {"name": "3on Smith Cafe", "latitude": 33.4949109022, "longitude": -112.0019443815, "address": "3701 E Indian School Rd", "city": "Phoenix", "state": "AZ", "stars": 4.5, "review_count": 317, "is_open": 0}, "UVw-ZOsmJ1cDQO9_AFUzWA": {"name": "Don's NY Pizza", "latitude": 33.50613, "longitude": -112.273644, "address": "9971 W Camelback Rd", "city": "Phoenix", "state": "AZ", "stars": 4.5, "review_count": 115, "is_open": 1}, "znH36RmIAI4wcHy9WiEO5Q": {"name": "Dieci", "latitude": 33.508713, "longitude": -112.027536, "address": "2501 E Camelback Rd, Ste 24", "city": "Phoenix", "state": "AZ", "stars": 4.5, "review_count": 142, "is_open": 0}, "EM4Qo0Tm40H8Nfk3s8Dy0g": {"name": "PHX Beer Co. Central Kitchen", "latitude": 33.5222176562, "longitude": -112.0642463195, "address": "5813 N 7th St", "city": "Phoenix", "state": "AZ", "stars": 4.5, "review_count": 399, "is_open": 1}, "-zhywnaBiGRNcr6kbDagBQ": {"name": "Taqueria Don Pancho", "latitude": 33.496075, "longitude": -112.203793, "address": "6710 W Indian School Rd", "city": "Phoenix", "state": "AZ", "stars": 4.5, "review_count": 35, "is_open": 1}, "9nhUfBLbsT_oLmIhB1jdgw": {"name": "Smackin' Wings", "latitude": 33.4366655, "longitude": -111.9403254, "address": "", "city": "Phoenix", "state": "AZ", "stars": 4.5, "review_count": 29, "is_open": 0}, "aGv1dZ52QWpM8W59f9gqhQ": {"name": "Echo Sushi", "latitude": 33.7998310355, "longitude": -112.1278555691, "address": "3134 W Carefree Hwy, Ste 8", "city": "Phoenix", "state": "AZ", "stars": 4.5, "review_count": 160, "is_open": 1}, "DCneGyZ5H_uxliaMHI0lYg": {"name": "Wraps N Curry", "latitude": 33.638778, "longitude": -112.150006, "address": "4221 W Bell Rd, Ste 111", "city": "Phoenix", "state": "AZ", "stars": 4.5, "review_count": 164, "is_open": 1}, "FKj6537SERSe0SN8yI7-gA": {"name": "Restaurant Progress", "latitude": 33.4994892966, "longitude": -112.083034525, "address": "702 W Montecito Ave", "city": "Phoenix", "state": "AZ", "stars": 4.5, "review_count": 194, "is_open": 1}, "90bL34o2KEes9pUnCOm7pQ": {"name": "The Gladly", "latitude": 33.508931, "longitude": -112.034109, "address": "2201 E Camelback Rd, Ste 106", "city": "Phoenix", "state": "AZ", "stars": 4.5, "review_count": 849, "is_open": 1}, "mhMhYsmJB4t0-ok1ABvNBg": {"name": "Original Gravity", "latitude": 33.5057937197, "longitude": -112.0569326477, "address": "4700 N 12th St, Ste 101", "city": "Phoenix", "state": "AZ", "stars": 4.5, "review_count": 202, "is_open": 1}, "eVNc3F0Xlc7vkYC3C5jjdg": {"name": "Rhema Soul Cuisine", "latitude": 33.4469064, "longitude": -112.0567192, "address": "1153 E Jefferson St, Ste 1", "city": "Phoenix", "state": "AZ", "stars": 4.5, "review_count": 36, "is_open": 0}, "roz-ed8kvBF6fwKBPeJ49Q": {"name": "Tutti Santi", "latitude": 33.5462199, "longitude": -112.0468452, "address": "7575 N 16th St, Ste 5", "city": "Phoenix", "state": "AZ", "stars": 4.5, "review_count": 334, "is_open": 1}, "BbJEHuA73Np8fFsG832wUw": {"name": "Saint Pasta", "latitude": 33.531878, "longitude": -112.047759, "address": "6522 N 16th St, Ste 6", "city": "Phoenix", "state": "AZ", "stars": 4.5, "review_count": 32, "is_open": 1}, "-kIscN8I29eXMPkvyyxmRQ": {"name": "Zookz Sandwiches", "latitude": 33.5095892938, "longitude": -112.0718480453, "address": "100 E Camelback Rd", "city": "Phoenix", "state": "AZ", "stars": 4.5, "review_count": 866, "is_open": 1}, "WDdY2RWTTz5w81riEG8AFQ": {"name": "Grand Avenue Brewing Company", "latitude": 33.455863, "longitude": -112.08854, "address": "1205 W Pierce St", "city": "Phoenix", "state": "AZ", "stars": 4.5, "review_count": 30, "is_open": 1}, "a6asAPtLHfWG871UBizACw": {"name": "Mashawi Lebanese Grill", "latitude": 33.6561233, "longitude": -112.0629591, "address": "814 E Union Hills Dr, Ste C-6", "city": "Phoenix", "state": "AZ", "stars": 4.5, "review_count": 66, "is_open": 0}, "cOWXtCz7F9GQhPIks8gm6Q": {"name": "SOLO Trattoria", "latitude": 33.5084566429, "longitude": -112.027671659, "address": "2501 E Camelback Rd, Ste 24", "city": "Phoenix", "state": "AZ", "stars": 4.5, "review_count": 269, "is_open": 0}, "8VZaWX0cLcm_vzJNvgq-KQ": {"name": "Anhelo Restaurant", "latitude": 33.4494775, "longitude": -112.0653912, "address": "628 E Adams St", "city": "Phoenix", "state": "AZ", "stars": 4.5, "review_count": 65, "is_open": 1}, "MCaSL4S-Y9_SpZI7bMQIEw": {"name": "Cookin On Wood", "latitude": 33.4084094, "longitude": -112.0080176, "address": "3401 E Wood St", "city": "Phoenix", "state": "AZ", "stars": 4.5, "review_count": 29, "is_open": 1}, "aLIJSHJfLQuFu3CamjOS2Q": {"name": "Rita's Mexican Food", "latitude": 33.4643519, "longitude": -112.1348719, "address": "1402 N 35th Ave", "city": "Phoenix", "state": "AZ", "stars": 4.5, "review_count": 242, "is_open": 1}, "gQg_z_bqR9Lp9oLuv659YA": {"name": "40th Street Cafe", "latitude": 33.6272767, "longitude": -111.9952466, "address": "4022 E Greenway Rd, Ste 10", "city": "Phoenix", "state": "AZ", "stars": 4.5, "review_count": 199, "is_open": 1}, "URa75T-A1QvjMUFNIPyukQ": {"name": "Da Valley Grill", "latitude": 33.6841602, "longitude": -112.1040391, "address": "2040 W Deer Valley Rd, Ste A", "city": "Phoenix", "state": "AZ", "stars": 4.5, "review_count": 174, "is_open": 1}, "FxEJjLZj6UdsOCGcgEufeA": {"name": "La Purisima Bakery", "latitude": 33.4951463, "longitude": -112.0316472, "address": "2318 E Indian School Rd", "city": "Phoenix", "state": "AZ", "stars": 4.5, "review_count": 73, "is_open": 1}, "Tw3miGKZHtmxmaQZIYFRrA": {"name": "Federal Pizza", "latitude": 33.5135196, "longitude": -112.0740451, "address": "5210 N Central Ave", "city": "Phoenix", "state": "AZ", "stars": 4.5, "review_count": 989, "is_open": 1}, "8eHdaUEB4bqYM-YsarAlvA": {"name": "Presto", "latitude": 33.493736, "longitude": -112.16999, "address": "5127 W Indian School Rd, Ste 167A", "city": "Phoenix", "state": "AZ", "stars": 4.5, "review_count": 19, "is_open": 1}, "Xq4IFI2p9S37h-DnOaevuQ": {"name": "Tru Burger", "latitude": 33.476296, "longitude": -112.0734979, "address": "2535 N Central Ave, Ste 103", "city": "Phoenix", "state": "AZ", "stars": 4.5, "review_count": 101, "is_open": 1}, "S6TMBqrsi4PLRFoQFPScjQ": {"name": "Green New American Vegetarian", "latitude": 33.47014, "longitude": -112.065474, "address": "2022 N 7th St", "city": "Phoenix", "state": "AZ", "stars": 4.5, "review_count": 970, "is_open": 1}, "rkh4-_4vBt0NWOa_0qRzcA": {"name": "Moku Hawaiian Grill", "latitude": 33.3203374, "longitude": -111.9918625, "address": "4302 E Ray Rd, Ste 114", "city": "Phoenix", "state": "AZ", "stars": 4.5, "review_count": 186, "is_open": 1}, "fngEhtJ9GjcZFc5jb6fncA": {"name": "Sushi Nakano", "latitude": 33.3044587, "longitude": -111.9945187, "address": "4025 E Chandler Blvd, Ste 44", "city": "Phoenix", "state": "AZ", "stars": 4.5, "review_count": 159, "is_open": 1}, "8UlyXCkYJEEreWsWPFEJbw": {"name": "BBQ Daddy Special Event Catering", "latitude": 33.4528292, "longitude": -112.0685027, "address": "", "city": "Phoenix", "state": "AZ", "stars": 4.5, "review_count": 30, "is_open": 1}, "0obhg2Jv22z6Mkvl3zGaiQ": {"name": "Nino's Greek Cafe", "latitude": 33.4840313519, "longitude": -112.0479990766, "address": "3102 N 16th St", "city": "Phoenix", "state": "AZ", "stars": 4.5, "review_count": 239, "is_open": 1}, "09LYxY5D4GcKc0Tvs4K_gw": {"name": "Press Coffee - Muse", "latitude": 33.4666781939, "longitude": -112.0739475265, "address": "1616 N Central Ave, Ste 102", "city": "Phoenix", "state": "AZ", "stars": 4.5, "review_count": 130, "is_open": 1}, "yz3JQk5Lqbin8mtNfDcy_w": {"name": "Bar Bianco", "latitude": 33.4492081, "longitude": -112.0658526, "address": "609 E Adams St", "city": "Phoenix", "state": "AZ", "stars": 4.5, "review_count": 95, "is_open": 1}, "3Xq-bUUpRF9qi3MIXPY8cQ": {"name": "OUTTA BRONX", "latitude": 33.4654132718, "longitude": -111.9926441962, "address": "4105 E McDowell Rd", "city": "Phoenix", "state": "AZ", "stars": 4.5, "review_count": 323, "is_open": 1}, "pmpJS5skJj14y5brPPI2ew": {"name": "Stanley's Homemade Sausage Company", "latitude": 33.6399152, "longitude": -112.0193656, "address": "2945 E Bell Rd, Ste 101", "city": "Phoenix", "state": "AZ", "stars": 4.5, "review_count": 28, "is_open": 1}, "Ks13abA-KZWAA6FMQagQmg": {"name": "Tony's Italian Delicatessen", "latitude": 33.5680779204, "longitude": -112.0660251276, "address": "536 E Dunlap Ave", "city": "Phoenix", "state": "AZ", "stars": 4.5, "review_count": 149, "is_open": 1}, "iKu39ukwouxw4uSzYUrScg": {"name": "Diner 50", "latitude": 33.4382042, "longitude": -112.100375, "address": "1002 S 19th Ave", "city": "Phoenix", "state": "AZ", "stars": 4.5, "review_count": 164, "is_open": 1}, "5Ktv5ZmJI0CN4L0KxDWJvw": {"name": "Phoenix City Grille", "latitude": 33.5223711, "longitude": -112.0477812, "address": "5816 N 16th St", "city": "Phoenix", "state": "AZ", "stars": 4.5, "review_count": 434, "is_open": 1}, "vM92DKxz5XJGm6Q5brHuGA": {"name": "Central Wine", "latitude": 33.497502, "longitude": -112.0740918, "address": "4236 N Central Ave, Ste 101", "city": "Phoenix", "state": "AZ", "stars": 4.5, "review_count": 72, "is_open": 0}, "01cFftHZc98jNJfJrLEJ5g": {"name": "Hookmeup Gourmet Sandwiches", "latitude": 33.3066645, "longitude": -111.9799023, "address": "15425 S 48th St, Ste 116", "city": "Phoenix", "state": "AZ", "stars": 4.5, "review_count": 149, "is_open": 0}, "AZQ6eiVqhMalpVL9Bbq6Iw": {"name": "Noble Eatery", "latitude": 33.502741, "longitude": -112.029837, "address": "4525 N 24th St", "city": "Phoenix", "state": "AZ", "stars": 4.5, "review_count": 185, "is_open": 1}, "cIRZU99i82ReJxCqhgXc5g": {"name": "Nana Tee's Hometown Dogs", "latitude": 33.5982609415, "longitude": -112.1508913901, "address": "4212 W Cactus Rd, Ste 1107", "city": "Phoenix", "state": "AZ", "stars": 4.5, "review_count": 57, "is_open": 0}, "9MVKjEMN5T59uzG1xoD2BQ": {"name": "Cocina Madrigal", "latitude": 33.4087672, "longitude": -112.0473809, "address": "4044 S 16th St", "city": "Phoenix", "state": "AZ", "stars": 5.0, "review_count": 1107, "is_open": 1}, "9AI96ikMEJv7e0WIfz0mjw": {"name": "The Phoenix Cheesesteak Co", "latitude": 33.4770071, "longitude": -112.064905, "address": "2605 N 7th St", "city": "Phoenix", "state": "AZ", "stars": 4.5, "review_count": 42, "is_open": 0}, "p4YvOzp42g3JzlXJny8F0g": {"name": "Pepe's Taco Villa", "latitude": 33.5098435, "longitude": -112.1044117, "address": "2108 W Camelback Rd", "city": "Phoenix", "state": "AZ", "stars": 4.5, "review_count": 163, "is_open": 1}, "jIzygnVmajEXYmfsBNY_Gw": {"name": "Most Wanted Taco Shop", "latitude": 33.5759159193, "longitude": -112.0660554663, "address": "9822 N 7th St, Ste 7", "city": "Phoenix", "state": "AZ", "stars": 4.5, "review_count": 573, "is_open": 0}, "_mqUzNXs_sJ1EJYgYZYszg": {"name": "The Lunch Lounge", "latitude": 33.4540409, "longitude": -111.9865761, "address": "501 N 44th St, Ste 175", "city": "Phoenix", "state": "AZ", "stars": 4.5, "review_count": 124, "is_open": 1}, "JkzqS4JDOpoHrj534rzvAA": {"name": "International House of Food", "latitude": 33.451554, "longitude": -112.090521, "address": "1402 W Van Buren St", "city": "Phoenix", "state": "AZ", "stars": 4.5, "review_count": 319, "is_open": 1}, "bBxctA7YVbZgpExmsVK7tg": {"name": "The Mix Up Bar", "latitude": 33.5044082, "longitude": -111.9691642, "address": "5200 E Camelback Rd", "city": "Phoenix", "state": "AZ", "stars": 4.5, "review_count": 39, "is_open": 1}, "aXRrMXXoAN7lawHICgmsxw": {"name": "The Dressing Room", "latitude": 33.4588117, "longitude": -112.0703636, "address": "220 E Roosevelt St", "city": "Phoenix", "state": "AZ", "stars": 4.5, "review_count": 591, "is_open": 1}, "AZdivItCJCjjc_H72dQLMA": {"name": "Maskadores Taco Shop", "latitude": 33.55346, "longitude": -112.09834, "address": "1810 West Northern Ave A2A", "city": "Phoenix", "state": "AZ", "stars": 4.5, "review_count": 94, "is_open": 1}, "I_a74zmgR-X03LsKISWPcg": {"name": "Snoh Ice Shavery", "latitude": 33.509761, "longitude": -112.060884, "address": "914 E Camelback Rd, Unit 4B", "city": "Phoenix", "state": "AZ", "stars": 4.5, "review_count": 706, "is_open": 1}, "E91zEYEGcs497aYnQlh2yg": {"name": "Berry Beet Juice Bar", "latitude": 33.305663, "longitude": -111.992242, "address": "4206 E Chandler Blvd, Ste 9", "city": "Phoenix", "state": "AZ", "stars": 4.5, "review_count": 63, "is_open": 1}, "-ot4Xd6GxSUOqwUj7okZuA": {"name": "Lucky's Burgers & Shakes", "latitude": 33.612328, "longitude": -112.0992761, "address": "13849 N 19th Ave", "city": "Phoenix", "state": "AZ", "stars": 4.5, "review_count": 234, "is_open": 1}, "erpMXkhBRNAwfXYfqIaC6Q": {"name": "Sushi Bros", "latitude": 33.5657923, "longitude": -112.0991561, "address": "8841 N 19th Ave", "city": "Phoenix", "state": "AZ", "stars": 4.5, "review_count": 159, "is_open": 1}, "EIL41z-hvVCeYHqfA9PyWQ": {"name": "EarlyBaker", "latitude": 33.303165, "longitude": -111.995226, "address": "4025 E Chandler Blvd", "city": "Phoenix", "state": "AZ", "stars": 4.5, "review_count": 299, "is_open": 1}, "2DUdvdQE8FOxCHHp59HHzw": {"name": "Bertha's Caf\u00e9", "latitude": 33.4958205544, "longitude": -112.0146683135, "address": "3134 E Indian School Rd", "city": "Phoenix", "state": "AZ", "stars": 4.5, "review_count": 415, "is_open": 1}, "CtcKNbcuDTuRREzYaUDdtQ": {"name": "Love Acai Bowls", "latitude": 33.5058503, "longitude": -112.0567192, "address": "4700 N 12St", "city": "Phoenix", "state": "AZ", "stars": 4.5, "review_count": 49, "is_open": 1}, "KOJvBY-nS3LObzl6lCF56A": {"name": "RKDA Kitchen", "latitude": 33.4953739, "longitude": -111.9958978, "address": "3950 E Indian School Rd, Ste 140", "city": "Phoenix", "state": "AZ", "stars": 4.5, "review_count": 22, "is_open": 1}, "pnh86QLP4XpUiSkYRMkR-w": {"name": "My Goodness Cakes", "latitude": 33.6790557, "longitude": -112.0300781, "address": "21043 N Cave Creek Rd", "city": "Phoenix", "state": "AZ", "stars": 4.5, "review_count": 68, "is_open": 1}, "cq6SQkWKVT3TH-6YzGFn4g": {"name": "George's Famous Gyros & Pasta", "latitude": 33.6702268, "longitude": -112.1181045, "address": "20206 N 27th Ave", "city": "Phoenix", "state": "AZ", "stars": 4.5, "review_count": 218, "is_open": 1}, "hTsZSiftorNUFb1VaHCHHg": {"name": "Nook Kitchen", "latitude": 33.4948896858, "longitude": -112.0029784036, "address": "4231 E Indian School Rd", "city": "Phoenix", "state": "AZ", "stars": 4.5, "review_count": 446, "is_open": 1}, "AyZePvrWz73d3B0hafFCKA": {"name": "JT's Bar & Grill", "latitude": 33.494204, "longitude": -111.976613, "address": "4829 E Indian School Rd", "city": "Phoenix", "state": "AZ", "stars": 4.5, "review_count": 183, "is_open": 1}, "YnF2EwefB-sNd_S4xHBmGA": {"name": "b fast a cereal bar", "latitude": 33.5104431, "longitude": -112.0287274, "address": "2502 E Camelback Rd", "city": "Phoenix", "state": "AZ", "stars": 4.5, "review_count": 18, "is_open": 1}, "fbKoXozkAKDxoWg8eyQk9Q": {"name": "Sportsman's Fine Wines & Spirits", "latitude": 33.5098759, "longitude": -112.0124727, "address": "3205 E Camelback Rd", "city": "Phoenix", "state": "AZ", "stars": 4.5, "review_count": 48, "is_open": 0}, "THcAGc-Fb8gqmA1V-KvFkw": {"name": "Tortas Paquime", "latitude": 33.4520494, "longitude": -112.1246249, "address": "3024 W Van Buren St, Ste 146", "city": "Phoenix", "state": "AZ", "stars": 4.5, "review_count": 40, "is_open": 1}, "3sOS8wKatd_Uoa9VEJHhrw": {"name": "Miracle Mile Delicatessen", "latitude": 33.5017123, "longitude": -112.0472178, "address": "4433 N 16th St", "city": "Phoenix", "state": "AZ", "stars": 4.5, "review_count": 303, "is_open": 1}, "VyVIneSU7XAWgMBllI6LnQ": {"name": "Bobby Q", "latitude": 33.5610848047, "longitude": -112.115746955, "address": "8501 N 27th Ave", "city": "Phoenix", "state": "AZ", "stars": 4.5, "review_count": 3302, "is_open": 1}, "xmSWSRN_FfPBHDDNkA9pTA": {"name": "Desert Island Eatery", "latitude": 33.6388678905, "longitude": -112.1506573632, "address": "4213 W Bell Rd", "city": "Phoenix", "state": "AZ", "stars": 4.5, "review_count": 74, "is_open": 1}, "gJ93OEniOqsglQ8OAXoh1g": {"name": "Island Sensation Cuisine", "latitude": 33.4951621328, "longitude": -112.0633343607, "address": "830 E Indian School Rd", "city": "Phoenix", "state": "AZ", "stars": 4.5, "review_count": 71, "is_open": 1}, "JWjL6WTeEIdGN0vOGNO9pQ": {"name": "Glai Baan", "latitude": 33.4873016, "longitude": -112.0308466, "address": "2333 E Osborn Rd", "city": "Phoenix", "state": "AZ", "stars": 4.5, "review_count": 456, "is_open": 1}, "cO3m54wXVDJW8ryy_2wpBQ": {"name": "Antojitos Mi Pueblo Restaurant", "latitude": 33.567213, "longitude": -112.081629, "address": "505 W Dunlap Ave, Ste H", "city": "Phoenix", "state": "AZ", "stars": 4.5, "review_count": 29, "is_open": 1}, "j-3kj1ZCKINyqRVHbWHv3Q": {"name": "Little Miss BBQ - Sunnyslope", "latitude": 33.5663636723, "longitude": -112.0648006554, "address": "8901 N 7th St", "city": "Phoenix", "state": "AZ", "stars": 4.5, "review_count": 415, "is_open": 1}, "pCWg4B0R5gauQR4SJ9VDmw": {"name": "Stumpy's Pizza & Subs", "latitude": 33.5528379673, "longitude": -112.0535259189, "address": "1331 E Northern Ave", "city": "Phoenix", "state": "AZ", "stars": 4.5, "review_count": 302, "is_open": 1}, "BVnnBn3oxVc2FKCU2tqUAg": {"name": "Thai Recipe Bistro", "latitude": 33.4727173, "longitude": -112.0656616, "address": "2234 N 7th St, Ste 105", "city": "Phoenix", "state": "AZ", "stars": 4.5, "review_count": 157, "is_open": 1}, "2oQuTgkhY7QlVdfMa8cHgA": {"name": "The Cupcake Cafe", "latitude": 33.5106684, "longitude": -112.029752, "address": "", "city": "Phoenix", "state": "AZ", "stars": 5.0, "review_count": 39, "is_open": 1}, "hkmaUwfNQtFAJFpxYOHBkg": {"name": "Asahi Bakery", "latitude": 33.5251574, "longitude": -112.0482266, "address": "6056 N 16th St", "city": "Phoenix", "state": "AZ", "stars": 4.5, "review_count": 96, "is_open": 1}, "JcAfn8YTNnoAUk9nGaioSg": {"name": "Sweet Cream Donuts", "latitude": 33.4223380195, "longitude": -112.2199049592, "address": "7435 W Lower Buckeye Rd, Ste 112", "city": "Phoenix", "state": "AZ", "stars": 4.5, "review_count": 57, "is_open": 1}, "odlM0YsqEuZ_3kW44A4h_w": {"name": "Casa Corazon Restaurant", "latitude": 33.4769368, "longitude": -112.0473809, "address": "2637 N 16th St", "city": "Phoenix", "state": "AZ", "stars": 4.5, "review_count": 268, "is_open": 1}, "qaPSbg690KaX5av6xsSV4Q": {"name": "Songbird Coffee & Tea House", "latitude": 33.458999, "longitude": -112.070481, "address": "214 E Roosevelt St", "city": "Phoenix", "state": "AZ", "stars": 4.5, "review_count": 135, "is_open": 0}, "v7UIeEvwNd3fleFE6icm3A": {"name": "Tacos Culichi", "latitude": 33.4659534, "longitude": -112.0170368, "address": "3004 E McDowell Rd", "city": "Phoenix", "state": "AZ", "stars": 4.5, "review_count": 215, "is_open": 1}, "aWX_-QFMjlBD50zu2Mww7w": {"name": "Seydi's Pupuseria & Grill", "latitude": 33.6270503, "longitude": -112.0250479, "address": "2625 E Greenway Pkwy, Ste 107", "city": "Phoenix", "state": "AZ", "stars": 5.0, "review_count": 29, "is_open": 1}, "y1-FeVRdx0GhgtZKWghKXA": {"name": "Tortas Manny", "latitude": 33.3913622693, "longitude": -112.0830704667, "address": "845 W Southern Ave", "city": "Phoenix", "state": "AZ", "stars": 5.0, "review_count": 73, "is_open": 1}, "ymtJtXwsJUClLNDepV1piQ": {"name": "The Capital Grille", "latitude": 33.51023428, "longitude": -112.0272009918, "address": "2502 E Camelback Rd", "city": "Phoenix", "state": "AZ", "stars": 4.5, "review_count": 486, "is_open": 1}, "Pg1QSXTtgSYFTdWzK72Wkw": {"name": "Zookz Sandwiches", "latitude": 33.448636, "longitude": -112.072148, "address": "One North 1st St", "city": "Phoenix", "state": "AZ", "stars": 4.5, "review_count": 85, "is_open": 1}, "fEUsAP6znkde43BYNoxLvQ": {"name": "Rise Craft Coffee + Eatery", "latitude": 33.4583338762, "longitude": -112.0676829251, "address": "918 N 5th St", "city": "Phoenix", "state": "AZ", "stars": 5.0, "review_count": 34, "is_open": 0}, "9IIhExGT0f6x26hTjyBbrw": {"name": "Veggie Village", "latitude": 33.5527294, "longitude": -112.0547048, "address": "1255 E Northern Ave", "city": "Phoenix", "state": "AZ", "stars": 4.5, "review_count": 310, "is_open": 1}, "scoJNOqcw2peNlO31UYTaA": {"name": "Pizza People Food Truck", "latitude": 33.4588800976, "longitude": -112.0679819584, "address": "1326 N Central Ave", "city": "Phoenix", "state": "AZ", "stars": 4.5, "review_count": 37, "is_open": 0}, "2Yq-Y-tDroP7mdDfcWJLCQ": {"name": "Tacos Atoyac", "latitude": 33.53864, "longitude": -112.098273, "address": "1830 W Glendale Ave", "city": "Phoenix", "state": "AZ", "stars": 4.5, "review_count": 318, "is_open": 0}, "yb7ZtgMWSZboG_sSUx9g2A": {"name": "Fuego Taco Shop", "latitude": 33.641031, "longitude": -112.018653, "address": "2948 E Bell Rd, Ste 102", "city": "Phoenix", "state": "AZ", "stars": 4.5, "review_count": 176, "is_open": 1}, "sVv9E7PrAMPD9zjSHj21XA": {"name": "Restaurant Atoyac Estilo Oaxaca", "latitude": 33.5388772, "longitude": -112.0986365, "address": "1830 W Glendale Ave", "city": "Phoenix", "state": "AZ", "stars": 4.5, "review_count": 112, "is_open": 1}, "DaVTuhzi6EgWStb2eAjNjA": {"name": "Presidio Cocina Mexicana", "latitude": 33.4799789, "longitude": -112.0812875, "address": "519 W Thomas Rd", "city": "Phoenix", "state": "AZ", "stars": 4.5, "review_count": 692, "is_open": 1}, "baIT89GubjGJV1mpn82Eeg": {"name": "Liyuen", "latitude": 33.432961, "longitude": -112.0827313, "address": "1602 S 7th Ave", "city": "Phoenix", "state": "AZ", "stars": 4.5, "review_count": 95, "is_open": 1}, "sjiTzC2aoy13iPuIvk37Ew": {"name": "Jet's Pizza", "latitude": 33.585989, "longitude": -111.976791, "address": "10855 N Tatum Blvd", "city": "Phoenix", "state": "AZ", "stars": 4.5, "review_count": 134, "is_open": 1}, "ZVtjS8Hvq2a6SxHxlehPGg": {"name": "L'Amore Italian Restaurant", "latitude": 33.5308313643, "longitude": -112.0133682193, "address": "3159 E Lincoln Dr", "city": "Phoenix", "state": "AZ", "stars": 4.5, "review_count": 282, "is_open": 1}, "O4kYogia0fbF85pCX10XiA": {"name": "Koi Poke - Arcadia", "latitude": 33.4953953, "longitude": -111.9894653, "address": "4280 E Indian School, Ste 108", "city": "Phoenix", "state": "AZ", "stars": 5.0, "review_count": 144, "is_open": 1}, "08_PxnpSJO4Rxt05EYaAxg": {"name": "D'licious Dishes", "latitude": 33.516464, "longitude": -112.0823359, "address": "5345 N 7th Ave", "city": "Phoenix", "state": "AZ", "stars": 4.5, "review_count": 45, "is_open": 0}, "WK6uBV2eSqb2wwEwXoFfNg": {"name": "Base Pizzeria", "latitude": 33.5301735, "longitude": -112.0142671, "address": "3115 E Lincoln Dr", "city": "Phoenix", "state": "AZ", "stars": 4.5, "review_count": 310, "is_open": 1}, "CCs5domumJRZ3-Blpt8jTw": {"name": "DeNora's Ristorante", "latitude": 33.6383054, "longitude": -111.9794686, "address": "4727 E Bell Rd, Ste 59", "city": "Phoenix", "state": "AZ", "stars": 4.5, "review_count": 49, "is_open": 0}, "L1PvCe7_Se0nZVWgnm0jJQ": {"name": "Arizona Matsuri", "latitude": 33.4501878093, "longitude": -112.0662320352, "address": "115 N 6th St", "city": "Phoenix", "state": "AZ", "stars": 4.5, "review_count": 43, "is_open": 1}, "w6dNSvbLNdYkwp1xwYj6Pg": {"name": "Elie's Deli", "latitude": 33.4804959, "longitude": -111.9842703, "address": "4502 E Thomas Rd", "city": "Phoenix", "state": "AZ", "stars": 4.5, "review_count": 31, "is_open": 0}, "tU90S8KAgeg_2dZQeYfg0w": {"name": "Sunrise Donuts", "latitude": 33.3789419421, "longitude": -112.1346091984, "address": "3536 W Baseline Rd", "city": "Phoenix", "state": "AZ", "stars": 4.5, "review_count": 157, "is_open": 1}, "9vub2LM7Djy8P-LPumcLXA": {"name": "Tacos Chiwas", "latitude": 33.465551, "longitude": -112.0401151, "address": "1923 E Mcdowell Rd", "city": "Phoenix", "state": "AZ", "stars": 4.5, "review_count": 584, "is_open": 1}, "0N2y8rNxbet6p4UIBWTOrw": {"name": "King Gyros", "latitude": 33.610383, "longitude": -112.149143, "address": "4243 W Thunderbird Rd", "city": "Phoenix", "state": "AZ", "stars": 4.5, "review_count": 258, "is_open": 1}, "sh69ApUyPhAltAMpv5vX3w": {"name": "Barrio Cafe Gran Reserva", "latitude": 33.4571858, "longitude": -112.0899275, "address": "1301 W Grand Ave, Ste 1", "city": "Phoenix", "state": "AZ", "stars": 4.5, "review_count": 143, "is_open": 1}, "4RV97YE8VEw05tu0WO425g": {"name": "La Frontera", "latitude": 33.4507518, "longitude": -112.0475267, "address": "209 N 16th St", "city": "Phoenix", "state": "AZ", "stars": 4.5, "review_count": 124, "is_open": 1}, "5MNYCmCtpBboglFmrjU6yw": {"name": "R.Kidd's Pizza & Wings", "latitude": 33.5378531129, "longitude": -112.1329586921, "address": "3415 W Glendale Ave", "city": "Phoenix", "state": "AZ", "stars": 4.5, "review_count": 87, "is_open": 1}, "-bMZCfTK7fxFaURynKpBMA": {"name": "Mariscos Playa Hermosa", "latitude": 33.4575148, "longitude": -112.0472939, "address": "1605 E Garfield Rd", "city": "Phoenix", "state": "AZ", "stars": 4.5, "review_count": 687, "is_open": 1}, "XHnE__Oec_KDfGTJ7jrIpg": {"name": "Valley Wings", "latitude": 33.6259032, "longitude": -112.1001269, "address": "15414 N 19th Ave", "city": "Phoenix", "state": "AZ", "stars": 4.5, "review_count": 282, "is_open": 1}, "-Ma5JqzuI_3xIAtpNJfQ2g": {"name": "Krachai Thai Kitchen", "latitude": 33.6248454, "longitude": -112.1310521, "address": "3361 W Greenway Rd", "city": "Phoenix", "state": "AZ", "stars": 4.5, "review_count": 255, "is_open": 1}, "2z7xERz1Nonyw8Kjr4SffA": {"name": "Santa Madre Taco Shop", "latitude": 33.4798711653, "longitude": -111.9831179532, "address": "4539 E Thomas Rd, Ste 105", "city": "Phoenix", "state": "AZ", "stars": 4.5, "review_count": 127, "is_open": 0}, "sLKpRaFns5Uqw1IEzK6obA": {"name": "Z's Greek", "latitude": 33.495396, "longitude": -111.9940516, "address": "4026 E Indian School Rd", "city": "Phoenix", "state": "AZ", "stars": 4.5, "review_count": 482, "is_open": 1}, "3BYLel7hPVEXzzVSHHEwHA": {"name": "Aioli Gourmet Burgers and Catering Food Truck", "latitude": 33.5839018, "longitude": -112.0141794, "address": "10652 N 32nd St", "city": "Phoenix", "state": "AZ", "stars": 4.5, "review_count": 136, "is_open": 1}, "93ZUDaQQ_QLZ0G5ARjp2DA": {"name": "Lakeside Hideout Cafe", "latitude": 33.588863, "longitude": -112.1200494, "address": "11225 N 28th Dr, Ste A110", "city": "Phoenix", "state": "AZ", "stars": 4.5, "review_count": 30, "is_open": 0}, "7m1Oa1VYV98UUuo_6i0EZg": {"name": "Paradise Valley Burger Company", "latitude": 33.6399134922, "longitude": -111.9957034773, "address": "4001 E Bell Rd, Ste 102", "city": "Phoenix", "state": "AZ", "stars": 4.5, "review_count": 1370, "is_open": 1}, "e2DH7QQssuGqwLltAI5pEg": {"name": "Humphrey's Kitchen & Koffee", "latitude": 33.5072313, "longitude": -112.0307845, "address": "4742 N 24th St, Ste A-100", "city": "Phoenix", "state": "AZ", "stars": 4.5, "review_count": 23, "is_open": 1}, "NPQBXnKDzAFimQPT7SSEAw": {"name": "Pigtails Desert Ridge", "latitude": 33.6764147963, "longitude": -111.9726635381, "address": "21001 North Tatum Blvd, Ste 46-1405", "city": "Phoenix", "state": "AZ", "stars": 4.5, "review_count": 68, "is_open": 1}, "rnCrmDHCquJwPY9T292l9A": {"name": "Andes Peruvian Cuisine", "latitude": 33.5258291719, "longitude": -112.1160001749, "address": "6025 N 27th Ave, Ste 24", "city": "Phoenix", "state": "AZ", "stars": 4.5, "review_count": 53, "is_open": 1}, "_O2_jwNT_3FDaSRZ50jvrw": {"name": "The Joy Bus Diner", "latitude": 33.5820979, "longitude": -112.0086535, "address": "3375 E Shea Blvd, C1", "city": "Phoenix", "state": "AZ", "stars": 4.5, "review_count": 246, "is_open": 1}, "xJ7UfCqbWHRB4vaIiy5PEw": {"name": "Huss Brewing Company - Uptown Taproom", "latitude": 33.510505, "longitude": -112.071786, "address": "100 E Camelback Rd, Ste 160", "city": "Phoenix", "state": "AZ", "stars": 4.5, "review_count": 120, "is_open": 1}, "YliuB9NstrE-aUnUtdw1fw": {"name": "The Rocket", "latitude": 33.4356447571, "longitude": -111.997907966, "address": "3400 E Sky Harbor Blvd", "city": "Phoenix", "state": "AZ", "stars": 4.5, "review_count": 28, "is_open": 1}, "wWDNwNb6ygJorKujOuifhA": {"name": "Forno 301", "latitude": 33.466177, "longitude": -112.0741848, "address": "1616 N Central Ave, Ste 104", "city": "Phoenix", "state": "AZ", "stars": 4.5, "review_count": 526, "is_open": 1}, "aXiXvy5cBMeb6m2j7WFuzg": {"name": "Helio Basin Brewing", "latitude": 33.4796672, "longitude": -111.9963984, "address": "3935 E Thomas Rd", "city": "Phoenix", "state": "AZ", "stars": 4.5, "review_count": 321, "is_open": 1}, "h6cCARL_ngx7OM1NEu1E_g": {"name": "Zookz Sandwiches", "latitude": 33.436252, "longitude": -111.995005, "address": "4000 E Sky Harbor Blvd, Gate B9 in terminal 4 of Sky Harbor Airport", "city": "Phoenix", "state": "AZ", "stars": 4.5, "review_count": 28, "is_open": 1}, "FwDthqY_Iy0Up0cpTP0AKg": {"name": "Nana Pancha's", "latitude": 33.481353, "longitude": -112.134644, "address": "2928 N 35th Ave, Ste 6", "city": "Phoenix", "state": "AZ", "stars": 4.5, "review_count": 21, "is_open": 1}, "_nmOWqgx_KdLrj5pehDQmg": {"name": "Pak Afghan Halal Restaurant & Catering", "latitude": 33.467014, "longitude": -111.995926, "address": "1638 N 40th St", "city": "Phoenix", "state": "AZ", "stars": 4.5, "review_count": 21, "is_open": 0}, "M0s6fObJ_nVk_ROjGnDU9w": {"name": "The Bar", "latitude": 33.4960222, "longitude": -112.0140681, "address": "3174 E Indian School Rd", "city": "Phoenix", "state": "AZ", "stars": 4.5, "review_count": 128, "is_open": 1}, "6nbmlMVmbifIjrEEbCaA6w": {"name": "Old Town Sarajevo", "latitude": 33.5527211, "longitude": -112.1326356, "address": "3411 W Northern Ave, Ste B", "city": "Phoenix", "state": "AZ", "stars": 4.5, "review_count": 335, "is_open": 1}, "gaVbK3SlRnOAWWVyyu3SVA": {"name": "The Great Dane Restaurant", "latitude": 33.52812, "longitude": -112.0646901, "address": "6219 N 7th St", "city": "Phoenix", "state": "AZ", "stars": 4.5, "review_count": 51, "is_open": 0}, "IZFODW0fifph9urOnl6pGQ": {"name": "King Coffee Roastery", "latitude": 33.6556242692, "longitude": -112.0118272305, "address": "3230 E Union Hills Dr, Ste B135", "city": "Phoenix", "state": "AZ", "stars": 4.5, "review_count": 77, "is_open": 1}, "7fPMKpEOH-uNnUd0OoSwdg": {"name": "Gyrosology", "latitude": 33.6263076134, "longitude": -112.0662461618, "address": "15414 N 7th St", "city": "Phoenix", "state": "AZ", "stars": 4.5, "review_count": 33, "is_open": 0}, "vUgCHg2pWUrbg_xrJZz6Lg": {"name": "Desert Donuts", "latitude": 33.7998688808, "longitude": -112.1276474257, "address": "3134 W Carefree Hwy, Ste A-10", "city": "Phoenix", "state": "AZ", "stars": 4.5, "review_count": 276, "is_open": 1}, "U1ZVgF-kfkvv_rcoe0RglQ": {"name": "Pho Noodles", "latitude": 33.4887595, "longitude": -112.0824018416, "address": "3417 N 7th Ave", "city": "Phoenix", "state": "AZ", "stars": 4.5, "review_count": 303, "is_open": 1}, "NASjUYKkz6l7hQLxMf2lqg": {"name": "Chanpen Thai Cuisine", "latitude": 33.406733, "longitude": -112.022428, "address": "2727 E Broadway Rd", "city": "Phoenix", "state": "AZ", "stars": 4.5, "review_count": 764, "is_open": 1}, "PZqLTvbh9IV10Q8Efhv2Vw": {"name": "The Plaza Bistro & Catering", "latitude": 33.594688, "longitude": -111.9793567, "address": "11811 N Tatum Blvd, Ste P108", "city": "Phoenix", "state": "AZ", "stars": 4.5, "review_count": 18, "is_open": 0}, "TIP1ZWjhAoJwpsNmpneAiQ": {"name": "Mission Possible Cafe / A Nonprofit Restaurant", "latitude": 33.451557118, "longitude": -112.0917823303, "address": "1516 W Van Buren St", "city": "Phoenix", "state": "AZ", "stars": 4.5, "review_count": 43, "is_open": 1}, "aIZQF2UCLv6ru-zsPK4H2Q": {"name": "Texas BBQ House", "latitude": 33.3999797, "longitude": -112.0294119, "address": "5037 S 24th St", "city": "Phoenix", "state": "AZ", "stars": 4.5, "review_count": 394, "is_open": 1}, "xcx14p_JBRqsLGq2NxkuAA": {"name": "XO Confections", "latitude": 33.5833225, "longitude": -112.1087973, "address": "2320 W Peoria Ave, Ste A103", "city": "Phoenix", "state": "AZ", "stars": 4.5, "review_count": 32, "is_open": 1}, "N-tpz2XtAPreL5wnFjKGwA": {"name": "La Villa DF", "latitude": 33.555101, "longitude": -112.118088, "address": "8032 N 27th Ave", "city": "Phoenix", "state": "AZ", "stars": 4.5, "review_count": 35, "is_open": 1}, "in3zjiaLpNzr9G3K35gAJQ": {"name": "Vincent Market Bistro", "latitude": 33.5102829, "longitude": -111.9962639, "address": "3930 E Camelback Rd", "city": "Phoenix", "state": "AZ", "stars": 4.5, "review_count": 205, "is_open": 1}, "iUYAqWKoBdHqYNMDzOXb9w": {"name": "Mi Comida Restaurante Latino", "latitude": 33.6386543369, "longitude": -112.149860578, "address": "4221 W Bell Rd", "city": "Phoenix", "state": "AZ", "stars": 4.5, "review_count": 187, "is_open": 0}, "csy-xJWM68SXabizUIhucA": {"name": "Little Cleo's Seafood Legend", "latitude": 33.519577, "longitude": -112.065351, "address": "5632 N 7th St, Ste 120", "city": "Phoenix", "state": "AZ", "stars": 4.5, "review_count": 368, "is_open": 0}, "SWDxTrwU_qlEcJp36IYquw": {"name": "Cuban Foods Bakery & Restaurant", "latitude": 33.5834916, "longitude": -112.1508229, "address": "10649 N 43rd Ave", "city": "Phoenix", "state": "AZ", "stars": 4.5, "review_count": 285, "is_open": 1}, "WNe-j0R69GFQ1vgipxTD5Q": {"name": "Bri", "latitude": 33.471983, "longitude": -112.0648, "address": "2221 N 7th St", "city": "Phoenix", "state": "AZ", "stars": 4.5, "review_count": 70, "is_open": 1}, "GWaS_XugSFzw1g8SEbpmHQ": {"name": "Habbouz Tunisian Cuisine", "latitude": 33.5517339, "longitude": -112.1169976, "address": "7816 N 27th Ave", "city": "Phoenix", "state": "AZ", "stars": 4.5, "review_count": 58, "is_open": 0}, "gTKeGz7nHb0Qz-6CrFs7jA": {"name": "Coneheads", "latitude": 33.639834, "longitude": -112.0278383, "address": "2515 E Bell Rd", "city": "Phoenix", "state": "AZ", "stars": 5.0, "review_count": 34, "is_open": 0}, "aNoJLiE3RGalv0WZU3jpZA": {"name": "Poke Bar", "latitude": 33.6667264881, "longitude": -112.1233829019, "address": "3009 W Agua Fria Fwy, Ste 3", "city": "Phoenix", "state": "AZ", "stars": 4.5, "review_count": 99, "is_open": 1}, "U5Ow3ffmrG4MmTZLK6jd-g": {"name": "Soup & Sausage Bistro", "latitude": 33.6068355, "longitude": -112.0656616, "address": "13240 N 7th St", "city": "Phoenix", "state": "AZ", "stars": 5.0, "review_count": 172, "is_open": 1}, "EDcZRvERC22Cvw1yi4-VKg": {"name": "The Sicilian Butcher", "latitude": 33.627245, "longitude": -111.9784718, "address": "15530 N Tatum Blvd, Ste 160", "city": "Phoenix", "state": "AZ", "stars": 4.5, "review_count": 1485, "is_open": 1}, "mBdm6in8L0UvtAN-Gv7dcg": {"name": "Nogales Hot Dogs", "latitude": 33.494335, "longitude": -112.0391149, "address": "1945 E Indian School Rd", "city": "Phoenix", "state": "AZ", "stars": 4.5, "review_count": 167, "is_open": 1}, "FogTa-wmjhVnJCoTiaxvZA": {"name": "Postino Central", "latitude": 33.5126623, "longitude": -112.0740684, "address": "5144 N Central Ave", "city": "Phoenix", "state": "AZ", "stars": 4.5, "review_count": 1137, "is_open": 1}, "OmJ0z1Vu0prxkfTROQ5KwQ": {"name": "Cafe Cultivate", "latitude": 33.4462827, "longitude": -111.9733949, "address": "5025 E Washington St", "city": "Phoenix", "state": "AZ", "stars": 5.0, "review_count": 27, "is_open": 1}, "1s8Zu9irOTZtW88ca9P41Q": {"name": "Cafe Chenar", "latitude": 33.6395204, "longitude": -112.047311, "address": "1601 E Bell Rd, Ste A-11", "city": "Phoenix", "state": "AZ", "stars": 4.5, "review_count": 74, "is_open": 1}, "5V8O-vas5A4XGWqxsJ7GBg": {"name": "The Farish House", "latitude": 33.45719, "longitude": -112.07025, "address": "816 N 3rd St", "city": "Phoenix", "state": "AZ", "stars": 4.5, "review_count": 70, "is_open": 1}, "evdJO0v9rvVixieNEnaeJg": {"name": "Sushiholic", "latitude": 33.5090124, "longitude": -111.9958297, "address": "3957 E Camelback Rd", "city": "Phoenix", "state": "AZ", "stars": 4.5, "review_count": 700, "is_open": 1}, "H_8s_q1voT45Dg45XN5Naw": {"name": "Phoenix Coqui", "latitude": 33.4960031584, "longitude": -112.083173655, "address": "4129 N 7th Ave", "city": "Phoenix", "state": "AZ", "stars": 5.0, "review_count": 38, "is_open": 1}, "XF4w6wG1JOvfKZlQcxiWgQ": {"name": "1000 Degrees Neapolitan Pizzeria", "latitude": 33.656186, "longitude": -111.929274, "address": "7000 E Mayo Blvd", "city": "Phoenix", "state": "AZ", "stars": 4.5, "review_count": 197, "is_open": 0}, "zSicVxnJHV8indit0oFuNw": {"name": "South Mountain Cafe", "latitude": 33.394654, "longitude": -112.0738511, "address": "5630 S Central Ave", "city": "Phoenix", "state": "AZ", "stars": 4.5, "review_count": 74, "is_open": 0}, "E7wKP-BVnWlxnbQM3StOxg": {"name": "Mod", "latitude": 33.4799742, "longitude": -112.0745109, "address": "2828 N Central Ave, Ste 100", "city": "Phoenix", "state": "AZ", "stars": 4.5, "review_count": 22, "is_open": 1}, "_e3rChyednoh47n2cjGv2w": {"name": "Adela's Italian Restaurant", "latitude": 33.4798522483, "longitude": -111.9939477876, "address": "4041 E Thomas Rd, Ste 107", "city": "Phoenix", "state": "AZ", "stars": 4.5, "review_count": 414, "is_open": 1}, "rnvsL0oFZpzpO61GXqBF6g": {"name": "Reign Of Thai", "latitude": 33.5960143, "longitude": -112.0392596, "address": "12032 Cave Creek Rd", "city": "Phoenix", "state": "AZ", "stars": 4.5, "review_count": 440, "is_open": 1}, "WR2J_AufGGdPrJobNb5GHw": {"name": "Aji Spa", "latitude": 33.2665198, "longitude": -111.99188, "address": "5594 W Wild Horse Pass Blvd", "city": "Phoenix", "state": "AZ", "stars": 4.5, "review_count": 98, "is_open": 1}, "OugQjN04sQNahWzYEdTExQ": {"name": "Cheese N Stuff", "latitude": 33.5102286, "longitude": -112.0741357, "address": "5042 N Central Ave", "city": "Phoenix", "state": "AZ", "stars": 4.5, "review_count": 130, "is_open": 1}, "ZZegUx6pEhjglihlOgyGiA": {"name": "Authentic Ethio African", "latitude": 33.4659491565, "longitude": -112.0438096799, "address": "1740 E McDowell Rd", "city": "Phoenix", "state": "AZ", "stars": 4.5, "review_count": 119, "is_open": 1}, "3dsvREiTlmGaaBjsBS4dwQ": {"name": "The Collins Small Batch Kitchen", "latitude": 33.5113073, "longitude": -112.0141675, "address": "3160 E Camelback Rd", "city": "Phoenix", "state": "AZ", "stars": 4.5, "review_count": 260, "is_open": 1}, "-ZBfr1BHvArFp1d6XH8jOQ": {"name": "Rocket Burger & Subs", "latitude": 33.5958365, "longitude": -112.134591, "address": "12038 N 35th Ave", "city": "Phoenix", "state": "AZ", "stars": 4.5, "review_count": 837, "is_open": 1}, "7s8ripk5sBM4psK_Za5GyQ": {"name": "Caribbean Market Place", "latitude": 33.553509, "longitude": -112.14994, "address": "4220 W Northern Ave, Ste 104", "city": "Phoenix", "state": "AZ", "stars": 4.5, "review_count": 27, "is_open": 0}, "Er2XAYN8l1BadlYFwiPb9g": {"name": "AZ Kabob House", "latitude": 33.6579412692, "longitude": -111.9319458917, "address": "7000 E Mayo Blvd, Ste 1060", "city": "Phoenix", "state": "AZ", "stars": 4.5, "review_count": 389, "is_open": 1}, "9umA26_aWjEuVe4QW7axtw": {"name": "Paradise Valley Pizza Company", "latitude": 33.639843, "longitude": -111.995474, "address": "4001 East Bell Rd", "city": "Phoenix", "state": "AZ", "stars": 4.5, "review_count": 126, "is_open": 1}}