{"QWsykEGl2ZxZDTKhN5RYGQ": {"name": "Sergio's Landscaping & Lawn Service", "latitude": 33.6140463489, "longitude": -112.1418406069, "address": "14022 N 38th Dr", "city": "Phoenix", "state": "AZ", "stars": 4.5, "review_count": 20, "is_open": 1}, "LOiEPisiSP4Ljcjcg_bW6A": {"name": "Gary the Handyman Guy", "latitude": 33.6272938, "longitude": -112.0893682, "address": "", "city": "Phoenix", "state": "AZ", "stars": 4.5, "review_count": 21, "is_open": 1}, "JO4sPU5rd1Fa-B0aaycUXg": {"name": "Swedish Auto Werks", "latitude": 33.608604, "longitude": -112.0364, "address": "13402 N Cave Creek Rd", "city": "Phoenix", "state": "AZ", "stars": 4.5, "review_count": 26, "is_open": 1}, "Jr1_Pt8TQihTISYc5RbKtw": {"name": "Saenz Cleaning", "latitude": 33.6364503, "longitude": -112.0118669, "address": "", "city": "Phoenix", "state": "AZ", "stars": 5.0, "review_count": 29, "is_open": 1}, "W3HI9tfQ8DAAJdkVWz5dQw": {"name": "Phoenix Carpet Repair & Cleaning", "latitude": 33.3754, "longitude": -112.076, "address": "115 W Beautiful Ln", "city": "Phoenix", "state": "AZ", "stars": 5.0, "review_count": 111, "is_open": 1}, "XrHMEtGoqEu59V1VNLH0vQ": {"name": "Patterson Roofing", "latitude": 33.5106684, "longitude": -112.029752, "address": "", "city": "Phoenix", "state": "AZ", "stars": 4.5, "review_count": 31, "is_open": 1}, "-AHS68n6wkMuQrx3bH839w": {"name": "Sunscreens By Mark", "latitude": 33.6756042431, "longitude": -112.1038430995, "address": "20817 N 21st Ave, Ste 15", "city": "Phoenix", "state": "AZ", "stars": 4.5, "review_count": 22, "is_open": 1}, "HKCGlqLNzHJLtFKD7qUVww": {"name": "Crystal Clear View Glass", "latitude": 33.4835192, "longitude": -112.1317041, "address": "3355 W Earll Dr", "city": "Phoenix", "state": "AZ", "stars": 4.5, "review_count": 72, "is_open": 1}, "lsHmnOZNlsKnEDsNmT-5_Q": {"name": "American Home Water & Air", "latitude": 33.6871466, "longitude": -112.1117839, "address": "22047 N Black Canyon Hwy", "city": "Phoenix", "state": "AZ", "stars": 5.0, "review_count": 340, "is_open": 1}, "sr7jtrZHnF_MedBF8dDigQ": {"name": "Max Piano Moving", "latitude": 33.438948, "longitude": -111.800736, "address": "", "city": "Phoenix", "state": "AZ", "stars": 5.0, "review_count": 39, "is_open": 1}, "P9C8HsVb14MKCqNy1ZJibA": {"name": "Porterhouse Home Inspections", "latitude": 33.2761422, "longitude": -112.28609, "address": "", "city": "Phoenix", "state": "AZ", "stars": 5.0, "review_count": 39, "is_open": 1}, "DA3sIsmnr2tihk8btDzWNw": {"name": "Fan Doctor Electric", "latitude": 33.610826, "longitude": -111.9791238, "address": "13636 N Tatum Blvd, Ste 16", "city": "Phoenix", "state": "AZ", "stars": 5.0, "review_count": 43, "is_open": 1}, "sN4daHbiNIQfWW243tcujg": {"name": "Moon Valley Nursery Tree Removal", "latitude": 33.6153250929, "longitude": -112.0647858116, "address": "14025 N 7th St", "city": "Phoenix", "state": "AZ", "stars": 4.5, "review_count": 24, "is_open": 1}, "tdzRCSV_Ym3MgftaZZ3y9g": {"name": "Service King", "latitude": 33.6782379, "longitude": -112.1012912, "address": "", "city": "Phoenix", "state": "AZ", "stars": 5.0, "review_count": 48, "is_open": 1}, "NeN3rVWC1ss1MDyP72ufAA": {"name": "Paradise Tile & Natural Stone", "latitude": 33.6236386, "longitude": -111.9784285, "address": "15030 N Tatum Blvd", "city": "Phoenix", "state": "AZ", "stars": 4.5, "review_count": 41, "is_open": 1}, "konatiSHu14lkfjntSao4g": {"name": "Moving Team Six", "latitude": 33.7029281, "longitude": -112.1021734, "address": "23910 North 19th Ave, Bldg 4 Ste 62", "city": "Phoenix", "state": "AZ", "stars": 4.5, "review_count": 59, "is_open": 1}, "UQq_q7gY7j9W_26QaitTQQ": {"name": "Phoenician Garage Door & Repair", "latitude": 33.5106684, "longitude": -112.029752, "address": "", "city": "Phoenix", "state": "AZ", "stars": 5.0, "review_count": 58, "is_open": 1}, "zmQwVqciryyAilpXYd3A5w": {"name": "Whitfill Nursery", "latitude": 33.3917447, "longitude": -112.0237671, "address": "2647 E Southern Ave", "city": "Phoenix", "state": "AZ", "stars": 4.5, "review_count": 40, "is_open": 1}, "qDlyWMQN9AExQtN-vVJRrw": {"name": "M & M Glass Company", "latitude": 33.4811409, "longitude": -112.1295151, "address": "3232 W Thomas Rd", "city": "Phoenix", "state": "AZ", "stars": 4.5, "review_count": 45, "is_open": 1}, "VYqgGPB-wCG0EXdYk1qkwQ": {"name": "Jared's Fountain Repair", "latitude": 33.6368293508, "longitude": -112.0199941244, "address": "", "city": "Phoenix", "state": "AZ", "stars": 5.0, "review_count": 29, "is_open": 1}, "67HBCMwv20mciv-NbmZG0g": {"name": "Capstone Realty Professionals", "latitude": 33.4656476327, "longitude": -112.0507008942, "address": "1425 E McDowell Rd", "city": "Phoenix", "state": "AZ", "stars": 5.0, "review_count": 55, "is_open": 1}, "cfl8LuQ7VleSQzTnFedyDA": {"name": "Atomic Audio Video", "latitude": 33.3211123, "longitude": -111.9880199, "address": "", "city": "Phoenix", "state": "AZ", "stars": 5.0, "review_count": 49, "is_open": 1}, "-2X9U7v-Avoib-ki0y85bA": {"name": "Scottsdale Air Heating & Cooling", "latitude": 33.5062951872, "longitude": -111.9862208774, "address": "4713 N 44th St", "city": "Phoenix", "state": "AZ", "stars": 4.5, "review_count": 51, "is_open": 1}, "fMDrmUkjEcF1c-J7EhZByw": {"name": "Next Level Painters", "latitude": 33.315266879, "longitude": -112.0020961329, "address": "3625 E Ray Rd", "city": "Phoenix", "state": "AZ", "stars": 5.0, "review_count": 28, "is_open": 1}, "29jBAjC1Hkc7T-LKd_xRLA": {"name": "Barefoot Pools Pool Service & Repair", "latitude": 33.305433143, "longitude": -112.0569195794, "address": "1241 E Chandler Blvd, Ste 124", "city": "Phoenix", "state": "AZ", "stars": 4.5, "review_count": 100, "is_open": 1}, "6C5bg-Z0qoleClIBKyqSgg": {"name": "Rooter Ranger Plumbing", "latitude": 33.4869, "longitude": -112.0241, "address": "3228 N 27th St", "city": "Phoenix", "state": "AZ", "stars": 5.0, "review_count": 46, "is_open": 1}, "5t570crNb_H4YmGl_JErog": {"name": "House Doctor Exterminating", "latitude": 33.6406229, "longitude": -112.1303302, "address": "3310 W Bell Rd, Ste 232", "city": "Phoenix", "state": "AZ", "stars": 5.0, "review_count": 86, "is_open": 1}, "I4FK69Jk-4edGnISrBZzmw": {"name": "CO+HOOTS Coworking", "latitude": 33.492002, "longitude": -112.070434, "address": "221 E Indianola Ave", "city": "Phoenix", "state": "AZ", "stars": 5.0, "review_count": 37, "is_open": 1}, "OKmUAqAQH-44XS0PsS7QEg": {"name": "Mike Cook - Watermark Home Loans", "latitude": 33.5096867, "longitude": -112.0318945, "address": "2390 E Camelback Rd, Ste 130", "city": "Phoenix", "state": "AZ", "stars": 5.0, "review_count": 35, "is_open": 1}, "pJZHHRXNFobm3uFBZIR0dw": {"name": "Copper State Home Maintenance & Repair", "latitude": 33.5172667, "longitude": -112.0695739, "address": "5517 N 3rd St", "city": "Phoenix", "state": "AZ", "stars": 4.5, "review_count": 59, "is_open": 1}, "N77ZbAU_R-38OXWDaEnT2Q": {"name": "Garcia's Windows & More", "latitude": 33.48336, "longitude": -112.1435571, "address": "3906 W Avalon Dr", "city": "Phoenix", "state": "AZ", "stars": 4.5, "review_count": 97, "is_open": 1}, "5-DkRuxdG5EzmnOvf9Txpg": {"name": "Lizy Hoeffer - Guild Mortgage", "latitude": 33.5084445, "longitude": -112.0327483, "address": "2231 E Camelback Rd, Ste 205", "city": "Phoenix", "state": "AZ", "stars": 5.0, "review_count": 32, "is_open": 1}, "BIaiy9t4NyEop9lr6hMu4A": {"name": "Phoenix Bed Bug Expert", "latitude": 33.5106684, "longitude": -112.029752, "address": "", "city": "Phoenix", "state": "AZ", "stars": 5.0, "review_count": 38, "is_open": 1}, "yo-1HHMGQt1K81FcUFqZeg": {"name": "Fire By James", "latitude": 33.3337224916, "longitude": -111.9743032, "address": "5130 E Bannck St", "city": "Phoenix", "state": "AZ", "stars": 5.0, "review_count": 28, "is_open": 1}, "4zI9OsL8hY1FqVKRlU2bgA": {"name": "High Sonoran Desert Painting", "latitude": 33.3048185, "longitude": -112.0160588, "address": "3145 E Chandler Blvd, Ste 110", "city": "Phoenix", "state": "AZ", "stars": 5.0, "review_count": 91, "is_open": 1}, "dyjgOcDeHoKjcKkh_aXq9w": {"name": "Pop-A-Lock", "latitude": 33.681362, "longitude": -111.979051, "address": "4627 E Lone Cactus", "city": "Phoenix", "state": "AZ", "stars": 5.0, "review_count": 28, "is_open": 1}, "JUoT4DsL6TqX_d1kkXBg2g": {"name": "Frontier Apt Movers - Phoenix Movers", "latitude": 33.4373226, "longitude": -112.0595692, "address": "1024 E Buckeye Rd, Ste 270-A", "city": "Phoenix", "state": "AZ", "stars": 5.0, "review_count": 37, "is_open": 1}, "xu2n-8rd9VmP0k7iu2kilQ": {"name": "Pro Outdoor Services", "latitude": 33.676354, "longitude": -111.9736513, "address": "21001 N Tatum Blvd, Ste 1630-441", "city": "Phoenix", "state": "AZ", "stars": 4.5, "review_count": 28, "is_open": 1}, "NgYXQKYxOWorUIGBgF9qvg": {"name": "Arizona Turf Masters", "latitude": 33.6736119, "longitude": -112.023099, "address": "2720 E Mohawk Ln", "city": "Phoenix", "state": "AZ", "stars": 4.5, "review_count": 24, "is_open": 1}, "ri_uhKinWUEAij7EpuHumA": {"name": "Phoenix Electricians Today", "latitude": 33.6974561, "longitude": -112.096113, "address": "23309 N 17th Dr, Ste 120", "city": "Phoenix", "state": "AZ", "stars": 4.5, "review_count": 39, "is_open": 1}, "sonOwNb4iOdGjNyZIAs_Jg": {"name": "Phoenix Knife House", "latitude": 33.4941795, "longitude": -111.9763991, "address": "4837 E Indian School Rd", "city": "Phoenix", "state": "AZ", "stars": 5.0, "review_count": 69, "is_open": 1}, "KmeQRK-6Rs05S9mOu_vE-g": {"name": "Crash of Rhinos Painting", "latitude": 33.588788, "longitude": -112.1199803, "address": "11225 N 28th Dr, Ste D115A", "city": "Phoenix", "state": "AZ", "stars": 5.0, "review_count": 149, "is_open": 1}, "NEinRS0q-WZeSSVoTI7avQ": {"name": "The Water Connection", "latitude": 33.509376, "longitude": -111.996333, "address": "3929 E Camelback Rd", "city": "Phoenix", "state": "AZ", "stars": 5.0, "review_count": 33, "is_open": 1}, "_dU7qM44fhBNNwWbMNoxxQ": {"name": "Budget Movers", "latitude": 33.4924737599, "longitude": -112.1233152598, "address": "2966 W Clarendon Ave", "city": "Phoenix", "state": "AZ", "stars": 4.5, "review_count": 100, "is_open": 1}, "O1z_XasQu9EXvRwCthTwlQ": {"name": "AccuTemp Refrigeration", "latitude": 33.4478714, "longitude": -112.0112614, "address": "3231 E Washington St", "city": "Phoenix", "state": "AZ", "stars": 4.5, "review_count": 55, "is_open": 1}, "pRCuf-PRpTamG6xLXnkMqw": {"name": "Tinker Plumbing", "latitude": 33.5106684, "longitude": -112.029752, "address": "", "city": "Phoenix", "state": "AZ", "stars": 5.0, "review_count": 46, "is_open": 1}, "cFiHYk8jYtYnCuoclJizOQ": {"name": "Gonzalez Tree & Palm Tree Trimming Service", "latitude": 33.49182, "longitude": -112.222651, "address": "7545 W Clarendon Ave", "city": "Phoenix", "state": "AZ", "stars": 4.5, "review_count": 40, "is_open": 1}, "Y6SNU2q5sqk6qDDCx2NSvg": {"name": "The AC Team Heating & Cooling", "latitude": 33.5636878, "longitude": -112.0595603, "address": "", "city": "Phoenix", "state": "AZ", "stars": 5.0, "review_count": 24, "is_open": 1}, "rNqbjFk2T9sTGp-HSLDF9g": {"name": "Regal Carpet Cleaners", "latitude": 33.7079747, "longitude": -112.1062514, "address": "2150 W Alameda Rd, Ste 1349", "city": "Phoenix", "state": "AZ", "stars": 5.0, "review_count": 19, "is_open": 1}, "mduzbFMsIe71xPUq98E9Bg": {"name": "Ackerman Home Inspections", "latitude": 33.4482963, "longitude": -112.0978909, "address": "1700 W Washington", "city": "Phoenix", "state": "AZ", "stars": 5.0, "review_count": 21, "is_open": 1}, "05QyQiesTeumSdJWZw3q8w": {"name": "Arizona's Best Windows", "latitude": 33.4484960865, "longitude": -112.090549202, "address": "", "city": "Phoenix", "state": "AZ", "stars": 4.5, "review_count": 27, "is_open": 1}, "1d21FqBXngcML-lq0CjFKA": {"name": "Clean & Neat Auto Detailing", "latitude": 33.3033334, "longitude": -111.9793168, "address": "15801 S 48th St", "city": "Phoenix", "state": "AZ", "stars": 4.5, "review_count": 65, "is_open": 1}, "KPqXo9ZXSc3-WOl6oe58Og": {"name": "The Top Hatter Inc.", "latitude": 33.4160766, "longitude": -111.9969489, "address": "3401 East Thomas Rd, Ste D", "city": "Phoenix", "state": "AZ", "stars": 5.0, "review_count": 41, "is_open": 1}, "Wn632T6ReL4Kar7i4OzhYg": {"name": "Roadrunner Glass", "latitude": 33.479988, "longitude": -112.1252402, "address": "3033 W Thomas Rd", "city": "Phoenix", "state": "AZ", "stars": 4.5, "review_count": 23, "is_open": 1}, "q6qxUxlI8IXjk1EPfJij6w": {"name": "Tow AZ & Recovery", "latitude": 33.5651587, "longitude": -112.1370601, "address": "", "city": "Phoenix", "state": "AZ", "stars": 5.0, "review_count": 18, "is_open": 1}, "rjiiyvmip346Mj0_hPTlKg": {"name": "Express Garage Door Service", "latitude": 33.6272938, "longitude": -112.0893682, "address": "", "city": "Phoenix", "state": "AZ", "stars": 5.0, "review_count": 95, "is_open": 1}, "dXQ2zo174AZeHOtRoHwqEQ": {"name": "Reddi Services", "latitude": 33.4904439, "longitude": -112.124842, "address": "3025 W Weldon Ave", "city": "Phoenix", "state": "AZ", "stars": 4.5, "review_count": 158, "is_open": 1}, "bvidXzzbQmtQ76pgUYeTmQ": {"name": "Tuxedo Moving", "latitude": 33.6977456, "longitude": -112.0906412, "address": "23015 N 15th Ave, Ste 107", "city": "Phoenix", "state": "AZ", "stars": 4.5, "review_count": 46, "is_open": 1}, "r-vl6_vjT4vug7R07LQP3g": {"name": "Desert Locksmith", "latitude": 33.4636012, "longitude": -112.0535987, "address": "", "city": "Phoenix", "state": "AZ", "stars": 5.0, "review_count": 19, "is_open": 1}, "yk8fsGAw2xyEp28cm_1ejQ": {"name": "Donley Service Center", "latitude": 33.5869123, "longitude": -112.112143, "address": "11062 N 24th Ave", "city": "Phoenix", "state": "AZ", "stars": 4.5, "review_count": 38, "is_open": 1}, "0j9xr-QfxfSKHsCUaCDAug": {"name": "Homewood Suites by Hilton Phoenix North-Happy Valley", "latitude": 33.7071358036, "longitude": -112.1133987513, "address": "2470 W Charlotte Dr", "city": "Phoenix", "state": "AZ", "stars": 4.5, "review_count": 40, "is_open": 1}, "V-IGSKRmDg0sa1x1Mj19Ig": {"name": "Rooter & Plumbing Service", "latitude": 33.4663898, "longitude": -112.0656616, "address": "530 E McDowell Rd, Ste 107", "city": "Phoenix", "state": "AZ", "stars": 5.0, "review_count": 332, "is_open": 1}, "2HtDidc5JIJ4F5ThhCuXRg": {"name": "Carpet Closeouts", "latitude": 33.6290779, "longitude": -112.0313356, "address": "17442 N Cave Creek Rd", "city": "Phoenix", "state": "AZ", "stars": 5.0, "review_count": 19, "is_open": 1}, "cShLYFiF-Bp0fJrx42-knw": {"name": "Homejoy", "latitude": 33.477942, "longitude": -112.14917, "address": "125 N 2nd St, Suite 110 - 910", "city": "Phoenix", "state": "AZ", "stars": 4.5, "review_count": 112, "is_open": 0}, "Iy-8SbnmobuW8jwJWQE-kQ": {"name": "The Home Theater Doctor", "latitude": 33.5095935, "longitude": -112.0397658, "address": "1934 E Camelback Rd, Ste F120", "city": "Phoenix", "state": "AZ", "stars": 5.0, "review_count": 29, "is_open": 1}, "Q0FmQaQBh9awhA72Q837Yw": {"name": "Thomas Cary Design", "latitude": 33.7983483, "longitude": -112.0670589, "address": "515 E Carefree Hwy", "city": "Phoenix", "state": "AZ", "stars": 4.5, "review_count": 31, "is_open": 1}, "vlJcjBDlSWn8P1Xu1gxXwg": {"name": "Seneca Painting", "latitude": 33.5263573, "longitude": -112.0468736, "address": "", "city": "Phoenix", "state": "AZ", "stars": 4.5, "review_count": 18, "is_open": 1}, "fa8HUKKNT_TDE_DNlTNC2Q": {"name": "Arizona Shade Masters", "latitude": 33.6416362, "longitude": -112.0495156, "address": "1510 E Bell Rd", "city": "Phoenix", "state": "AZ", "stars": 5.0, "review_count": 26, "is_open": 1}, "MmfqdfguEgRCrugA8qed6A": {"name": "Streak Patrol", "latitude": 33.5079302, "longitude": -112.0308233, "address": "4808 N 24th St, Unit 823", "city": "Phoenix", "state": "AZ", "stars": 5.0, "review_count": 132, "is_open": 1}, "AwcNjlTqWBObQ9XXCFpg2g": {"name": "Paradise Carpet Cleaning", "latitude": 33.4499672, "longitude": -112.0702225, "address": "", "city": "Phoenix", "state": "AZ", "stars": 5.0, "review_count": 174, "is_open": 1}, "EpCseFV_ypjY9ruHRIy3pw": {"name": "Titleist Painting", "latitude": 33.4818400671, "longitude": -112.0310785958, "address": "", "city": "Phoenix", "state": "AZ", "stars": 5.0, "review_count": 21, "is_open": 1}, "19f9FWpGyH4JGM9lQ_A--g": {"name": "Valley Carpet Repair", "latitude": 33.3617789, "longitude": -112.1360061, "address": "3524 W Paseo Way", "city": "Phoenix", "state": "AZ", "stars": 5.0, "review_count": 40, "is_open": 1}, "KTI9e6Dbw5xu1zKvuKFNiQ": {"name": "Omar's Window Tinting", "latitude": 33.5098355, "longitude": -112.1052734, "address": "2130 W Camelback Rd", "city": "Phoenix", "state": "AZ", "stars": 5.0, "review_count": 106, "is_open": 1}, "QGU-pSPBgFvtZ4kACUsSIA": {"name": "Kenny's Lawn Service", "latitude": 33.6782379, "longitude": -112.1012912, "address": "", "city": "Phoenix", "state": "AZ", "stars": 4.5, "review_count": 53, "is_open": 1}, "ERfGoZcgrmF8p89FIs9_TA": {"name": "Scott Waste Services", "latitude": 33.416901, "longitude": -111.9974, "address": "3850 E Superior Ave", "city": "Phoenix", "state": "AZ", "stars": 4.5, "review_count": 41, "is_open": 1}, "lH0Ph4DiYSqj9UJBXAq8hQ": {"name": "Just-In Time Moving and Delivery", "latitude": 33.4962205, "longitude": -111.9641728, "address": "", "city": "Phoenix", "state": "AZ", "stars": 5.0, "review_count": 465, "is_open": 1}, "L-7x52DGq7qc9znqOZeSSA": {"name": "Stick To It Window Tinting", "latitude": 33.6075745, "longitude": -112.0917668, "address": "1507 West Joan De Arc Ave", "city": "Phoenix", "state": "AZ", "stars": 4.5, "review_count": 25, "is_open": 1}, "0R7VFjeiL3UbZgAdc4DO4A": {"name": "Tidy Casa", "latitude": 33.4549229, "longitude": -112.0691082, "address": "600 N 4th St, Ste 866", "city": "Phoenix", "state": "AZ", "stars": 5.0, "review_count": 203, "is_open": 1}, "-Bv0hmh3LS4XtrOOg6yFsA": {"name": "Red Rock Painting", "latitude": 33.4542571, "longitude": -112.0744727, "address": "522 N Central Ave, Ste 4466", "city": "Phoenix", "state": "AZ", "stars": 4.5, "review_count": 18, "is_open": 1}, "W_vry4AJBX69M46ftQ6KLg": {"name": "Dose Moving And Storage", "latitude": 33.6732585, "longitude": -112.0270911, "address": "2550 E Mohawk Ln, Ste 190", "city": "Phoenix", "state": "AZ", "stars": 4.5, "review_count": 69, "is_open": 1}, "WJtB_dQvkPyGzyWAjZS2TA": {"name": "Ideal Energy", "latitude": 33.421588, "longitude": -111.992037, "address": "4127 E University Dr", "city": "Phoenix", "state": "AZ", "stars": 5.0, "review_count": 69, "is_open": 1}, "cBSybP9s8w57XKySHntpZQ": {"name": "2goodplumbers", "latitude": 33.6919482, "longitude": -112.1121001, "address": "3426 E Glenrosa Ave", "city": "Phoenix", "state": "AZ", "stars": 5.0, "review_count": 26, "is_open": 1}, "61p5SFWk-sL_d-9FoRUksg": {"name": "Verde by Alliance", "latitude": 33.649645, "longitude": -111.935072, "address": "17950 N 68th St", "city": "Phoenix", "state": "AZ", "stars": 4.5, "review_count": 28, "is_open": 0}, "HJxEEWc0HU5a9OwmpClj8w": {"name": "Honest Air Care", "latitude": 33.697717, "longitude": -112.0974024, "address": "23335 N 18th Dr, Ste 142", "city": "Phoenix", "state": "AZ", "stars": 4.5, "review_count": 133, "is_open": 1}, "GfzPrvB7QSzWeEBWAZpWVQ": {"name": "Fashion Cleaners", "latitude": 33.5167109, "longitude": -112.0630767, "address": "736 E Missouri Ave", "city": "Phoenix", "state": "AZ", "stars": 4.5, "review_count": 24, "is_open": 1}, "VNl9YbyKcDk8OAkJ1nmeBQ": {"name": "Legacy Roofing", "latitude": 33.62921, "longitude": -112.169186, "address": "2501 W Behrend Dr, Ste A-5", "city": "Phoenix", "state": "AZ", "stars": 4.5, "review_count": 36, "is_open": 0}, "SbI9phUuuFPh1j3zxIvO2g": {"name": "All Pro Shade Concepts", "latitude": 33.8095882, "longitude": -112.0858751, "address": "915 W Restin Rd", "city": "Phoenix", "state": "AZ", "stars": 4.5, "review_count": 88, "is_open": 1}, "aQNocncKNywuXvCqPGy96A": {"name": "Cypress Street Plumbing", "latitude": 33.4717707, "longitude": -111.9797992, "address": "4707 E Cypress Street", "city": "Phoenix", "state": "AZ", "stars": 5.0, "review_count": 18, "is_open": 1}, "JnjXnu6A9Xb-3wm5fUyL3A": {"name": "Freddy\u2019s Fox Rooter", "latitude": 33.5083316, "longitude": -112.0565795, "address": "", "city": "Phoenix", "state": "AZ", "stars": 4.5, "review_count": 178, "is_open": 1}, "VI4ff6PtIcrkLwZwxVruwQ": {"name": "Robins Plumbing", "latitude": 33.479146, "longitude": -112.1390627, "address": "2802 N 37th Ave", "city": "Phoenix", "state": "AZ", "stars": 4.5, "review_count": 42, "is_open": 1}, "OclZP460tGH6FVo7c4dT-Q": {"name": "Blind Occasions", "latitude": 33.6163318, "longitude": -112.1129581, "address": "14254 N 24th Ln", "city": "Phoenix", "state": "AZ", "stars": 5.0, "review_count": 27, "is_open": 1}, "iNDTltptdI3PYOxxXtnyLQ": {"name": "Stell Roofing", "latitude": 33.6894856, "longitude": -112.11069, "address": "", "city": "Phoenix", "state": "AZ", "stars": 4.5, "review_count": 180, "is_open": 0}, "csRGmT0UZtcUDD3jHLygsw": {"name": "Desert Landscape Lighting", "latitude": 33.3803976, "longitude": -112.0944396, "address": "1633 W Minton St", "city": "Phoenix", "state": "AZ", "stars": 5.0, "review_count": 45, "is_open": 1}, "69X_1K-QxjEIwr1VDYnh0Q": {"name": "Berry Bros Firewood", "latitude": 33.445444, "longitude": -111.967038, "address": "5317 E Washington St", "city": "Phoenix", "state": "AZ", "stars": 4.5, "review_count": 22, "is_open": 1}, "dbAV_xL2vB6cuXvjIMlAOg": {"name": "Moon Valley Plumbing", "latitude": 33.6783599, "longitude": -112.0338041, "address": "2239 E Rose Garden Lp", "city": "Phoenix", "state": "AZ", "stars": 4.5, "review_count": 102, "is_open": 1}, "CvI3ehSaT5nHBuVNDc2S8A": {"name": "All Pro Moving Service LLC", "latitude": 33.3555014, "longitude": -111.9478674, "address": "600 W Grove Pkwy", "city": "Phoenix", "state": "AZ", "stars": 4.5, "review_count": 30, "is_open": 1}, "Kqm5SDyJDFHE-ZGI8yLWkA": {"name": "Arc Electrical", "latitude": 33.4869478, "longitude": -111.998294, "address": "3836 E Mulberry Dr", "city": "Phoenix", "state": "AZ", "stars": 5.0, "review_count": 50, "is_open": 1}, "8XUyss7r1or5HxuIlWK2ZQ": {"name": "The Repair Guys", "latitude": 33.6272767, "longitude": -111.9952466, "address": "4022 E Greenway Rd, Ste 11147", "city": "Phoenix", "state": "AZ", "stars": 5.0, "review_count": 96, "is_open": 1}, "QUQAxpzjx0A7_aMpwEIdpg": {"name": "House Spouse", "latitude": 33.3211123, "longitude": -111.9880199, "address": "", "city": "Phoenix", "state": "AZ", "stars": 4.5, "review_count": 29, "is_open": 1}, "xQRwbnVfiHCtkTkGtsheIQ": {"name": "Clear View Home Inspections", "latitude": 33.4499672, "longitude": -112.0702225, "address": "", "city": "Phoenix", "state": "AZ", "stars": 5.0, "review_count": 29, "is_open": 1}, "kb0PMizRgUw2L70w-0jDNw": {"name": "Valley Horticultural Services", "latitude": 33.4804846, "longitude": -111.9971926, "address": "", "city": "Phoenix", "state": "AZ", "stars": 4.5, "review_count": 20, "is_open": 1}, "oVFRqhwQQ3zD3geTtRYZTA": {"name": "Selberg Electric", "latitude": 33.379523, "longitude": -112.0318193, "address": "2320 E Baseline Rd, Ste 148-140", "city": "Phoenix", "state": "AZ", "stars": 4.5, "review_count": 96, "is_open": 1}, "dcAVQDreCs0U1L5qSUrdSw": {"name": "Desert Diamond Mechanical", "latitude": 33.63663, "longitude": -112.111812, "address": "16602 N 25th Ave", "city": "Phoenix", "state": "AZ", "stars": 5.0, "review_count": 24, "is_open": 1}, "caua8ncM9hXal127xOIr9g": {"name": "Sterling Interstate", "latitude": 33.622561649, "longitude": -112.0345629752, "address": "", "city": "Phoenix", "state": "AZ", "stars": 5.0, "review_count": 38, "is_open": 1}, "U9JaYw2Qxmy0CscXBpIRGg": {"name": "Senor Mist", "latitude": 33.6829693, "longitude": -112.0924421, "address": "1515 W Deer Valley Rd, Unite B104", "city": "Phoenix", "state": "AZ", "stars": 5.0, "review_count": 25, "is_open": 1}, "jE-QibnHNpQKDQ-pK5b0Dw": {"name": "AZ's Best Pipe Doctor Plumbing", "latitude": 33.510799, "longitude": -112.015616, "address": "3104 E Camelback Rd, Ste 1182", "city": "Phoenix", "state": "AZ", "stars": 4.5, "review_count": 22, "is_open": 1}, "SFUcFXBobTXgrfR6tG_8Iw": {"name": "A Master Mover", "latitude": 33.5578519, "longitude": -112.12423, "address": "3020 W Las Palmaritas Dr", "city": "Phoenix", "state": "AZ", "stars": 5.0, "review_count": 96, "is_open": 1}, "I02fZsl5otCPP1XRu0y40Q": {"name": "JPG Home Security and Consulting", "latitude": 33.6753034608, "longitude": -112.0984230191, "address": "1831 W Rose Garden Ln, Ste 1B", "city": "Phoenix", "state": "AZ", "stars": 5.0, "review_count": 148, "is_open": 1}, "HIown76a97kw1VlfMrPn9g": {"name": "Foothills Garage Door", "latitude": 33.3211123, "longitude": -111.9880199, "address": "", "city": "Phoenix", "state": "AZ", "stars": 4.5, "review_count": 23, "is_open": 1}, "5NXAbbikpYIa58bwRjs6Tw": {"name": "North & Co.", "latitude": 33.479728, "longitude": -111.9592789, "address": "5635 E Thomas Rd", "city": "Phoenix", "state": "AZ", "stars": 4.5, "review_count": 37, "is_open": 1}, "1l1xbVgzRBr48dK6KHCL0w": {"name": "The Perfectionist Cleaning Services", "latitude": 33.6748334, "longitude": -112.0302178, "address": "20635 N Cave Creek Rd, Ste B1", "city": "Phoenix", "state": "AZ", "stars": 4.5, "review_count": 92, "is_open": 1}, "hGfgR4eN8T2IVvviJaZdBA": {"name": "Geeks & Clicks", "latitude": 33.4943769, "longitude": -112.030875, "address": "2335 E Indian School Rd", "city": "Phoenix", "state": "AZ", "stars": 4.5, "review_count": 37, "is_open": 1}, "bxwQ_u-5e6tJfGcp-enlPw": {"name": "Blue Dot Pools, LLC", "latitude": 33.7326779002, "longitude": -112.1494510359, "address": "", "city": "Phoenix", "state": "AZ", "stars": 4.5, "review_count": 20, "is_open": 1}, "SF5abwwQcabOx9ozg6TEJA": {"name": "Ultimate Floor Care", "latitude": 33.6782379, "longitude": -112.1012912, "address": "", "city": "Phoenix", "state": "AZ", "stars": 5.0, "review_count": 22, "is_open": 1}, "_2o8c8SqTaCvhHi7K1HqhA": {"name": "Monorchid", "latitude": 33.4589885, "longitude": -112.0704862, "address": "214 E Roosevelt St", "city": "Phoenix", "state": "AZ", "stars": 4.5, "review_count": 44, "is_open": 1}, "SnOXqGpdopQL4MQCwtJ_lw": {"name": "Solar Safe Pool Covers", "latitude": 33.6949474, "longitude": -112.0910656, "address": "23005 N 15th Ave, Ste 101", "city": "Phoenix", "state": "AZ", "stars": 4.5, "review_count": 26, "is_open": 1}, "toBMu3SXZn-dpdmVrPe4aQ": {"name": "The Lock Guyz", "latitude": 33.6364503, "longitude": -112.0118669, "address": "", "city": "Phoenix", "state": "AZ", "stars": 5.0, "review_count": 101, "is_open": 1}, "WvT95JVFr8-j2j0KrCvdYw": {"name": "Eclipse Window Tinting", "latitude": 33.4462721, "longitude": -112.0893682, "address": "", "city": "Phoenix", "state": "AZ", "stars": 5.0, "review_count": 69, "is_open": 1}, "DX94cQnhBJjE4I7bTETBiA": {"name": "Kyle's Bee Removal", "latitude": 33.5821322, "longitude": -112.0123434, "address": "3217 E Shea Blvd, Ste 163", "city": "Phoenix", "state": "AZ", "stars": 4.5, "review_count": 24, "is_open": 1}, "Z0XVRiswFEQ5fZAJAHsQrA": {"name": "AJ Home Improvements & More", "latitude": 33.500405, "longitude": -112.046897, "address": "1608 E Turney Ave", "city": "Phoenix", "state": "AZ", "stars": 4.5, "review_count": 21, "is_open": 1}, "Za2eCgmhqVtqbsydGucpeQ": {"name": "Arizona Iron Patio Furniture", "latitude": 33.456204, "longitude": -112.088814, "address": "1209 Grand Ave", "city": "Phoenix", "state": "AZ", "stars": 5.0, "review_count": 27, "is_open": 1}, "nNavjod8pAkEW7ZHeCyAbA": {"name": "Arizona Brothers Moving and Storage", "latitude": 33.6394279, "longitude": -112.0202602, "address": "16816 North 29th St", "city": "Phoenix", "state": "AZ", "stars": 4.5, "review_count": 160, "is_open": 1}, "SkORg8POszk8OlJjFncegQ": {"name": "Queen of Maids", "latitude": 33.4382789, "longitude": -112.0178286, "address": "", "city": "Phoenix", "state": "AZ", "stars": 4.5, "review_count": 202, "is_open": 1}, "MUwTInVXqAy_dhPCdCPr6Q": {"name": "Roy's Trees", "latitude": 33.6508546881, "longitude": -112.0923769847, "address": "", "city": "Phoenix", "state": "AZ", "stars": 4.5, "review_count": 35, "is_open": 1}, "JgTA3AqVrDbceTyp-YP5_Q": {"name": "Redefy Real Estate", "latitude": 33.3722686, "longitude": -111.9757922, "address": "8222 S 48th St, Ste 205", "city": "Phoenix", "state": "AZ", "stars": 4.5, "review_count": 22, "is_open": 1}, "Fsyw5fQBk1oX4ti_WnbbGw": {"name": "Total Air and Appliances", "latitude": 33.5124238, "longitude": -112.0621918, "address": "830 E Orange Dr", "city": "Phoenix", "state": "AZ", "stars": 4.5, "review_count": 32, "is_open": 1}, "6hD6LSXqZ6WiX_p7M2Gy_Q": {"name": "Triton Garage & Closet Systems", "latitude": 33.4918337, "longitude": -112.1499609, "address": "4185 W Clarendon Ave", "city": "Phoenix", "state": "AZ", "stars": 4.5, "review_count": 19, "is_open": 1}, "0GShptBFV5n66_9N7NqffQ": {"name": "Mountain Park Plumbing", "latitude": 33.3280623, "longitude": -112.0008051, "address": "13013 S 38th St", "city": "Phoenix", "state": "AZ", "stars": 5.0, "review_count": 31, "is_open": 1}, "C1NXUnLbNPJVuPk-GeciOQ": {"name": "Precision Fit Doors and Windows", "latitude": 33.6755990747, "longitude": -112.1034728858, "address": "20817 N 21st Ave, Ste12", "city": "Phoenix", "state": "AZ", "stars": 4.5, "review_count": 46, "is_open": 1}, "gJvkbZHUxwfNO5YMp_a4cA": {"name": "Garage Doors 4 Less LLC", "latitude": 33.6782379, "longitude": -112.1012912, "address": "", "city": "Phoenix", "state": "AZ", "stars": 5.0, "review_count": 179, "is_open": 1}, "xDG0W6lKCJy_oZZzjgKEeQ": {"name": "Building Block Masonry", "latitude": 33.691668, "longitude": -111.98604, "address": "22603 N 39th Ter", "city": "Phoenix", "state": "AZ", "stars": 4.5, "review_count": 30, "is_open": 1}, "ptQtnPvsBaJ-2d9GJd3L4A": {"name": "Downtown Locksmith", "latitude": 33.465458, "longitude": -112.07756, "address": "137 W McDowell Rd", "city": "Phoenix", "state": "AZ", "stars": 4.5, "review_count": 32, "is_open": 1}, "kem4c4ol7SXKtmXDo41ghQ": {"name": "Door Doctor Inc.", "latitude": 33.6470955222, "longitude": -112.0045442198, "address": "3513 E Saint John Rd", "city": "Phoenix", "state": "AZ", "stars": 5.0, "review_count": 18, "is_open": 1}, "hcfOsfqisDFmXafUMKL2BQ": {"name": "Tony Hecht Enterprises", "latitude": 33.4674792, "longitude": -112.0866849, "address": "1011 W Coronado Rd", "city": "Phoenix", "state": "AZ", "stars": 5.0, "review_count": 23, "is_open": 0}, "n_pYBbJ_Byg5abfHNqk7ZA": {"name": "Bellhops", "latitude": 33.464528, "longitude": -112.08243, "address": "1415 N 7th Ave", "city": "Phoenix", "state": "AZ", "stars": 4.5, "review_count": 51, "is_open": 1}, "_5WBxyToueeux24mj9TbpA": {"name": "Sunsational Swim School - Private Swim Lessons", "latitude": 33.3211123, "longitude": -111.9880199, "address": "", "city": "Phoenix", "state": "AZ", "stars": 5.0, "review_count": 32, "is_open": 1}, "yxzy1t3iSMuzXZNcAKldZA": {"name": "Dig It Gardens", "latitude": 33.4818866585, "longitude": -112.0472749695, "address": "3015 N 16th St", "city": "Phoenix", "state": "AZ", "stars": 4.5, "review_count": 92, "is_open": 1}, "xk2Sd-yveH1ZjuGg-xJqAA": {"name": "Arizona Air Cleaners", "latitude": 33.4528292, "longitude": -112.0685027, "address": "", "city": "Phoenix", "state": "AZ", "stars": 4.5, "review_count": 35, "is_open": 1}, "L9UcvqvD9i0NuBgSu1IfMQ": {"name": "Carolina Blue Pools & Spas", "latitude": 33.6084469, "longitude": -112.0668086, "address": "428 E Thunderbird Rd, Ste 703", "city": "Phoenix", "state": "AZ", "stars": 5.0, "review_count": 18, "is_open": 1}, "0PUsluSxwh_kLCISpV1Q1Q": {"name": "Arizona Artificial Lawns", "latitude": 33.4312778, "longitude": -112.0825127, "address": "1800 S 7th Ave, Ste 108", "city": "Phoenix", "state": "AZ", "stars": 4.5, "review_count": 18, "is_open": 1}, "zYCkYCpAnPGwDh2BdCfOOQ": {"name": "Closets by Design", "latitude": 33.5910441, "longitude": -111.7972384, "address": "", "city": "Phoenix", "state": "AZ", "stars": 4.5, "review_count": 34, "is_open": 1}, "gXPoseI6T3MGDVx8GsgF3w": {"name": "Honest Handyman Service", "latitude": 33.6893937, "longitude": -112.0416754, "address": "", "city": "Phoenix", "state": "AZ", "stars": 5.0, "review_count": 26, "is_open": 1}, "9xOv5eIa0O5XkQpPY2wcJQ": {"name": "Rayne Water Conditioning", "latitude": 33.6364503, "longitude": -112.0118669, "address": "", "city": "Phoenix", "state": "AZ", "stars": 4.5, "review_count": 26, "is_open": 1}, "PzI468m66KKNNpbX7brjVA": {"name": "Floor Source", "latitude": 33.6482151, "longitude": -112.1140992, "address": "17829 N Black Canyon Hwy", "city": "Phoenix", "state": "AZ", "stars": 4.5, "review_count": 43, "is_open": 1}, "aAnC7Q9A2JwEVlibLDC-zw": {"name": "Green Home Termite & Pest Control", "latitude": 33.4159112, "longitude": -111.9904491, "address": "4202 E Elwood St, Ste 33", "city": "Phoenix", "state": "AZ", "stars": 4.5, "review_count": 74, "is_open": 1}, "MosSWUg7N03_HyfsS5xHnQ": {"name": "Movers 4 Phoenix", "latitude": 33.5759156, "longitude": -112.1021529, "address": "2010 W Ironwood Dr, Ste A", "city": "Phoenix", "state": "AZ", "stars": 4.5, "review_count": 31, "is_open": 1}, "kTuK-M5fFwV1_lMBmOU_qQ": {"name": "Parker's Interstate Movers", "latitude": 33.6923299, "longitude": -111.9403254, "address": "", "city": "Phoenix", "state": "AZ", "stars": 5.0, "review_count": 169, "is_open": 1}, "kIZo4QXiaJ9jI9treN4uhQ": {"name": "Pop-A-Lock", "latitude": 33.4815036483, "longitude": -112.0240814953, "address": "2942 N 24th St, Ste 114L", "city": "Phoenix", "state": "AZ", "stars": 4.5, "review_count": 27, "is_open": 1}, "z8f9rW38nSlAVVSOeyJPFA": {"name": "A Wise Move", "latitude": 33.5534194, "longitude": -112.1490062, "address": "4150 W Northern Ave, Ste 100", "city": "Phoenix", "state": "AZ", "stars": 5.0, "review_count": 22, "is_open": 1}, "po-05-AGCVxEme-SbNUIKw": {"name": "A 1 Minute Key Service", "latitude": 33.4947244, "longitude": -112.0521891, "address": "1350 E Indian School Rd", "city": "Phoenix", "state": "AZ", "stars": 5.0, "review_count": 296, "is_open": 1}, "Ooazw1JEZxcXP5enwRv2OA": {"name": "No Termites", "latitude": 33.3602393, "longitude": -112.4053046, "address": "", "city": "Phoenix", "state": "AZ", "stars": 5.0, "review_count": 20, "is_open": 1}, "poHAVymTNGXQSolQXWgz6w": {"name": "Mechanical Brothers Heating & Cooling", "latitude": 33.639016, "longitude": -112.1307028, "address": "3339 W Juniper Ave", "city": "Phoenix", "state": "AZ", "stars": 4.5, "review_count": 33, "is_open": 1}, "ffSzIKof-ifMWNyDrhP8-g": {"name": "The Students", "latitude": 33.514162, "longitude": -112.1251372, "address": "", "city": "Phoenix", "state": "AZ", "stars": 4.5, "review_count": 26, "is_open": 1}, "yeCegrx6Hypy8eau_etLIA": {"name": "Mastermind Moving", "latitude": 33.6275483, "longitude": -112.0595603, "address": "", "city": "Phoenix", "state": "AZ", "stars": 4.5, "review_count": 51, "is_open": 1}, "zkdtRsV0WH0yT7QqR6kMug": {"name": "Accent Marble & Granite", "latitude": 33.682355, "longitude": -112.087779, "address": "21609 N 12th Ave, Ste 800", "city": "Phoenix", "state": "AZ", "stars": 4.5, "review_count": 21, "is_open": 1}, "O4hJF5ULSOFzAV0bXhKTOg": {"name": "Stay Off the Roof", "latitude": 33.4040693, "longitude": -112.029752, "address": "", "city": "Phoenix", "state": "AZ", "stars": 4.5, "review_count": 19, "is_open": 1}, "cPTjkzqlNzMhmojPd5YY8A": {"name": "Broadstone Sixteen 75", "latitude": 33.5463978, "longitude": -112.0458023, "address": "1675 E Morten Ave", "city": "Phoenix", "state": "AZ", "stars": 4.5, "review_count": 21, "is_open": 0}, "PjyFvbH4FmpO08Cwa-UVcw": {"name": "Ram Wallcoverings", "latitude": 33.5376668, "longitude": -112.0542274, "address": "6849 N 12th Way", "city": "Phoenix", "state": "AZ", "stars": 5.0, "review_count": 40, "is_open": 1}, "c_IIS1gL0y3sCiZgSqMmOg": {"name": "Express Home Moving", "latitude": 33.5080986, "longitude": -112.0289095, "address": "2415 E Camelback Rd, Ste 700", "city": "Phoenix", "state": "AZ", "stars": 4.5, "review_count": 29, "is_open": 0}, "7Z0Txw_CE-Qm6Wx3Fwnelw": {"name": "Arcadia Color Garden", "latitude": 33.4683974, "longitude": -111.969924, "address": "1828 N 52nd St", "city": "Phoenix", "state": "AZ", "stars": 4.5, "review_count": 31, "is_open": 1}, "bXDgGJrYEaOVQ7oDQWiNHw": {"name": "Arizona Locksmith", "latitude": 33.5083316, "longitude": -112.0565795, "address": "", "city": "Phoenix", "state": "AZ", "stars": 4.5, "review_count": 25, "is_open": 1}, "ds78mn62NmJ7mESTQ1kTcw": {"name": "The Yard", "latitude": 33.6854553223, "longitude": -112.104888916, "address": "21846 N 21st Ave", "city": "Phoenix", "state": "AZ", "stars": 5.0, "review_count": 31, "is_open": 1}, "h0W8mf3Y5cuX70METMB84g": {"name": "SaleSumo", "latitude": 33.4500687, "longitude": -112.1621165, "address": "221 N 48th Ave", "city": "Phoenix", "state": "AZ", "stars": 4.5, "review_count": 160, "is_open": 1}, "v078BH3cCAeZyKOTe0ogtQ": {"name": "Alcatraz Locksmith", "latitude": 33.6468195, "longitude": -112.0687356, "address": "17627 N 4th St", "city": "Phoenix", "state": "AZ", "stars": 4.5, "review_count": 79, "is_open": 1}, "fBS0AxMAYSWcINEDHpzVdg": {"name": "Lanza AV Home Theater and Security", "latitude": 33.5559112, "longitude": -112.1085103, "address": "8126 N 23rd Ave, Ste I-J", "city": "Phoenix", "state": "AZ", "stars": 4.5, "review_count": 33, "is_open": 1}, "Dv9Z6UUD0mzWqs5vll1HzA": {"name": "Momentum Carpet Care", "latitude": 33.5243478, "longitude": -112.0976152, "address": "1750 W Bethany Home Rd", "city": "Phoenix", "state": "AZ", "stars": 5.0, "review_count": 56, "is_open": 1}, "4lFaedeUBIok2lFrxDqg_w": {"name": "Amergency Services", "latitude": 33.6275483, "longitude": -112.0595603, "address": "", "city": "Phoenix", "state": "AZ", "stars": 5.0, "review_count": 21, "is_open": 1}, "C6fpFu44zSg215rNM5UDOQ": {"name": "Copperline Plumbing", "latitude": 33.5636878, "longitude": -112.0595603, "address": "", "city": "Phoenix", "state": "AZ", "stars": 4.5, "review_count": 92, "is_open": 1}, "d-2g8JWtXuYsOqZtbFuZtw": {"name": "Bullfrog Pool Tile Cleaning", "latitude": 33.5840405342, "longitude": -112.0099931539, "address": "", "city": "Phoenix", "state": "AZ", "stars": 4.5, "review_count": 39, "is_open": 1}, "Z5r6n0R4e9r0yaM0tFTV5g": {"name": "A-Accent Plumbing", "latitude": 33.4947396, "longitude": -112.0225328, "address": "2721 E Indian School Rd", "city": "Phoenix", "state": "AZ", "stars": 4.5, "review_count": 25, "is_open": 1}, "51C-rgGpNRX9slmLkSl_3Q": {"name": "Turn It On Electric", "latitude": 33.682868, "longitude": -112.096275, "address": "1745 W Deer Valley Rd, Ste 110", "city": "Phoenix", "state": "AZ", "stars": 4.5, "review_count": 122, "is_open": 1}, "K00awgdDmCqvaVaEaGjnWw": {"name": "Two Sparks Electric", "latitude": 33.5106326179, "longitude": -112.029752, "address": "", "city": "Phoenix", "state": "AZ", "stars": 4.5, "review_count": 44, "is_open": 1}, "0ThoQxINdSB3QRYLNJzCpg": {"name": "Rob's Dog Training and Sales", "latitude": 33.530825, "longitude": -112.0865271, "address": "1103 W Maryland Ave", "city": "Phoenix", "state": "AZ", "stars": 5.0, "review_count": 21, "is_open": 1}, "2df0SjO9fQoqjWPGfiZSXQ": {"name": "A Safe Pool of Arizona", "latitude": 33.63849, "longitude": -111.863592, "address": "10115 E Bell Rd, Ste 107", "city": "Phoenix", "state": "AZ", "stars": 4.5, "review_count": 36, "is_open": 1}, "m1pNjrhzUY0FAD5rhPbQug": {"name": "Divine Design Landscaping", "latitude": 33.5079722, "longitude": -112.1012912, "address": "", "city": "Phoenix", "state": "AZ", "stars": 4.5, "review_count": 72, "is_open": 1}, "DgADU5v3vHFIzBqDch62sw": {"name": "Custom Weed & Pest Control", "latitude": 33.5106684, "longitude": -112.029752, "address": "", "city": "Phoenix", "state": "AZ", "stars": 5.0, "review_count": 65, "is_open": 1}, "XHi4n2PAi1qdqpi_C1fG5A": {"name": "Chromatic Painting LLC", "latitude": 33.4971151969, "longitude": -111.9642157153, "address": "", "city": "Phoenix", "state": "AZ", "stars": 4.5, "review_count": 40, "is_open": 1}, "M0AXzGZolLWprqtR0tPy5A": {"name": "Full Spectrum Artworks", "latitude": 33.4636012, "longitude": -112.0535987, "address": "", "city": "Phoenix", "state": "AZ", "stars": 5.0, "review_count": 29, "is_open": 1}, "h920JXbtdjnOAZWl1C5W8w": {"name": "SG Installations", "latitude": 33.5641551, "longitude": -112.1216762, "address": "2907 W Lawrence Ln", "city": "Phoenix", "state": "AZ", "stars": 5.0, "review_count": 43, "is_open": 1}, "IFMY6T6kyJ4ch1ZOI19hug": {"name": "Trees For Needs", "latitude": 33.713871, "longitude": -112.093045, "address": "1540 W Happy Valley Rd", "city": "Phoenix", "state": "AZ", "stars": 4.5, "review_count": 23, "is_open": 1}, "rNmCnb9c78lKtjYYMlbP2Q": {"name": "ACA Appliance Services", "latitude": 33.3211123, "longitude": -111.9880199, "address": "", "city": "Phoenix", "state": "AZ", "stars": 4.5, "review_count": 18, "is_open": 1}, "sNjkabYh0Kf6-R-VwVp4yw": {"name": "Low Cost Quality Movers", "latitude": 33.6782379, "longitude": -112.1012912, "address": "", "city": "Phoenix", "state": "AZ", "stars": 5.0, "review_count": 19, "is_open": 1}, "8WCG4rs5o2rfwz0NvKshZw": {"name": "Innovative Pool Systems", "latitude": 33.2909097, "longitude": -112.0357137, "address": "", "city": "Phoenix", "state": "AZ", "stars": 4.5, "review_count": 20, "is_open": 1}, "KdN0G649-aQbzvw7uh63zg": {"name": "Advantage Inspection Service", "latitude": 33.4495511, "longitude": -112.0789355, "address": "", "city": "Phoenix", "state": "AZ", "stars": 4.5, "review_count": 166, "is_open": 1}, "7AMhs4THiOttFdnbnrKobQ": {"name": "AZSunstop Tint - Clearbra", "latitude": 33.5703093, "longitude": -112.0889189, "address": "1217 W Hatcher Rd, Ste 19", "city": "Phoenix", "state": "AZ", "stars": 4.5, "review_count": 29, "is_open": 1}, "Ng4fsgtN2RABco_z_NkeoQ": {"name": "Critter Tech", "latitude": 33.6089877909, "longitude": -112.0143876076, "address": "", "city": "Phoenix", "state": "AZ", "stars": 4.5, "review_count": 34, "is_open": 1}, "YSzhvGeML6PahoZjzgIBMA": {"name": "Valle Verde Lawn Care", "latitude": 33.6108275, "longitude": -112.0178519, "address": "13628 N 30th St", "city": "Phoenix", "state": "AZ", "stars": 4.5, "review_count": 54, "is_open": 1}, "hM3TwxTe_XWvdXZUiFkZ9g": {"name": "Epic Carpet & Tile Care", "latitude": 33.7635354, "longitude": -112.0714835, "address": "", "city": "Phoenix", "state": "AZ", "stars": 5.0, "review_count": 149, "is_open": 1}, "sbZDGIw5Ga5pQek6pQTFNw": {"name": "All-Pro Haul", "latitude": 33.7635354, "longitude": -112.0714835, "address": "", "city": "Phoenix", "state": "AZ", "stars": 4.5, "review_count": 23, "is_open": 1}, "AfvKG1alZ1-edrZ9r2dfYg": {"name": "Creative Moving & Packing", "latitude": 33.5018778, "longitude": -112.1449776, "address": "4012 W Turney Ave, Ste B2", "city": "Phoenix", "state": "AZ", "stars": 4.5, "review_count": 216, "is_open": 1}, "iSnM0maDtDjRbjNB-vqfJw": {"name": "Island Life Pools & Spas", "latitude": 33.6804227534, "longitude": -111.9770475127, "address": "", "city": "Phoenix", "state": "AZ", "stars": 5.0, "review_count": 92, "is_open": 1}, "A-chkFATOxiZNMH6TCTkcw": {"name": "Day & Night Air Conditioning, Heating & Plumbing", "latitude": 33.3966332, "longitude": -112.0011544, "address": "3669 East La Salle St", "city": "Phoenix", "state": "AZ", "stars": 4.5, "review_count": 184, "is_open": 1}, "v3AXp8DPMgwpy4DX4DDZNw": {"name": "ASAP Plumbing & A/C", "latitude": 33.3217949, "longitude": -111.9882021, "address": "4425 E Agave, Ste 106", "city": "Phoenix", "state": "AZ", "stars": 4.5, "review_count": 130, "is_open": 1}, "YKSctIPeNN9l9mAw6z4tfA": {"name": "Kreative Audio Video", "latitude": 33.4986286, "longitude": -111.9224398, "address": "", "city": "Phoenix", "state": "AZ", "stars": 5.0, "review_count": 24, "is_open": 1}, "nwP8kik0wnIMWvFhBe_rng": {"name": "Details Remodeling", "latitude": 33.509385, "longitude": -112.007743, "address": "4831 N 34th Pl", "city": "Phoenix", "state": "AZ", "stars": 4.5, "review_count": 31, "is_open": 1}, "j8GdfZxbZGcsHwRgNjO3fg": {"name": "Warehouse 215 @ Bentley Projects", "latitude": 33.440699, "longitude": -112.070571, "address": "215 E Grant St", "city": "Phoenix", "state": "AZ", "stars": 4.5, "review_count": 23, "is_open": 1}, "KXnFwbDdmPOQrhxvMK-crQ": {"name": "K&K Pool Service & Repair", "latitude": 33.624701, "longitude": -112.031764, "address": "15207 N 23rd Pl", "city": "Phoenix", "state": "AZ", "stars": 5.0, "review_count": 31, "is_open": 1}, "T-Q3XeK2A3L8dY5zC2R-YA": {"name": "Sonoran Garage Doors", "latitude": 33.3720139, "longitude": -112.0397891, "address": "2005 E Desert Ln", "city": "Phoenix", "state": "AZ", "stars": 5.0, "review_count": 31, "is_open": 1}, "5w7whjK5mDJsbp9so4rVZQ": {"name": "Arizona Construction & Restoration", "latitude": 33.4247369, "longitude": -112.0451685, "address": "2423 S 17th St", "city": "Phoenix", "state": "AZ", "stars": 4.5, "review_count": 31, "is_open": 1}, "xYPM0Ihuc_9V8GcW29olSg": {"name": "Maid Easy", "latitude": 33.5103189, "longitude": -112.0155574, "address": "3104 E Camelback Rd, Ste 2193", "city": "Phoenix", "state": "AZ", "stars": 5.0, "review_count": 58, "is_open": 1}, "p4UuDmv_pKjUJ4eIv87UDQ": {"name": "The Junk Guys", "latitude": 33.4382789, "longitude": -112.0178286, "address": "", "city": "Phoenix", "state": "AZ", "stars": 4.5, "review_count": 22, "is_open": 1}, "Q5bmi6NnlNTpP6Qfzb6RXw": {"name": "Reliance Heating and Air Conditioning", "latitude": 33.668459, "longitude": -112.029498, "address": "20022 N 24th Way", "city": "Phoenix", "state": "AZ", "stars": 5.0, "review_count": 30, "is_open": 1}, "o2pbr3Nf9KVyTVS5eDZccA": {"name": "Carpet World", "latitude": 33.4962205, "longitude": -111.9641728, "address": "", "city": "Phoenix", "state": "AZ", "stars": 4.5, "review_count": 23, "is_open": 0}, "Bv6-MOsh4jaL1bHOZpkKlg": {"name": "Dan's Window Tint", "latitude": 33.637705348, "longitude": -111.9828673004, "address": "4540 E Aire Libre", "city": "Phoenix", "state": "AZ", "stars": 5.0, "review_count": 210, "is_open": 1}, "ew0ghHZWI2fPx01y3EUEcg": {"name": "Clark Heating & Cooling", "latitude": 33.5079722, "longitude": -112.1012912, "address": "", "city": "Phoenix", "state": "AZ", "stars": 5.0, "review_count": 27, "is_open": 1}, "1e7GXqhVDs0UXUofjTkVgQ": {"name": "Pink Plumbing & Sewer", "latitude": 33.5106684, "longitude": -112.029752, "address": "", "city": "Phoenix", "state": "AZ", "stars": 5.0, "review_count": 194, "is_open": 1}, "pX7ORIIuAcWi569poTArCw": {"name": "Walls By Rod", "latitude": 33.6364503, "longitude": -112.0118669, "address": "", "city": "Phoenix", "state": "AZ", "stars": 4.5, "review_count": 20, "is_open": 0}, "QEE5vBdRf2tuchmZQ3H-Kg": {"name": "Arizona Steamers", "latitude": 33.6289952, "longitude": -112.1370601, "address": "", "city": "Phoenix", "state": "AZ", "stars": 5.0, "review_count": 149, "is_open": 1}, "45u2Dp432CGH36kLT1GZ1Q": {"name": "AZ Alarm Company", "latitude": 33.7997046, "longitude": -112.1262753, "address": "3120 W Carefree Hwy, Ste 1-102", "city": "Phoenix", "state": "AZ", "stars": 5.0, "review_count": 27, "is_open": 1}, "nbmD3ua5pVPyBpWYtrwIBA": {"name": "ABC Vacuum Center", "latitude": 33.4946781, "longitude": -112.0263287, "address": "2545 E Indian School Rd", "city": "Phoenix", "state": "AZ", "stars": 4.5, "review_count": 30, "is_open": 1}, "EL3XTFBbYN5TPhzAFfAzeQ": {"name": "Anderson Lock & Safe", "latitude": 33.5272171, "longitude": -112.1345488, "address": "6146 N 35th Ave", "city": "Phoenix", "state": "AZ", "stars": 4.5, "review_count": 25, "is_open": 1}, "kQGwxq5hOM9TLIwO8AjHvQ": {"name": "Bulwark Moving Company", "latitude": 33.407842, "longitude": -111.993491, "address": "4022 E Broadway Rd, Ste 108", "city": "Phoenix", "state": "AZ", "stars": 4.5, "review_count": 116, "is_open": 1}, "4JdoQ95uXy__zoHmPhtdiA": {"name": "HydroCare Services", "latitude": 33.448263, "longitude": -112.073821, "address": "", "city": "Phoenix", "state": "AZ", "stars": 4.5, "review_count": 172, "is_open": 1}, "4fCvaro6vrk6YEqz_HTMdA": {"name": "Anthony's Plumbing", "latitude": 33.4610535, "longitude": -112.1744306, "address": "1201 N 54th Ave, Ste 127", "city": "Phoenix", "state": "AZ", "stars": 4.5, "review_count": 27, "is_open": 1}, "WiEg35IpUuN-qZ1ImRWnCw": {"name": "Arizona Chimney & Air Ducts", "latitude": 33.641805, "longitude": -112.068419, "address": "610 E Bell Rd, Ste 2-126", "city": "Phoenix", "state": "AZ", "stars": 5.0, "review_count": 138, "is_open": 1}, "rPFTo7vvIYMGgMo6zyGRXg": {"name": "Hayward Tree Service", "latitude": 33.5079722, "longitude": -112.1012912, "address": "", "city": "Phoenix", "state": "AZ", "stars": 4.5, "review_count": 73, "is_open": 1}, "RxSFQRDAjg6uiWOVms6OKg": {"name": "Canyon Auto Detailing", "latitude": 33.451036, "longitude": -111.909528, "address": "1900 N McClintock Dr", "city": "Phoenix", "state": "AZ", "stars": 4.5, "review_count": 18, "is_open": 1}, "OTrOMhpSqz8wCaONMz8HEA": {"name": "Halo Plumbing and Rooter Service", "latitude": 33.7635354, "longitude": -112.0714835, "address": "", "city": "Phoenix", "state": "AZ", "stars": 4.5, "review_count": 19, "is_open": 1}, "SA_KcbfXJstPEZgnZRp6gw": {"name": "Quail Plumbing", "latitude": 33.685786, "longitude": -112.048372, "address": "21831 N 16th St", "city": "Phoenix", "state": "AZ", "stars": 4.5, "review_count": 43, "is_open": 1}, "WY3DawW3YPLLHlYqUDTMfQ": {"name": "First Class Coatings", "latitude": 33.6246852858, "longitude": -111.9783644059, "address": "4757 E Greenway Rd, Ste 107B", "city": "Phoenix", "state": "AZ", "stars": 4.5, "review_count": 28, "is_open": 1}, "vkQrIXyeAn4GrCnrk2haRw": {"name": "Insectek Pest Solutions", "latitude": 33.5821322, "longitude": -112.0123434, "address": "3217 E Shea Blvd, Ste 259", "city": "Phoenix", "state": "AZ", "stars": 5.0, "review_count": 323, "is_open": 1}, "G7dWMiAuilyhwIvHiexDaw": {"name": "Boulder Valley Pools", "latitude": 33.7408942621, "longitude": -111.9781235978, "address": "", "city": "Phoenix", "state": "AZ", "stars": 4.5, "review_count": 35, "is_open": 1}, "xEc_S1Oz22QEmQK9CbdDMg": {"name": "Bills Pest Termite Control", "latitude": 33.7114242873, "longitude": -112.0942600688, "address": "24820 N 16th Ave, Ste 130", "city": "Phoenix", "state": "AZ", "stars": 4.5, "review_count": 131, "is_open": 1}, "eiP9F1cFUg7Wi4oe9lFbqQ": {"name": "Happy Bear", "latitude": 33.6629442, "longitude": -112.0182329, "address": "", "city": "Phoenix", "state": "AZ", "stars": 4.5, "review_count": 24, "is_open": 1}, "J1d20V09G7tCIIcdMQP3vQ": {"name": "Green Valley Tree Specialists & Landscaping", "latitude": 33.6272938, "longitude": -112.0893682, "address": "", "city": "Phoenix", "state": "AZ", "stars": 4.5, "review_count": 49, "is_open": 1}, "daDHbd1gtDvjxerVjn8A7g": {"name": "Floor & Decor", "latitude": 33.506832, "longitude": -112.042361, "address": "1800 E Highland Ave", "city": "Phoenix", "state": "AZ", "stars": 4.5, "review_count": 120, "is_open": 1}, "-SvUaYyk0ubkscvEixipzw": {"name": "Pablo's Landscape & Tree Service, LLC", "latitude": 33.4710875, "longitude": -112.008358, "address": "3402 E Holly St", "city": "Phoenix", "state": "AZ", "stars": 4.5, "review_count": 18, "is_open": 1}, "IirMU4kjCse0sVcva66MzA": {"name": "SVH Landscaping Services", "latitude": 33.5641455, "longitude": -112.1237167, "address": "3005 W Lawrence Ln", "city": "Phoenix", "state": "AZ", "stars": 4.5, "review_count": 38, "is_open": 1}, "1LOXIRySzQya77NrIcHLSg": {"name": "Firewood by Jerry", "latitude": 33.63444, "longitude": -112.07157, "address": "16220 N 7th St", "city": "Phoenix", "state": "AZ", "stars": 4.5, "review_count": 22, "is_open": 1}, "M8AiHKYbEaI-_1kUvqDwIw": {"name": "Parker Garage Doors & More", "latitude": 33.6888524, "longitude": -112.1020345, "address": "22350 N 20th Ave", "city": "Phoenix", "state": "AZ", "stars": 4.5, "review_count": 19, "is_open": 1}, "zip-V5uRmSI5965zerOvdg": {"name": "ASAP Bee Removal", "latitude": 33.502024, "longitude": -112.08778, "address": "1202 W Campbell Ave", "city": "Phoenix", "state": "AZ", "stars": 4.5, "review_count": 67, "is_open": 1}, "AGxC7XNCVeqsnMQc4r_5BQ": {"name": "Lawson Family Plumbing", "latitude": 33.4382789, "longitude": -112.0178286, "address": "", "city": "Phoenix", "state": "AZ", "stars": 5.0, "review_count": 29, "is_open": 1}, "9DIUf7cGVrt7V15EW1LNhw": {"name": "Honest Guys Duct Cleaning", "latitude": 33.62157, "longitude": -112.128776, "address": "14852 N 32nd Dr", "city": "Phoenix", "state": "AZ", "stars": 5.0, "review_count": 26, "is_open": 1}, "mJMAXO7YBobzpIM-EtU9Vg": {"name": "Liberty Home Repair", "latitude": 33.532033, "longitude": -112.0458439, "address": "1636 E Sierra Vista Dr", "city": "Phoenix", "state": "AZ", "stars": 5.0, "review_count": 45, "is_open": 1}, "sAolbA6ENiVZmQBcY_SNPA": {"name": "Bamboo Pools Service and Repair", "latitude": 33.6516824917, "longitude": -111.9942645004, "address": "", "city": "Phoenix", "state": "AZ", "stars": 5.0, "review_count": 18, "is_open": 1}, "22KhRbe8X8DuSJrVawcXSQ": {"name": "Water Heaters Only", "latitude": 33.479392, "longitude": -112.128752, "address": "3201 W Thomas Rd", "city": "Phoenix", "state": "AZ", "stars": 4.5, "review_count": 27, "is_open": 1}, "PX0TDDTjXWn3oXP1hBrzpQ": {"name": "Got Pigeons", "latitude": 33.5093228, "longitude": -112.2747719, "address": "9920 West Camel Back Rd", "city": "Phoenix", "state": "AZ", "stars": 4.5, "review_count": 24, "is_open": 1}, "zX3p2_1WO1v6W-F5Aa3itQ": {"name": "Organic Living", "latitude": 33.5601606, "longitude": -112.0657535, "address": "8342 N 7th St", "city": "Phoenix", "state": "AZ", "stars": 4.5, "review_count": 30, "is_open": 1}, "bz462FmLv77D2Xy8BM6nsw": {"name": "Refresh Pools", "latitude": 33.5989484, "longitude": -111.9979174, "address": "3910 E Bloomfield Rd", "city": "Phoenix", "state": "AZ", "stars": 4.5, "review_count": 28, "is_open": 1}, "oWWODf1nFwyYBFYVjt2xRg": {"name": "AZ Perfect Comfort", "latitude": 33.6812077, "longitude": -112.0755559, "address": "26 W Lone Cactus Dr, Ste 400", "city": "Phoenix", "state": "AZ", "stars": 4.5, "review_count": 25, "is_open": 1}, "R9mey8o-d1tWt4CsXSXO2A": {"name": "North Valley Mechanical", "latitude": 33.6793041, "longitude": -112.1058769, "address": "2205 W Lone Cactus Dr, Ste 1", "city": "Phoenix", "state": "AZ", "stars": 4.5, "review_count": 122, "is_open": 1}, "e2RfpVymD42DeYkEvKEOzw": {"name": "Cactus Curbing and Landscaping", "latitude": 33.2761422, "longitude": -112.28609, "address": "", "city": "Phoenix", "state": "AZ", "stars": 5.0, "review_count": 24, "is_open": 1}, "EQ05Q7mEHLKpO49YLNQGpg": {"name": "Desert Star Pet Doors", "latitude": 33.5101779, "longitude": -112.0961681, "address": "1702 W Camelback Rd, Ste 13", "city": "Phoenix", "state": "AZ", "stars": 5.0, "review_count": 27, "is_open": 0}, "cdPES0ZwjQq95UGysNL9iA": {"name": "Benefit Air Conditioning", "latitude": 33.4946839, "longitude": -112.0899038, "address": "1315 W Indian School Rd", "city": "Phoenix", "state": "AZ", "stars": 4.5, "review_count": 29, "is_open": 1}, "QQfkmvN_BPWK5LjHmBNNPg": {"name": "Granite Dude", "latitude": 33.510125, "longitude": -112.073286, "address": "5025 N Central Ave, Ste 316", "city": "Phoenix", "state": "AZ", "stars": 4.5, "review_count": 39, "is_open": 1}, "UDmAIU_h-vh-5KwJajU1-g": {"name": "Budget Blinds serving East Phoenix", "latitude": 33.4533186423, "longitude": -112.0530656305, "address": "", "city": "Phoenix", "state": "AZ", "stars": 5.0, "review_count": 20, "is_open": 1}, "jeTvVMOR8W_04xFsPjzOEQ": {"name": "Camelback Moving", "latitude": 33.4438042, "longitude": -112.1310986, "address": "", "city": "Phoenix", "state": "AZ", "stars": 4.5, "review_count": 653, "is_open": 1}, "yPSgeMxe7QL0mBeOlUwYgg": {"name": "King Home Inspections", "latitude": 33.336008, "longitude": -111.9782081, "address": "12110 S Tomi Dr", "city": "Phoenix", "state": "AZ", "stars": 4.5, "review_count": 28, "is_open": 1}, "f2WPjY68U69EOxp2Ug6BJg": {"name": "Desert Blind and Shutter Repair", "latitude": 33.5551747, "longitude": -112.1005869, "address": "8050 N 19th Ave, Ste 181", "city": "Phoenix", "state": "AZ", "stars": 5.0, "review_count": 44, "is_open": 1}, "LyN84-xpLwsVk4kBz8SpdQ": {"name": "Upright Garage Door and Gate", "latitude": 33.5873074, "longitude": -112.1062691, "address": "2231 W Shangri La Rd, Ste P", "city": "Phoenix", "state": "AZ", "stars": 4.5, "review_count": 28, "is_open": 1}, "0eGQ8lL-RXdEx_lPzkOVLg": {"name": "Myriad Real Estate Group", "latitude": 33.4772792, "longitude": -112.0742314, "address": "2600 N Central Ave, Ste 725", "city": "Phoenix", "state": "AZ", "stars": 5.0, "review_count": 57, "is_open": 1}, "eZXhBAQ65BUtnc56r9U1Kg": {"name": "Handyman Xtreme", "latitude": 33.5725815, "longitude": -112.0118669, "address": "", "city": "Phoenix", "state": "AZ", "stars": 4.5, "review_count": 41, "is_open": 1}, "egK9XPQwna9KiZmv_objzQ": {"name": "Get Your Move On", "latitude": 33.3969669, "longitude": -111.948611, "address": "1430 E Hadley St, Ste 110", "city": "Phoenix", "state": "AZ", "stars": 4.5, "review_count": 124, "is_open": 1}, "DG7blxT5FHAlQGG8A92ZXQ": {"name": "Carpet Chris Carpet Repair", "latitude": 33.4636012, "longitude": -112.0535987, "address": "", "city": "Phoenix", "state": "AZ", "stars": 5.0, "review_count": 105, "is_open": 1}, "DI4A6bl5TlHDxueZ5gzPLw": {"name": "TAB Electric", "latitude": 33.6893937, "longitude": -112.0416754, "address": "", "city": "Phoenix", "state": "AZ", "stars": 5.0, "review_count": 94, "is_open": 1}, "ZojKxVZmp2GVv1negJCOrQ": {"name": "Pie Snob", "latitude": 33.4954702, "longitude": -112.0028026, "address": "3630 E Indian School Rd", "city": "Phoenix", "state": "AZ", "stars": 4.5, "review_count": 159, "is_open": 1}, "o9xhWhCjaM78D9C2U2glEw": {"name": "Half Price TV Wall Mounting Service", "latitude": 33.6629442, "longitude": -112.0182329, "address": "", "city": "Phoenix", "state": "AZ", "stars": 5.0, "review_count": 73, "is_open": 1}, "aoRj9T9roxt7K_Pgqvln3A": {"name": "FOR Energy", "latitude": 33.4154544, "longitude": -111.977269, "address": "4630 E. Elwood St, Suite 9,", "city": "Phoenix", "state": "AZ", "stars": 4.5, "review_count": 70, "is_open": 1}, "3aoR7TN3pcXXiL38JbW3ow": {"name": "AZ Express Glass and Mirror", "latitude": 33.481234, "longitude": -112.127029, "address": "3116 W Thomas Rd", "city": "Phoenix", "state": "AZ", "stars": 5.0, "review_count": 35, "is_open": 1}, "ZMdDJUbv4V_2mAAIdNjoOg": {"name": "Desert King Windows", "latitude": 33.4234756, "longitude": -112.0362487, "address": "2615 S 21st St", "city": "Phoenix", "state": "AZ", "stars": 4.5, "review_count": 33, "is_open": 1}, "35InP7PB4sRD4y1w8PzmmQ": {"name": "Phoenix Sliding Doors", "latitude": 33.8395368, "longitude": -112.1191757, "address": "", "city": "Phoenix", "state": "AZ", "stars": 4.5, "review_count": 24, "is_open": 1}, "HdCbbeg5JHR0orgQ7rEQbw": {"name": "Legends Garage Door", "latitude": 33.6649197, "longitude": -112.1116307, "address": "2501 W Behrend Dr, Ste B-27", "city": "Phoenix", "state": "AZ", "stars": 4.5, "review_count": 90, "is_open": 1}, "w6Of2siPZPW9K2OpN6FbPQ": {"name": "Bird Dog Plumbing", "latitude": 33.6275483, "longitude": -112.0595603, "address": "", "city": "Phoenix", "state": "AZ", "stars": 5.0, "review_count": 79, "is_open": 1}, "Dut63dJJdjHvCngPwmM8SA": {"name": "AAA Hardwood Floors", "latitude": 33.465458, "longitude": -112.156956, "address": "4625 W McDowell Rd, Ste 150", "city": "Phoenix", "state": "AZ", "stars": 4.5, "review_count": 24, "is_open": 1}, "gArD_iQ_6BR9UGMwKXntDg": {"name": "Valley Verde Community Garden Center and Desert Gift Shop", "latitude": 33.6685873193, "longitude": -112.0292813703, "address": "20023 N 24th Way", "city": "Phoenix", "state": "AZ", "stars": 5.0, "review_count": 41, "is_open": 1}, "v2BNC3dJ_cPVQZlMQIr4dw": {"name": "Tv Mountology", "latitude": 33.5106684, "longitude": -112.029752, "address": "", "city": "Phoenix", "state": "AZ", "stars": 5.0, "review_count": 19, "is_open": 1}, "BRfs-V4TUOFMKikXnKIvYQ": {"name": "Bookspan Baker Team - Fairway Independent Mortgage Corporation", "latitude": 33.4859471, "longitude": -112.073347, "address": "3225 N Central Ave, Ste 120", "city": "Phoenix", "state": "AZ", "stars": 4.5, "review_count": 18, "is_open": 1}, "RWWLcqSGBTvVkxj3G_6zEA": {"name": "T & K Electric", "latitude": 33.4774821, "longitude": -112.0153834, "address": "2618 N 31st St", "city": "Phoenix", "state": "AZ", "stars": 5.0, "review_count": 44, "is_open": 1}, "HhNguibS3zAzwhXMZH8HhA": {"name": "Desert Hills Window Coverings, \u200bSecurity Doors & Sun Screens", "latitude": 33.8334737, "longitude": -112.0705287, "address": "203 E Adamanda Dr", "city": "Phoenix", "state": "AZ", "stars": 5.0, "review_count": 22, "is_open": 1}, "xoLQvLVBwvOrb-Os0I78PQ": {"name": "Pool Shop", "latitude": 33.3169892, "longitude": -112.0043308, "address": "3636 E Ray Rd, Ste 10", "city": "Phoenix", "state": "AZ", "stars": 4.5, "review_count": 21, "is_open": 1}, "uG4MP_6z9SYbGJSi-S7Z1A": {"name": "Kevin Stark - North&Co.", "latitude": 33.47975, "longitude": -111.95929, "address": "5635 E Thomas Rd", "city": "Phoenix", "state": "AZ", "stars": 5.0, "review_count": 18, "is_open": 1}, "Q70TX19skg8v9OL6VIdF3A": {"name": "Mythic Home Theater", "latitude": 33.6512105, "longitude": -112.2564712, "address": "9163 W Union Hills Dr, Ste 116", "city": "Phoenix", "state": "AZ", "stars": 5.0, "review_count": 68, "is_open": 1}, "5nxKRM_Qr9hFaUTqmFD_cg": {"name": "Lincoln Air", "latitude": 33.5997615, "longitude": -112.1175873, "address": "2805 West Larkspur Dr", "city": "Phoenix", "state": "AZ", "stars": 4.5, "review_count": 20, "is_open": 1}, "Hy4aO5TsNn3JVNc8uP99tw": {"name": "Fabian's Removal & Hauling Services", "latitude": 33.4045494, "longitude": -112.0680719, "address": "4610 S 5th St", "city": "Phoenix", "state": "AZ", "stars": 5.0, "review_count": 39, "is_open": 1}, "nr4KH_8O-JtJBmFir8UISw": {"name": "Iron Creation", "latitude": 33.448667, "longitude": -112.042872, "address": "1810 E Washington St", "city": "Phoenix", "state": "AZ", "stars": 4.5, "review_count": 47, "is_open": 1}, "2V-TzWecvR7OxP6paCWhfA": {"name": "Space Solutions Garage Cabinets Custom Closets Phoenix", "latitude": 33.6896223, "longitude": -112.0963767, "address": "1725 W Williams Dr", "city": "Phoenix", "state": "AZ", "stars": 4.5, "review_count": 44, "is_open": 1}, "HaMe8yAB-J-M4QzNOpcuFw": {"name": "Frank's Demo Grading and Hauling", "latitude": 33.5813797664, "longitude": -112.1307191625, "address": "3233 W Peoria Ave", "city": "Phoenix", "state": "AZ", "stars": 4.5, "review_count": 29, "is_open": 1}, "wiRJwuq4sCoTFCehR1WuOg": {"name": "K & J Windows", "latitude": 33.5554919752, "longitude": -112.1106157302, "address": "2331 W Royal Palm Ave, Ste L", "city": "Phoenix", "state": "AZ", "stars": 5.0, "review_count": 127, "is_open": 1}, "Lcrp2NGjy3pKTcPp5j7Dbg": {"name": "Clear Choice Pool Fence", "latitude": 33.6364503, "longitude": -112.0118669, "address": "", "city": "Phoenix", "state": "AZ", "stars": 5.0, "review_count": 19, "is_open": 1}, "QwG14zktlLgj7NaC0URAXw": {"name": "CityScape Residences", "latitude": 33.447454, "longitude": -112.073487, "address": "11 S Central Ave", "city": "Phoenix", "state": "AZ", "stars": 4.5, "review_count": 38, "is_open": 1}, "aaTOjQzSDYbRchbHB6nXAw": {"name": "Checklist Inspections", "latitude": 33.4495511, "longitude": -112.0789355, "address": "", "city": "Phoenix", "state": "AZ", "stars": 5.0, "review_count": 43, "is_open": 1}, "FZOhDGI1Qf8okYExrMEfOQ": {"name": "A-Z Air Duct", "latitude": 33.5867582, "longitude": -112.1030844, "address": "11021 N 21st Ave", "city": "Phoenix", "state": "AZ", "stars": 4.5, "review_count": 30, "is_open": 1}, "EIOJqolpgGKzFUAhf-pg3g": {"name": "A To Z Equipment Rentals & Sales", "latitude": 33.6293514, "longitude": -112.0138231, "address": "15634 N 32nd St", "city": "Phoenix", "state": "AZ", "stars": 5.0, "review_count": 18, "is_open": 1}, "evhhJ-3v9wIdVFGH_JsEww": {"name": "Porter Barn Wood", "latitude": 33.438419, "longitude": -112.064594, "address": "901 S 7th St", "city": "Phoenix", "state": "AZ", "stars": 4.5, "review_count": 34, "is_open": 1}, "LPAa37pMuob2Bs1Grq9vIA": {"name": "Flores Air Conditioning", "latitude": 33.5395376, "longitude": -112.1167214, "address": "7027 N 27th Ave", "city": "Phoenix", "state": "AZ", "stars": 4.5, "review_count": 170, "is_open": 1}, "qw12nISmXTByDgBa32fBKQ": {"name": "GreenLight REI", "latitude": 33.5636878, "longitude": -112.0595603, "address": "PO Box 9915", "city": "Phoenix", "state": "AZ", "stars": 5.0, "review_count": 18, "is_open": 1}, "cLw9xNluWHyNLEUEi0WZ9Q": {"name": "AZ Vacuums", "latitude": 33.6407811, "longitude": -112.1328007, "address": "3434 W Bell Rd", "city": "Phoenix", "state": "AZ", "stars": 4.5, "review_count": 24, "is_open": 1}, "2BZC1BYnWjjJMHIVu0ZAMg": {"name": "Mike Macchiaroli Tree Company", "latitude": 33.5106684, "longitude": -112.029752, "address": "", "city": "Phoenix", "state": "AZ", "stars": 4.5, "review_count": 40, "is_open": 1}, "jikjjW1bN0swCMguFazcxg": {"name": "Jeremy Schachter & Zac White - Fairway Independent Mortgage", "latitude": 33.514093, "longitude": -112.0821380615, "address": "5229 N 7th Ave, Ste 108", "city": "Phoenix", "state": "AZ", "stars": 5.0, "review_count": 124, "is_open": 1}, "V4SyJqNsGHIgX999yp3nEg": {"name": "Steel Shield Doors and More", "latitude": 33.6896223, "longitude": -112.0963767, "address": "1725 W Williams Dr, Bldg E, Ste 54", "city": "Phoenix", "state": "AZ", "stars": 4.5, "review_count": 22, "is_open": 1}, "QuKdYy_B3dUsamWWK84mlw": {"name": "Mark's Luggage Service", "latitude": 33.4163027, "longitude": -112.047963, "address": "1542 E Victory St, Ste 1", "city": "Phoenix", "state": "AZ", "stars": 4.5, "review_count": 59, "is_open": 1}, "F-yDYOoZpORBgMEkcBM0cA": {"name": "Nevarez Landscaping & Construction", "latitude": 33.4499672, "longitude": -112.0702225, "address": "", "city": "Phoenix", "state": "AZ", "stars": 4.5, "review_count": 43, "is_open": 1}, "Kc0LtjwVtbB6mVfFo6zWSQ": {"name": "Eclipse Window Coverings", "latitude": 33.5106684, "longitude": -112.029752, "address": "", "city": "Phoenix", "state": "AZ", "stars": 5.0, "review_count": 20, "is_open": 1}, "WABuLD7MUc0QaaJBiiEwXg": {"name": "Special Ops Clean Team", "latitude": 33.6748334, "longitude": -112.0302178, "address": "20635 N Cave Creek Rd", "city": "Phoenix", "state": "AZ", "stars": 4.5, "review_count": 21, "is_open": 1}, "pals235j-S2z3dT-bY4RgA": {"name": "Brown Roofing LLC", "latitude": 33.592315, "longitude": -112.044541, "address": "11627 N 17th Pl", "city": "Phoenix", "state": "AZ", "stars": 4.5, "review_count": 121, "is_open": 1}, "a5Hvmoe1H1kM8kaB99xMag": {"name": "Stinkweeds", "latitude": 33.5095246881, "longitude": -112.0746651708, "address": "12 W Camelback Rd", "city": "Phoenix", "state": "AZ", "stars": 4.5, "review_count": 135, "is_open": 1}, "FdLSYjONVAPf686MAiSBBA": {"name": "Magaard Irrigation", "latitude": 33.6893937, "longitude": -112.0416754, "address": "", "city": "Phoenix", "state": "AZ", "stars": 4.5, "review_count": 19, "is_open": 1}, "eH7i8I-XoEta7h4mcRR06w": {"name": "Arizona Window Washers", "latitude": 33.6537187, "longitude": -112.1129637, "address": "18444 N 25th Ave, Ste 420", "city": "Phoenix", "state": "AZ", "stars": 5.0, "review_count": 21, "is_open": 1}, "7dqzn_UVl96T9aKMdVmjXA": {"name": "Ahwatukee Carpets", "latitude": 33.3085839, "longitude": -111.9786334, "address": "15215 S 48th St, Ste 185", "city": "Phoenix", "state": "AZ", "stars": 4.5, "review_count": 18, "is_open": 1}, "JKa-QWMQnA_M7SeoDW9-3g": {"name": "Protect-A-Child Pool Fence of Phoenix", "latitude": 33.4962205, "longitude": -111.9641728, "address": "", "city": "Phoenix", "state": "AZ", "stars": 5.0, "review_count": 61, "is_open": 1}, "iGiol6c1Ir1rb0uYmHYYQw": {"name": "Barry's True Value", "latitude": 33.5512857, "longitude": -112.058154, "address": "7820 N 12th St", "city": "Phoenix", "state": "AZ", "stars": 4.5, "review_count": 34, "is_open": 1}, "-R5GHyW0-sSoODOVoDq6cw": {"name": "Firefly Electric", "latitude": 33.3382956, "longitude": -111.9730456, "address": "5215 E Coronado Cir", "city": "Phoenix", "state": "AZ", "stars": 5.0, "review_count": 19, "is_open": 1}, "A3H749M1AEggNylDQ5Fr-A": {"name": "D&D Construction", "latitude": 33.6238562, "longitude": -112.0580085, "address": "N 11th St", "city": "Phoenix", "state": "AZ", "stars": 4.5, "review_count": 24, "is_open": 1}, "2h7wf09_kyqJjsUkKPpZag": {"name": "Econolight", "latitude": 33.57163, "longitude": -112.075425, "address": "32 W Hatcher Rd", "city": "Phoenix", "state": "AZ", "stars": 5.0, "review_count": 28, "is_open": 1}, "g_A6WutN91EL__n61zj6Lg": {"name": "TLC While You're Away", "latitude": 33.6134217469, "longitude": -111.9231124967, "address": "13901 N 73rd St, Ste 209", "city": "Phoenix", "state": "AZ", "stars": 5.0, "review_count": 31, "is_open": 1}, "An4cR5bvcDrnLaqhSUtA-A": {"name": "All Terrain Landscaping", "latitude": 33.5106684, "longitude": -112.029752, "address": "", "city": "Phoenix", "state": "AZ", "stars": 4.5, "review_count": 36, "is_open": 1}, "VKphJYou_PKyyJmJ4OUjjg": {"name": "Acme Locksmith - Phoenix", "latitude": 33.5378509, "longitude": -112.0551356, "address": "1219 E Glendale Ave, Ste 5", "city": "Phoenix", "state": "AZ", "stars": 4.5, "review_count": 46, "is_open": 1}, "DqSG7fucXjEhDLsKV4Fs4w": {"name": "Stellar Garage Door Service Inc", "latitude": 33.449188, "longitude": -112.0772, "address": "", "city": "Phoenix", "state": "AZ", "stars": 5.0, "review_count": 47, "is_open": 1}, "eVee0oVgYB-Cxa_jut97ag": {"name": "Dependable Glass", "latitude": 33.6651999, "longitude": -112.1107084, "address": "2401 W Behrend Dr", "city": "Phoenix", "state": "AZ", "stars": 4.5, "review_count": 24, "is_open": 1}, "VC7bU22yX2GicJJR3KZMzg": {"name": "Besco Lawn Mower Repair", "latitude": 33.5984578, "longitude": -112.1341501, "address": "12450 N 35th Ave, Ste 70", "city": "Phoenix", "state": "AZ", "stars": 5.0, "review_count": 22, "is_open": 1}, "NzdtzrrPY83hLE-uERbsTA": {"name": "Liberty Inspections", "latitude": 33.6364503, "longitude": -112.0118669, "address": "", "city": "Phoenix", "state": "AZ", "stars": 4.5, "review_count": 22, "is_open": 1}, "n83iXSJe72_h-RFzs7d5nw": {"name": "Patio Pros Landscape & Design", "latitude": 33.4499672, "longitude": -112.0702225, "address": "", "city": "Phoenix", "state": "AZ", "stars": 4.5, "review_count": 21, "is_open": 1}, "0pLsjHsWD93PGa7wr0XhCw": {"name": "Alexander's Plumbing", "latitude": 33.2909097, "longitude": -112.0357137, "address": "", "city": "Phoenix", "state": "AZ", "stars": 4.5, "review_count": 18, "is_open": 1}, "MSUrKuIMy9gfE-zjfcKjqQ": {"name": "Discount Granite", "latitude": 33.5697919, "longitude": -112.0858751, "address": "9207 N 10th Dr", "city": "Phoenix", "state": "AZ", "stars": 5.0, "review_count": 18, "is_open": 1}, "zXVH41CETPXQtJ64CiydpQ": {"name": "Royal Wood Flooring", "latitude": 33.5184992377, "longitude": -111.8737792969, "address": "79TH St", "city": "Phoenix", "state": "AZ", "stars": 4.5, "review_count": 42, "is_open": 1}, "ndTgznMYNe0n26VqzecEKQ": {"name": "I Clean Carpets", "latitude": 33.5053817585, "longitude": -111.9696659641, "address": "", "city": "Phoenix", "state": "AZ", "stars": 5.0, "review_count": 333, "is_open": 1}, "8wPcosq5HnF6ka1vFc4khA": {"name": "Biltmore Mechanical Heating And Cooling", "latitude": 33.4946979, "longitude": -112.047257, "address": "1600 E Indian School Rd", "city": "Phoenix", "state": "AZ", "stars": 5.0, "review_count": 21, "is_open": 1}, "E7wKP-BVnWlxnbQM3StOxg": {"name": "Mod", "latitude": 33.4799742, "longitude": -112.0745109, "address": "2828 N Central Ave, Ste 100", "city": "Phoenix", "state": "AZ", "stars": 4.5, "review_count": 22, "is_open": 1}, "XdUj6TgOnY7ZvtANgPvxSQ": {"name": "Savage Air Conditioning", "latitude": 33.3133002, "longitude": -112.0276561, "address": "2460 E Desert Trumpet Rd", "city": "Phoenix", "state": "AZ", "stars": 4.5, "review_count": 18, "is_open": 1}, "ErQskH8Q4StrYL8gsssf3Q": {"name": "Orion Mortgage Corporation", "latitude": 33.5873731, "longitude": -111.9786082, "address": "11120 N Tatum Blvd, Ste 100", "city": "Phoenix", "state": "AZ", "stars": 5.0, "review_count": 21, "is_open": 1}, "c2wgd6q_yYjU33u6V1gW1Q": {"name": "NorthStar Moving Company", "latitude": 33.5114334, "longitude": -112.0685027, "address": "", "city": "Phoenix", "state": "AZ", "stars": 5.0, "review_count": 52, "is_open": 1}, "nUF-P7OzoYxJ78WGU_I-Sw": {"name": "Johnny Locksmith", "latitude": 33.5094153, "longitude": -112.0396066, "address": "1940 E Camelback Rd, Unit 201b", "city": "Phoenix", "state": "AZ", "stars": 4.5, "review_count": 146, "is_open": 1}}