{"2hEgXCEkljp3Ini17CHGxw": {"name": "Red Hot Robot", "latitude": 33.5248915, "longitude": -112.0476381, "address": "6042 N 16th St", "city": "Phoenix", "state": "AZ", "stars": 4.5, "review_count": 43, "is_open": 0}, "oS_EHNKBTCSB9xh66CjDUQ": {"name": "Unexpected", "latitude": 33.453782, "longitude": -112.0837952, "address": "734 W Polk St", "city": "Phoenix", "state": "AZ", "stars": 4.5, "review_count": 35, "is_open": 1}, "ckTQPvKYdd9xBby5ND6FhQ": {"name": "3 Vintage Chicks", "latitude": 33.60466344, "longitude": -112.036806643, "address": "13012 N Cave Creek Rd", "city": "Phoenix", "state": "AZ", "stars": 5.0, "review_count": 18, "is_open": 1}, "ahyNR2Sfgrrbyds1nWq6cg": {"name": "Blooming Expressions Flowers", "latitude": 33.4636012, "longitude": -112.0535987, "address": "", "city": "Phoenix", "state": "AZ", "stars": 4.5, "review_count": 55, "is_open": 0}, "W3HI9tfQ8DAAJdkVWz5dQw": {"name": "Phoenix Carpet Repair & Cleaning", "latitude": 33.3754, "longitude": -112.076, "address": "115 W Beautiful Ln", "city": "Phoenix", "state": "AZ", "stars": 5.0, "review_count": 111, "is_open": 1}, "pCrhiOxgTjHLzyIj7R1eAw": {"name": "Harold Studio", "latitude": 33.4654633, "longitude": -112.0765341, "address": "115 W Mcdowell Rd, Ste 1", "city": "Phoenix", "state": "AZ", "stars": 5.0, "review_count": 19, "is_open": 1}, "o3Y2P-UD0iCPUT00_ZbJRA": {"name": "C & C Coin & Stamps", "latitude": 33.487895, "longitude": -112.030565, "address": "3404 N 24th St", "city": "Phoenix", "state": "AZ", "stars": 4.5, "review_count": 29, "is_open": 1}, "FyV3uSgmNQNArRBydU3q-A": {"name": "Teaspressa", "latitude": 33.4928084, "longitude": -111.9294873, "address": "7033 E Main St", "city": "Phoenix", "state": "AZ", "stars": 4.5, "review_count": 30, "is_open": 0}, "HKCGlqLNzHJLtFKD7qUVww": {"name": "Crystal Clear View Glass", "latitude": 33.4835192, "longitude": -112.1317041, "address": "3355 W Earll Dr", "city": "Phoenix", "state": "AZ", "stars": 4.5, "review_count": 72, "is_open": 1}, "lsHmnOZNlsKnEDsNmT-5_Q": {"name": "American Home Water & Air", "latitude": 33.6871466, "longitude": -112.1117839, "address": "22047 N Black Canyon Hwy", "city": "Phoenix", "state": "AZ", "stars": 5.0, "review_count": 340, "is_open": 1}, "PyIa-6fGY2IzCtwNDe0k8w": {"name": "See's Candies", "latitude": 33.5998254655, "longitude": -111.98285, "address": "4576 E Cactus Rd", "city": "Phoenix", "state": "AZ", "stars": 4.5, "review_count": 31, "is_open": 1}, "59BBNilh064BluKaMz1_1g": {"name": "Eye Priority", "latitude": 33.303345, "longitude": -111.984226, "address": "15815 S 46th St, Ste 116", "city": "Phoenix", "state": "AZ", "stars": 4.5, "review_count": 34, "is_open": 1}, "90DwosVtg_sHIpnSWkTdMA": {"name": "Hodson & Son Firearms", "latitude": 33.683216, "longitude": -112.083836, "address": "701 W Deer Valley Rd", "city": "Phoenix", "state": "AZ", "stars": 4.5, "review_count": 24, "is_open": 0}, "sN4daHbiNIQfWW243tcujg": {"name": "Moon Valley Nursery Tree Removal", "latitude": 33.6153250929, "longitude": -112.0647858116, "address": "14025 N 7th St", "city": "Phoenix", "state": "AZ", "stars": 4.5, "review_count": 24, "is_open": 1}, "wfjp2pkmxwt1mBOvFeN2yQ": {"name": "Ray Glasses", "latitude": 33.4951526, "longitude": -112.0029707, "address": "3631 E Indian School Rd", "city": "Phoenix", "state": "AZ", "stars": 4.5, "review_count": 18, "is_open": 1}, "IW-uNbIiKI_mWvKBMQ-gRA": {"name": "Chicks With Spiritual Gifts", "latitude": 33.4690061, "longitude": -112.0697136, "address": "141 E Palm Ln, Ste 208", "city": "Phoenix", "state": "AZ", "stars": 4.5, "review_count": 72, "is_open": 1}, "rWSqNbzHbqG8KeokeX6z1w": {"name": "Koller True Value Hardware", "latitude": 33.5243505, "longitude": -112.0478403, "address": "6016 N 16th St", "city": "Phoenix", "state": "AZ", "stars": 4.5, "review_count": 20, "is_open": 0}, "FOPC6-f4TIoGj1eJHMJbRQ": {"name": "Cutie", "latitude": 33.6236402, "longitude": -112.0314055, "address": "15034 N Cave Creek Rd, Ste 1", "city": "Phoenix", "state": "AZ", "stars": 5.0, "review_count": 58, "is_open": 1}, "1m-VowYNt6lZovacaIZRnw": {"name": "Custom Car Concepts", "latitude": 33.6366445, "longitude": -112.1108855, "address": "16601 N 25th Ave, Ste 109", "city": "Phoenix", "state": "AZ", "stars": 5.0, "review_count": 30, "is_open": 1}, "zmQwVqciryyAilpXYd3A5w": {"name": "Whitfill Nursery", "latitude": 33.3917447, "longitude": -112.0237671, "address": "2647 E Southern Ave", "city": "Phoenix", "state": "AZ", "stars": 4.5, "review_count": 40, "is_open": 1}, "VYqgGPB-wCG0EXdYk1qkwQ": {"name": "Jared's Fountain Repair", "latitude": 33.6368293508, "longitude": -112.0199941244, "address": "", "city": "Phoenix", "state": "AZ", "stars": 5.0, "review_count": 29, "is_open": 1}, "jg1JZzzJ8Ct4S3yZTkP9xg": {"name": "Bud's Glass Joint", "latitude": 33.457925, "longitude": -112.0671557, "address": "907 N 5th St", "city": "Phoenix", "state": "AZ", "stars": 4.5, "review_count": 40, "is_open": 1}, "cfl8LuQ7VleSQzTnFedyDA": {"name": "Atomic Audio Video", "latitude": 33.3211123, "longitude": -111.9880199, "address": "", "city": "Phoenix", "state": "AZ", "stars": 5.0, "review_count": 49, "is_open": 1}, "29jBAjC1Hkc7T-LKd_xRLA": {"name": "Barefoot Pools Pool Service & Repair", "latitude": 33.305433143, "longitude": -112.0569195794, "address": "1241 E Chandler Blvd, Ste 124", "city": "Phoenix", "state": "AZ", "stars": 4.5, "review_count": 100, "is_open": 1}, "apbvmz2jFzSfojJPBm96ww": {"name": "Global Bikes - Ahwatukee", "latitude": 33.31685, "longitude": -112.00444, "address": "3636 E Ray Rd, Ste 6", "city": "Phoenix", "state": "AZ", "stars": 4.5, "review_count": 34, "is_open": 1}, "VtwmWMGcpNf14twndon73w": {"name": "Coiffeur's Salon", "latitude": 33.459566, "longitude": -112.0742601, "address": "1024 N 1st Ave", "city": "Phoenix", "state": "AZ", "stars": 4.5, "review_count": 124, "is_open": 1}, "AqVIjraETpXWfLb-V--ODQ": {"name": "Mattress Firm Camelback East Village", "latitude": 33.5087199347, "longitude": -112.0429359159, "address": "1831 E Camelback Rd", "city": "Phoenix", "state": "AZ", "stars": 4.5, "review_count": 19, "is_open": 0}, "sRh_1g3VdC3Qd6xyoCwWjw": {"name": "Foot Solutions", "latitude": 33.6407174594, "longitude": -112.1105726646, "address": "2340 W Bell Rd, Ste 112", "city": "Phoenix", "state": "AZ", "stars": 4.5, "review_count": 21, "is_open": 1}, "kyuBJjmyaInF1eA1uUCb9Q": {"name": "Glockmeister Phoenix", "latitude": 33.6253281, "longitude": -112.0306992, "address": "15225 N Cave Creek Rd", "city": "Phoenix", "state": "AZ", "stars": 4.5, "review_count": 39, "is_open": 1}, "C-8TW2yCXycISAN9pjD2sQ": {"name": "Valley Goldmine", "latitude": 33.4484836, "longitude": -111.9838293, "address": "4600 E Washington St", "city": "Phoenix", "state": "AZ", "stars": 5.0, "review_count": 31, "is_open": 1}, "yo-1HHMGQt1K81FcUFqZeg": {"name": "Fire By James", "latitude": 33.3337224916, "longitude": -111.9743032, "address": "5130 E Bannck St", "city": "Phoenix", "state": "AZ", "stars": 5.0, "review_count": 28, "is_open": 1}, "IrmJ-Ah6Jhr3fApoZtA_Nw": {"name": "The Coffee Conspiracy", "latitude": 33.449188, "longitude": -112.0772, "address": "Conspire, 901 N 5th St", "city": "Phoenix", "state": "AZ", "stars": 4.5, "review_count": 18, "is_open": 0}, "wwiekc945nmfqMD20dZlPQ": {"name": "The Futon Favorite", "latitude": 33.5089845, "longitude": -112.0666863, "address": "509 E Camelback Rd", "city": "Phoenix", "state": "AZ", "stars": 4.5, "review_count": 33, "is_open": 1}, "s7dpxQY4pW1YmrOh5Che-g": {"name": "Phoenix Center For The Arts", "latitude": 33.4616939119, "longitude": -112.0698978556, "address": "1202 N 3rd St", "city": "Phoenix", "state": "AZ", "stars": 4.5, "review_count": 29, "is_open": 1}, "sonOwNb4iOdGjNyZIAs_Jg": {"name": "Phoenix Knife House", "latitude": 33.4941795, "longitude": -111.9763991, "address": "4837 E Indian School Rd", "city": "Phoenix", "state": "AZ", "stars": 5.0, "review_count": 69, "is_open": 1}, "vrGwjE59kp6Yh_ZlkflD-w": {"name": "Trader Joe's", "latitude": 33.5833102, "longitude": -111.9790307, "address": "4726 E Shea Blvd", "city": "Phoenix", "state": "AZ", "stars": 4.5, "review_count": 91, "is_open": 1}, "ibypzBxJ9-gZmERJewMGaA": {"name": "Rose Tuxedo", "latitude": 33.494152, "longitude": -112.029701, "address": "4031 N 24th St, Ste C", "city": "Phoenix", "state": "AZ", "stars": 4.5, "review_count": 38, "is_open": 1}, "oubCbnF9Ugh1vIGjRxQaVg": {"name": "See's Candies", "latitude": 33.5095283477, "longitude": -112.0709989914, "address": "132 E Camelback Rd", "city": "Phoenix", "state": "AZ", "stars": 5.0, "review_count": 35, "is_open": 1}, "FZSUgmCf-ngPNgQVM_ehbw": {"name": "Sky Hookah & Game Lounge", "latitude": 33.5513685, "longitude": -112.1171865, "address": "7802 N 27th Ave", "city": "Phoenix", "state": "AZ", "stars": 4.5, "review_count": 35, "is_open": 1}, "lkJYQIiVkykNjagPY48YqA": {"name": "Razor Emporium", "latitude": 33.44463441, "longitude": -112.0734039056, "address": "15 E Jackson St, Ste 111", "city": "Phoenix", "state": "AZ", "stars": 4.5, "review_count": 24, "is_open": 1}, "tireuI1twjZ7dmGgDvIRlA": {"name": "Record High", "latitude": 33.4220693799, "longitude": -111.9890130311, "address": "4242 E University Dr", "city": "Phoenix", "state": "AZ", "stars": 5.0, "review_count": 25, "is_open": 1}, "iFMGWKc-EA6U8OFFreEHiw": {"name": "Cobbler's Den Shoe and Luggage Repair", "latitude": 33.6043246, "longitude": -111.9778578, "address": "12871 N Tatum Blvd", "city": "Phoenix", "state": "AZ", "stars": 4.5, "review_count": 63, "is_open": 1}, "Cp85W5q4QJjf-AlrnXyp7Q": {"name": "PJs Flowers & Events", "latitude": 33.4201578, "longitude": -112.0048339, "address": "3021 S 35th St, Ste B-3", "city": "Phoenix", "state": "AZ", "stars": 5.0, "review_count": 60, "is_open": 1}, "GWmoiD-0jjEj5EaMfhhJLg": {"name": "The Nash Jazz Club", "latitude": 33.4588543, "longitude": -112.0722668663, "address": "110 E Roosevelt St, Ste 110", "city": "Phoenix", "state": "AZ", "stars": 4.5, "review_count": 67, "is_open": 1}, "nQPKK94wJUkkhgfMz4mKow": {"name": "Vape Central", "latitude": 33.5095292, "longitude": -112.0609579, "address": "914 E Camelback Rd", "city": "Phoenix", "state": "AZ", "stars": 4.5, "review_count": 81, "is_open": 1}, "knU0b5FaqtUSr1UrflaVbg": {"name": "Luv Bridal", "latitude": 33.4568702, "longitude": -112.0649076, "address": "803 N 7th St, Ste B", "city": "Phoenix", "state": "AZ", "stars": 4.5, "review_count": 251, "is_open": 1}, "osg6Ih7l7jckZWXxdKXeBQ": {"name": "Cranky Monkey Bike Shop", "latitude": 33.585592, "longitude": -112.013935, "address": "10880 N 32nd St", "city": "Phoenix", "state": "AZ", "stars": 4.5, "review_count": 25, "is_open": 1}, "KjRZT8R06nCJhQ_SLeBDgQ": {"name": "One of A Kind", "latitude": 33.4502127, "longitude": -112.0742371, "address": "11 W Monroe St", "city": "Phoenix", "state": "AZ", "stars": 5.0, "review_count": 18, "is_open": 1}, "JKsnmYNeZpvg9c01crzyRg": {"name": "Everything Goes", "latitude": 33.5931132, "longitude": -112.0411729, "address": "11649 N Cave Creek Rd, Ste 4", "city": "Phoenix", "state": "AZ", "stars": 4.5, "review_count": 32, "is_open": 1}, "rDHqnxiskqE9kYyWzfdy1g": {"name": "C2 Tactical", "latitude": 33.657096, "longitude": -111.926357, "address": "7000 E Mayo Blvd", "city": "Phoenix", "state": "AZ", "stars": 4.5, "review_count": 52, "is_open": 1}, "UP2iSqCGIHU5EHZ1vNNfkQ": {"name": "Practical Art", "latitude": 33.5110722283, "longitude": -112.0741367946, "address": "5070 N Central Ave", "city": "Phoenix", "state": "AZ", "stars": 4.5, "review_count": 43, "is_open": 1}, "ACBC7mTesZDsykfMios-DA": {"name": "Burland Jewelry Center", "latitude": 33.5256394, "longitude": -112.0483357, "address": "6102 N 16th St", "city": "Phoenix", "state": "AZ", "stars": 5.0, "review_count": 136, "is_open": 1}, "0lSeS_GwMP6x57_Eu2pkfw": {"name": "One Stop Nutrition", "latitude": 33.4954905336, "longitude": -111.9865928383, "address": "4115 N 44th St", "city": "Phoenix", "state": "AZ", "stars": 4.5, "review_count": 32, "is_open": 1}, "YmYUnBthYXPo0Fr_mT8pbg": {"name": "Red Star Vapor", "latitude": 33.6272767, "longitude": -111.9952466, "address": "4022 E Greenway Rd, Ste 4", "city": "Phoenix", "state": "AZ", "stars": 4.5, "review_count": 18, "is_open": 1}, "GO0o1Um-vco5FsHlR3nZ9Q": {"name": "Extreme Micro", "latitude": 33.4484047, "longitude": -111.9837099, "address": "4600 E Washington St, Ste 300", "city": "Phoenix", "state": "AZ", "stars": 4.5, "review_count": 23, "is_open": 1}, "5BA9l5NiPYI_MfoiWnWLGw": {"name": "Urban Yoga", "latitude": 33.4860271, "longitude": -112.0732999, "address": "1 E Lexington Ave", "city": "Phoenix", "state": "AZ", "stars": 4.5, "review_count": 110, "is_open": 1}, "Iy-8SbnmobuW8jwJWQE-kQ": {"name": "The Home Theater Doctor", "latitude": 33.5095935, "longitude": -112.0397658, "address": "1934 E Camelback Rd, Ste F120", "city": "Phoenix", "state": "AZ", "stars": 5.0, "review_count": 29, "is_open": 1}, "9NGr9A8MArNtTgjzhBnw2g": {"name": "The Trunk Space", "latitude": 33.4609111, "longitude": -112.0699652, "address": "1124 N 3rd St", "city": "Phoenix", "state": "AZ", "stars": 4.5, "review_count": 31, "is_open": 1}, "fa8HUKKNT_TDE_DNlTNC2Q": {"name": "Arizona Shade Masters", "latitude": 33.6416362, "longitude": -112.0495156, "address": "1510 E Bell Rd", "city": "Phoenix", "state": "AZ", "stars": 5.0, "review_count": 26, "is_open": 1}, "tDKP5fliywfNc8yNt7UYsA": {"name": "The Painters Lounge", "latitude": 33.4590038, "longitude": -112.0775848, "address": "1001 N 3rd Ave, Ste 7", "city": "Phoenix", "state": "AZ", "stars": 5.0, "review_count": 37, "is_open": 1}, "bTYuSYJpLL3e2YhKpnGayQ": {"name": "Desert Data Recovery", "latitude": 33.505437, "longitude": -112.0341053, "address": "2211 E Highland Ave, Ste 108", "city": "Phoenix", "state": "AZ", "stars": 5.0, "review_count": 32, "is_open": 1}, "_J-nDE8uzOs4dW7FOVN54A": {"name": "The Oculist Exceptional Eyewear", "latitude": 33.4723236, "longitude": -112.0304887, "address": "2230 N 24th St", "city": "Phoenix", "state": "AZ", "stars": 4.5, "review_count": 57, "is_open": 1}, "V0kTGj2MtNw_b_1J535fZw": {"name": "Perennials", "latitude": 33.4803234, "longitude": -111.9603069, "address": "5618 E Thomas Rd, Ste 120", "city": "Phoenix", "state": "AZ", "stars": 5.0, "review_count": 25, "is_open": 1}, "TdtqM2_B1ndLcap5Y-OcXA": {"name": "Bike Doctor", "latitude": 33.5561351, "longitude": -112.0574644, "address": "8131 N 11th Pl", "city": "Phoenix", "state": "AZ", "stars": 5.0, "review_count": 60, "is_open": 1}, "ErSdnIk1P3oSqXmHQpeGMw": {"name": "Modern Manor", "latitude": 33.4959472, "longitude": -112.083919, "address": "4130 North 7th Ave", "city": "Phoenix", "state": "AZ", "stars": 4.5, "review_count": 40, "is_open": 1}, "2sk0RinCmJZM494gbs9F4g": {"name": "Elgin Nursery & Tree Farm", "latitude": 33.4653968, "longitude": -112.2450524, "address": "8606 W McDowell Rd", "city": "Phoenix", "state": "AZ", "stars": 4.5, "review_count": 24, "is_open": 1}, "gq8hWHotZL7qs1NEQ0x53w": {"name": "LoveBug Doula Care & Natural Essentials", "latitude": 33.4499672, "longitude": -112.0702225, "address": "", "city": "Phoenix", "state": "AZ", "stars": 5.0, "review_count": 22, "is_open": 1}, "p3cBYY8Tov5TOaXV2aY-wA": {"name": "Trader Joe's", "latitude": 33.5072229412, "longitude": -112.0377830646, "address": "4821 N 20th St", "city": "Phoenix", "state": "AZ", "stars": 4.5, "review_count": 196, "is_open": 1}, "uUEMrhJiL1a1pCA_I1SU7Q": {"name": "Baxter's Cigars", "latitude": 33.5080678, "longitude": -112.0375524, "address": "2017 E Camelback Rd", "city": "Phoenix", "state": "AZ", "stars": 5.0, "review_count": 25, "is_open": 0}, "79ZgGTqGlqvGgMVClzvHrA": {"name": "Mexican Art Imports", "latitude": 33.4527803, "longitude": -112.0305438, "address": "340 N 24th St", "city": "Phoenix", "state": "AZ", "stars": 5.0, "review_count": 32, "is_open": 1}, "P4pSRMjmr8rAXtf740at7Q": {"name": "Brothers Tailors & Clothing CO.", "latitude": 33.5072383, "longitude": -112.0741104, "address": "4750 N Central Ave", "city": "Phoenix", "state": "AZ", "stars": 4.5, "review_count": 85, "is_open": 1}, "V3rk83tWQ3t8db5Otk-4vA": {"name": "Antique Sugar", "latitude": 33.4569243, "longitude": -112.070878, "address": "801 N 2nd St, Ste 104", "city": "Phoenix", "state": "AZ", "stars": 4.5, "review_count": 45, "is_open": 1}, "pbc1PalcR3V6duF4Tk5F_Q": {"name": "Nick's Furniture", "latitude": 33.4751563, "longitude": -112.0472178, "address": "2523 N 16th St", "city": "Phoenix", "state": "AZ", "stars": 4.5, "review_count": 41, "is_open": 1}, "gfeCCBFK1b3SMsb_7dTrOA": {"name": "Trumed Dispensary", "latitude": 33.466218, "longitude": -111.995271, "address": "1613 N 40th St", "city": "Phoenix", "state": "AZ", "stars": 4.5, "review_count": 78, "is_open": 1}, "BbH_waWdlUMjiEr__lTAIQ": {"name": "Framin' Works", "latitude": 33.4801226, "longitude": -112.0142828, "address": "3119 East Thomas Rd", "city": "Phoenix", "state": "AZ", "stars": 5.0, "review_count": 35, "is_open": 1}, "96r6yHlgPqoUZswpbgzq8w": {"name": "All American Eyeglass Repair", "latitude": 33.610826, "longitude": -111.9791238, "address": "13636 N Tatum Blvd, Ste 6", "city": "Phoenix", "state": "AZ", "stars": 5.0, "review_count": 65, "is_open": 1}, "xAXjYWAz-eNTLdAu7Ag8xw": {"name": "Barry's Ace Hardware", "latitude": 33.538145, "longitude": -112.100995, "address": "1929 W Glendale Ave", "city": "Phoenix", "state": "AZ", "stars": 4.5, "review_count": 32, "is_open": 1}, "GqGxERckGNoVxOfG0DVjHg": {"name": "Tuft & Needle HQ", "latitude": 33.4523379429, "longitude": -112.083825881, "address": "735 Grand Ave", "city": "Phoenix", "state": "AZ", "stars": 4.5, "review_count": 159, "is_open": 1}, "jcpgiXF0PCyS9hrvqseGEA": {"name": "Arizona Archery Club", "latitude": 33.6832469, "longitude": -112.0874121, "address": "1115 W Deer Valley Rd, Ste 1", "city": "Phoenix", "state": "AZ", "stars": 4.5, "review_count": 37, "is_open": 1}, "By4AfAgbsim3eD8JjhOMCA": {"name": "Ganem Jewelers", "latitude": 33.315758, "longitude": -112.0063244, "address": "3602 E Ray Rd", "city": "Phoenix", "state": "AZ", "stars": 4.5, "review_count": 37, "is_open": 1}, "q9xum44SDEy3IMHV8Jf0KQ": {"name": "Mr Formal", "latitude": 33.509104, "longitude": -112.0679689, "address": "333 E Camelback Rd", "city": "Phoenix", "state": "AZ", "stars": 4.5, "review_count": 22, "is_open": 1}, "2Qd5K6I7wjWbnAQm4EPklw": {"name": "Collectors Marketplace", "latitude": 33.4942539342, "longitude": -112.0394260965, "address": "1945 E Indian School Rd", "city": "Phoenix", "state": "AZ", "stars": 4.5, "review_count": 48, "is_open": 1}, "Sz0PU5y6cjlnR96twxyT1A": {"name": "The Vision Center of West Phoenix", "latitude": 33.5080690749, "longitude": -112.2643947601, "address": "9515 W Camelback Rd, Ste 110", "city": "Phoenix", "state": "AZ", "stars": 4.5, "review_count": 52, "is_open": 1}, "fCx9d8ZtigoaqoY8B4yK0g": {"name": "All About Me Medical Aesthetics", "latitude": 33.796556, "longitude": -112.1193572, "address": "34406 N 27th Dr, Bldg 4, Ste 128", "city": "Phoenix", "state": "AZ", "stars": 4.5, "review_count": 36, "is_open": 1}, "q_mu0tBczSDApqcffCwtMQ": {"name": "Ye Olde Pipe & Tobacco Shoppe", "latitude": 33.5029039217, "longitude": -112.029746453, "address": "4525 N 24th St, Ste 110", "city": "Phoenix", "state": "AZ", "stars": 4.5, "review_count": 32, "is_open": 1}, "1wJckBZ43wD3Y8SEm92c-Q": {"name": "Wireless Toyz", "latitude": 33.6401533, "longitude": -112.0328959, "address": "16878 N Cave Creek Rd", "city": "Phoenix", "state": "AZ", "stars": 4.5, "review_count": 18, "is_open": 1}, "cknjZhYY1c4KW9Z2xcN6LQ": {"name": "High Street", "latitude": 33.6759892, "longitude": -111.9644988, "address": "5410 E High St", "city": "Phoenix", "state": "AZ", "stars": 4.5, "review_count": 21, "is_open": 1}, "arhlkk4ZAWetl8nWT5xNYw": {"name": "Appliance Logic, LLC", "latitude": 33.5836182, "longitude": -111.9744362, "address": "10645 N Tatum Blvd", "city": "Phoenix", "state": "AZ", "stars": 4.5, "review_count": 54, "is_open": 0}, "HfVSzrebW4PgUsakKv8v-Q": {"name": "The Watch Repair Company", "latitude": 33.4954084746, "longitude": -112.0024572801, "address": "3638 E Indian School Rd, Ste100", "city": "Phoenix", "state": "AZ", "stars": 4.5, "review_count": 121, "is_open": 1}, "aNYlGDgtWjm6mmlQgmThkg": {"name": "Pro Motorsports AZ", "latitude": 33.680341, "longitude": -112.113354, "address": "21242 N Black Canyon Hwy, Ste H", "city": "Phoenix", "state": "AZ", "stars": 4.5, "review_count": 22, "is_open": 1}, "K98PcFE04FRWFPXa0wsYZw": {"name": "J' Adore Sal\u00f3n", "latitude": 33.6312394, "longitude": -112.0313397, "address": "15850 N Cave Creek Rd, Ste 1", "city": "Phoenix", "state": "AZ", "stars": 4.5, "review_count": 37, "is_open": 1}, "U9JaYw2Qxmy0CscXBpIRGg": {"name": "Senor Mist", "latitude": 33.6829693, "longitude": -112.0924421, "address": "1515 W Deer Valley Rd, Unite B104", "city": "Phoenix", "state": "AZ", "stars": 5.0, "review_count": 25, "is_open": 1}, "R67i1c41zZZ3QMYDPmNClw": {"name": "First Draft Book Bar", "latitude": 33.5097699, "longitude": -112.0788401, "address": "300 W Camelback Rd", "city": "Phoenix", "state": "AZ", "stars": 4.5, "review_count": 70, "is_open": 1}, "eysYJ8mRloriv7jm1D2f1g": {"name": "Table Tops Etc", "latitude": 33.4568702, "longitude": -112.0649164, "address": "803 N 7th St", "city": "Phoenix", "state": "AZ", "stars": 4.5, "review_count": 22, "is_open": 1}, "o-nPjYCIdiofu0XVQp3s3A": {"name": "Tatum Eyecare", "latitude": 33.6368705, "longitude": -111.9774758, "address": "16429 N Tatum Blvd", "city": "Phoenix", "state": "AZ", "stars": 5.0, "review_count": 62, "is_open": 1}, "MoxLG0Yk3MhuyuPxhQ-POQ": {"name": "Trans Am PHX", "latitude": 33.4593080601, "longitude": -112.091659829, "address": "1506 N W Grand Ave", "city": "Phoenix", "state": "AZ", "stars": 5.0, "review_count": 20, "is_open": 1}, "csz4Pp1D54bOIhqwtECzdw": {"name": "Schmitt Jewelers", "latitude": 33.5098399, "longitude": -111.9861103, "address": "4402 E Camelback Rd", "city": "Phoenix", "state": "AZ", "stars": 4.5, "review_count": 25, "is_open": 1}, "HIown76a97kw1VlfMrPn9g": {"name": "Foothills Garage Door", "latitude": 33.3211123, "longitude": -111.9880199, "address": "", "city": "Phoenix", "state": "AZ", "stars": 4.5, "review_count": 23, "is_open": 1}, "hGfgR4eN8T2IVvviJaZdBA": {"name": "Geeks & Clicks", "latitude": 33.4943769, "longitude": -112.030875, "address": "2335 E Indian School Rd", "city": "Phoenix", "state": "AZ", "stars": 4.5, "review_count": 37, "is_open": 1}, "K_hlR0YURfkPsknMai8LHQ": {"name": "The Goldsmith", "latitude": 33.6303811, "longitude": -112.1340695, "address": "15850 N 35th Ave", "city": "Phoenix", "state": "AZ", "stars": 5.0, "review_count": 27, "is_open": 1}, "bxwQ_u-5e6tJfGcp-enlPw": {"name": "Blue Dot Pools, LLC", "latitude": 33.7326779002, "longitude": -112.1494510359, "address": "", "city": "Phoenix", "state": "AZ", "stars": 4.5, "review_count": 20, "is_open": 1}, "xAD6Hyw2FZgdrlDltDlCMQ": {"name": "HomeGoods", "latitude": 33.317367, "longitude": -111.978156, "address": "4847 E Ray Rd", "city": "Phoenix", "state": "AZ", "stars": 4.5, "review_count": 20, "is_open": 1}, "9VKXdVbyHM5CyGmMffWKnQ": {"name": "The Newton", "latitude": 33.5097699, "longitude": -112.0788401, "address": "300 W Camelback Rd", "city": "Phoenix", "state": "AZ", "stars": 4.5, "review_count": 25, "is_open": 1}, "dWdbL7bqOJHiVJ0cwJKDCw": {"name": "Desert Foothills Ace Hardware", "latitude": 33.3042294374, "longitude": -112.054467187, "address": "1335 E Chandler Blvd", "city": "Phoenix", "state": "AZ", "stars": 4.5, "review_count": 44, "is_open": 1}, "_2o8c8SqTaCvhHi7K1HqhA": {"name": "Monorchid", "latitude": 33.4589885, "longitude": -112.0704862, "address": "214 E Roosevelt St", "city": "Phoenix", "state": "AZ", "stars": 4.5, "review_count": 44, "is_open": 1}, "v-24yYDYoOM7ZCAlcPSwWA": {"name": "Fallout Games", "latitude": 33.638378, "longitude": -112.147772, "address": "4139 W Bell Rd, Ste 12", "city": "Phoenix", "state": "AZ", "stars": 4.5, "review_count": 30, "is_open": 1}, "H3YjkY_MiZMFUcWaGWgy5A": {"name": "Cannafyl CBD", "latitude": 33.6236386, "longitude": -111.978418, "address": "15030 N Tatum Blvd Ste, Ste 130", "city": "Phoenix", "state": "AZ", "stars": 4.5, "review_count": 23, "is_open": 1}, "9SMeQVE3fhs9eG3c6adXYw": {"name": "Giving Tree Dispensary", "latitude": 33.6824083, "longitude": -112.084571, "address": "21617 N 9th Ave", "city": "Phoenix", "state": "AZ", "stars": 4.5, "review_count": 45, "is_open": 1}, "IPqUbiipnkJeQ9X5qHGkBA": {"name": "Supercuts", "latitude": 33.478912, "longitude": -111.998906, "address": "3833 E Thomas Rd Ste A5, Desert Palms Center", "city": "Phoenix", "state": "AZ", "stars": 4.5, "review_count": 22, "is_open": 1}, "Za2eCgmhqVtqbsydGucpeQ": {"name": "Arizona Iron Patio Furniture", "latitude": 33.456204, "longitude": -112.088814, "address": "1209 Grand Ave", "city": "Phoenix", "state": "AZ", "stars": 5.0, "review_count": 27, "is_open": 1}, "vyMYESwDpWa1pRSUBBM4XA": {"name": "Roadrunner Florist", "latitude": 33.523699, "longitude": -112.102527, "address": "2007 W Bethany Home Rd, Ste A", "city": "Phoenix", "state": "AZ", "stars": 5.0, "review_count": 76, "is_open": 1}, "FXJlkjkUngKDXVJlN89esg": {"name": "Urban Southwest", "latitude": 33.509516, "longitude": -112.059755, "address": "1016 E Camelback Rd", "city": "Phoenix", "state": "AZ", "stars": 4.5, "review_count": 26, "is_open": 1}, "pjp3RRwUB1kyVl6rGGnnRQ": {"name": "Hunt Amplification", "latitude": 33.6803018, "longitude": -112.1070743, "address": "2202 W Lone Cactus Dr, Ste 4", "city": "Phoenix", "state": "AZ", "stars": 5.0, "review_count": 24, "is_open": 1}, "0Zw_DHFFl7Tyl_gGM4eUrg": {"name": "Trend Vape Smoke", "latitude": 33.5237486, "longitude": -112.0464946, "address": "1616 E Bethany Home", "city": "Phoenix", "state": "AZ", "stars": 4.5, "review_count": 33, "is_open": 1}, "iVsV6Dapq2PHKFXy6TCcQw": {"name": "Got Memories", "latitude": 33.5819174, "longitude": -112.0115409, "address": "3241 E Shea Blvd, Ste 9E", "city": "Phoenix", "state": "AZ", "stars": 4.5, "review_count": 23, "is_open": 1}, "O2rcH_g5cyBdCMiJEiQztg": {"name": "Stress Away", "latitude": 33.522372, "longitude": -112.09641, "address": "1703 W Bethany Home Rd, Ste D002", "city": "Phoenix", "state": "AZ", "stars": 4.5, "review_count": 19, "is_open": 1}, "RwnePLERBTS_xtyV7Rx1AQ": {"name": "iPro iPhone & iPad Repair - Phoenix", "latitude": 33.624408, "longitude": -111.978349, "address": "4757 E Greenway Rd, Ste 107A", "city": "Phoenix", "state": "AZ", "stars": 4.5, "review_count": 133, "is_open": 1}, "Fsyw5fQBk1oX4ti_WnbbGw": {"name": "Total Air and Appliances", "latitude": 33.5124238, "longitude": -112.0621918, "address": "830 E Orange Dr", "city": "Phoenix", "state": "AZ", "stars": 4.5, "review_count": 32, "is_open": 1}, "i5pipmfFbLZ_Xfl5FbL3fQ": {"name": "Suit Yourself OutLet", "latitude": 33.479862, "longitude": -112.0514959, "address": "1407 E Thomas Rd", "city": "Phoenix", "state": "AZ", "stars": 4.5, "review_count": 21, "is_open": 1}, "STr6DJYN0IcRQc7isiplBg": {"name": "Framed Ewe", "latitude": 33.517821, "longitude": -112.065615, "address": "5538 N 7th St, Ste 120", "city": "Phoenix", "state": "AZ", "stars": 5.0, "review_count": 32, "is_open": 1}, "XpknXTIXGriiU3Nx9bgqKw": {"name": "Fairmont Pharmacy", "latitude": 33.51115, "longitude": -112.07413, "address": "5068 N Central Ave", "city": "Phoenix", "state": "AZ", "stars": 4.5, "review_count": 20, "is_open": 1}, "35JoA_jX8eoenORiOVwe9Q": {"name": "Southwestern Eye Center", "latitude": 33.5018872, "longitude": -112.1722204, "address": "5251 W Campbell Ave, Ste 102", "city": "Phoenix", "state": "AZ", "stars": 4.5, "review_count": 19, "is_open": 1}, "gnV8-S02xSBHhWFv4-Jrrw": {"name": "Lifetime Eye Care", "latitude": 33.3035053, "longitude": -111.99869, "address": "3961 E Chandler Blvd, Ste 106", "city": "Phoenix", "state": "AZ", "stars": 4.5, "review_count": 55, "is_open": 1}, "xDG0W6lKCJy_oZZzjgKEeQ": {"name": "Building Block Masonry", "latitude": 33.691668, "longitude": -111.98604, "address": "22603 N 39th Ter", "city": "Phoenix", "state": "AZ", "stars": 4.5, "review_count": 30, "is_open": 1}, "SQ8wBomqn13mG-9ooZtVXw": {"name": "Image Sun Tanning Centers", "latitude": 33.655578, "longitude": -112.0121477544, "address": "3230 E Union Hills Dr, Ste 105", "city": "Phoenix", "state": "AZ", "stars": 4.5, "review_count": 26, "is_open": 1}, "gjZHX20bL4fYtAAduQEfpA": {"name": "Off Chute Too", "latitude": 33.4953722, "longitude": -112.0831039, "address": "4111 N 7th Ave", "city": "Phoenix", "state": "AZ", "stars": 4.5, "review_count": 27, "is_open": 1}, "1VMRFPjkY27-moQq_qW7Kg": {"name": "MADE Art Boutique", "latitude": 33.4584797, "longitude": -112.0677905, "address": "922 N 5th St", "city": "Phoenix", "state": "AZ", "stars": 4.5, "review_count": 61, "is_open": 1}, "11vopBwepN-JPTuffOLCww": {"name": "HUSTLER Hollywood", "latitude": 33.5770179, "longitude": -112.1179182, "address": "10017 N Metro Pkwy E", "city": "Phoenix", "state": "AZ", "stars": 4.5, "review_count": 26, "is_open": 1}, "vDXZAyYB6SVI7WmazmEXgg": {"name": "Streetfighter Motorsports", "latitude": 33.640822, "longitude": -112.023314, "address": "2728 E Bell Rd", "city": "Phoenix", "state": "AZ", "stars": 4.5, "review_count": 20, "is_open": 1}, "yxzy1t3iSMuzXZNcAKldZA": {"name": "Dig It Gardens", "latitude": 33.4818866585, "longitude": -112.0472749695, "address": "3015 N 16th St", "city": "Phoenix", "state": "AZ", "stars": 4.5, "review_count": 92, "is_open": 1}, "L9UcvqvD9i0NuBgSu1IfMQ": {"name": "Carolina Blue Pools & Spas", "latitude": 33.6084469, "longitude": -112.0668086, "address": "428 E Thunderbird Rd, Ste 703", "city": "Phoenix", "state": "AZ", "stars": 5.0, "review_count": 18, "is_open": 1}, "Kdm5HzVNzAh4miIWZ8S1ig": {"name": "Perry Monge Salon Spa", "latitude": 33.4480554, "longitude": -112.0742314, "address": "11 W Washington St, Ste 240", "city": "Phoenix", "state": "AZ", "stars": 4.5, "review_count": 62, "is_open": 1}, "YxmGR515BH9Wt1W5bQG31g": {"name": "Allied Surplus", "latitude": 33.598316, "longitude": -112.135322, "address": "12450 N 35th Ave", "city": "Phoenix", "state": "AZ", "stars": 4.5, "review_count": 19, "is_open": 1}, "QDO1yaCgu9CKNIOfmqtQqA": {"name": "Central Music", "latitude": 33.5101793, "longitude": -112.0741651, "address": "5038 N Central Ave", "city": "Phoenix", "state": "AZ", "stars": 4.5, "review_count": 21, "is_open": 1}, "w0vMtB8LyyUA0Uny0LOD0w": {"name": "Inventory Adjusters", "latitude": 33.46515, "longitude": -112.006656, "address": "3437 E McDowell Rd", "city": "Phoenix", "state": "AZ", "stars": 4.5, "review_count": 23, "is_open": 1}, "AkOVHr2MqItV8FoXjt58_A": {"name": "Record Room", "latitude": 33.5672456, "longitude": -112.1155612, "address": "2601 W Dunlap Ave, Ste 15", "city": "Phoenix", "state": "AZ", "stars": 4.5, "review_count": 56, "is_open": 1}, "4p9fBHj75WA9Qr-obi1_FQ": {"name": "Om Ink Gallery", "latitude": 33.466523, "longitude": -112.2545660675, "address": "1805 N 91st Ave, Ste 100", "city": "Phoenix", "state": "AZ", "stars": 4.5, "review_count": 33, "is_open": 1}, "Yqsg9bZvzG_zX4sMivRa-w": {"name": "Valley Eyecare Center", "latitude": 33.4842373, "longitude": -111.9873389, "address": "3050 N 44th St", "city": "Phoenix", "state": "AZ", "stars": 4.5, "review_count": 61, "is_open": 1}, "6xisy8CPn2fve6JWdsbjDQ": {"name": "Smoking Vapor", "latitude": 33.473368, "longitude": -111.9862264, "address": "2303 N 44th St, Ste 2", "city": "Phoenix", "state": "AZ", "stars": 4.5, "review_count": 20, "is_open": 1}, "a0hzIN7EJWVjogw-IEXYqw": {"name": "Sunday Cycles Bike Shop", "latitude": 33.5854717773, "longitude": -112.0137872006, "address": "10880 N 32nd, Ste 19", "city": "Phoenix", "state": "AZ", "stars": 4.5, "review_count": 47, "is_open": 0}, "37Zql0tNKHf804pBc_Jdcw": {"name": "Dreadnought Comics", "latitude": 33.6416999508, "longitude": -112.1186829627, "address": "2734 W Bell Rd, Ste 1346", "city": "Phoenix", "state": "AZ", "stars": 4.5, "review_count": 29, "is_open": 1}, "ewvBhAgfJi43aZmWCd3Zag": {"name": "Bicycle Nomad", "latitude": 33.4574348274, "longitude": -112.0716389291, "address": "828 N 2nd St", "city": "Phoenix", "state": "AZ", "stars": 4.5, "review_count": 48, "is_open": 1}, "nkYnC7aj-vgFfjEOjv7_gA": {"name": "Butt Out", "latitude": 33.4768431, "longitude": -112.0646608, "address": "708 E Virginia Ave", "city": "Phoenix", "state": "AZ", "stars": 5.0, "review_count": 62, "is_open": 1}, "s_CsWzEMOlk6WVCEHjk-1w": {"name": "Sun Cellular", "latitude": 33.6270503, "longitude": -112.0250479, "address": "2625 E Greenway Pkwy, Ste 111", "city": "Phoenix", "state": "AZ", "stars": 4.5, "review_count": 54, "is_open": 1}, "Npsws-Pn0S7vtCKdxrmrUw": {"name": "Arizona Mattress Overstock", "latitude": 33.6407078, "longitude": -112.0989625, "address": "1838 W Bell Rd", "city": "Phoenix", "state": "AZ", "stars": 4.5, "review_count": 64, "is_open": 1}, "kwoUC55HsfZDHjCf8qSRnA": {"name": "Lash House AZ", "latitude": 33.5103791, "longitude": -112.0110028, "address": "3240 E Camelback Rd, Ste 20", "city": "Phoenix", "state": "AZ", "stars": 4.5, "review_count": 40, "is_open": 1}, "t5gV48Q8umuyRj7oiSpFIw": {"name": "Valley Medical Supplies", "latitude": 33.6417981, "longitude": -111.9945872, "address": "4030 E Bell Rd, Ste 105", "city": "Phoenix", "state": "AZ", "stars": 4.5, "review_count": 25, "is_open": 1}, "KTtqAhOYvh-8H5V-aiq9Aw": {"name": "Paraphernalia Boutique", "latitude": 33.5678842, "longitude": -112.1502403, "address": "4234 W Dunlap Ave", "city": "Phoenix", "state": "AZ", "stars": 4.5, "review_count": 23, "is_open": 1}, "w435QFVU2mcwwe_BTtzaAQ": {"name": "Pinkys Barbershop", "latitude": 33.4653661602, "longitude": -112.0773341507, "address": "135 W Mcdowell Rd", "city": "Phoenix", "state": "AZ", "stars": 4.5, "review_count": 28, "is_open": 1}, "zkdtRsV0WH0yT7QqR6kMug": {"name": "Accent Marble & Granite", "latitude": 33.682355, "longitude": -112.087779, "address": "21609 N 12th Ave, Ste 800", "city": "Phoenix", "state": "AZ", "stars": 4.5, "review_count": 21, "is_open": 1}, "J3HR1X1oARY-sXrKq-bc-Q": {"name": "Strut", "latitude": 33.4659905, "longitude": -112.0820806, "address": "542 W McDowell Rd", "city": "Phoenix", "state": "AZ", "stars": 4.5, "review_count": 45, "is_open": 0}, "O4hJF5ULSOFzAV0bXhKTOg": {"name": "Stay Off the Roof", "latitude": 33.4040693, "longitude": -112.029752, "address": "", "city": "Phoenix", "state": "AZ", "stars": 4.5, "review_count": 19, "is_open": 1}, "twOcD5kUudEwzLfUdaVduA": {"name": "Haus of Vapors", "latitude": 33.4960409, "longitude": -112.0205662, "address": "2824 E Indian School Rd, Ste 12", "city": "Phoenix", "state": "AZ", "stars": 4.5, "review_count": 51, "is_open": 1}, "x0edxI_Y48zKtxgRO0uIpg": {"name": "Copenhagen Showroom - Phoenix", "latitude": 33.5086889, "longitude": -112.0448495, "address": "1701 E Camelback Rd", "city": "Phoenix", "state": "AZ", "stars": 4.5, "review_count": 34, "is_open": 1}, "geUiFdS9WcjahI6RIQWrWw": {"name": "This Old Vape Shop", "latitude": 33.6062509, "longitude": -112.0358651, "address": "13063 N Cave Creek Rd", "city": "Phoenix", "state": "AZ", "stars": 5.0, "review_count": 30, "is_open": 1}, "e_R-LRqyNqYDySHHah0Qww": {"name": "Posh Midtown Boutique", "latitude": 33.5378983, "longitude": -112.0568549, "address": "1145 E Glendale Ave", "city": "Phoenix", "state": "AZ", "stars": 4.5, "review_count": 31, "is_open": 0}, "amX1q3YM4meyiLgSY5JQ4Q": {"name": "Scottsdale Eye Care", "latitude": 33.6003502, "longitude": -112.0134971, "address": "12450 N 32nd St", "city": "Phoenix", "state": "AZ", "stars": 4.5, "review_count": 18, "is_open": 1}, "6hv64R870PXsXWZYamkxbQ": {"name": "Wes Flinn RPT", "latitude": 33.382956, "longitude": -111.994068, "address": "4031 E Carson Rd", "city": "Phoenix", "state": "AZ", "stars": 5.0, "review_count": 22, "is_open": 0}, "pDYtNQVbvNIPfYDU32uk3Q": {"name": "Nextech Repair", "latitude": 33.4884963922, "longitude": -112.065548004, "address": "3508 N 7th St, Ste 135", "city": "Phoenix", "state": "AZ", "stars": 4.5, "review_count": 90, "is_open": 0}, "mZCUht2OMoTpa8XnppWYpw": {"name": "Sun Cyclery", "latitude": 33.523127, "longitude": -112.064581, "address": "5833 N 7th St", "city": "Phoenix", "state": "AZ", "stars": 4.5, "review_count": 90, "is_open": 1}, "8dl1tTGmt5RzRJBYkk7zdQ": {"name": "Quick Mobile Repair", "latitude": 33.5667839, "longitude": -112.1148443, "address": "2601 W Dunlap Ave, Ste 17", "city": "Phoenix", "state": "AZ", "stars": 4.5, "review_count": 31, "is_open": 1}, "wvrJ9k748tnGX5YymuaQOg": {"name": "Mac I Am Ipad iPod and iPhone Repair", "latitude": 33.4505803, "longitude": -112.0740363, "address": "204 N Central Ave", "city": "Phoenix", "state": "AZ", "stars": 4.5, "review_count": 41, "is_open": 1}, "kEP8ZBbG1JnUS0hi6F8LxQ": {"name": "Distinctive Salon and Spa", "latitude": 33.5078572, "longitude": -112.0374113, "address": "2113 E Camelback Rd, Ste A19", "city": "Phoenix", "state": "AZ", "stars": 4.5, "review_count": 70, "is_open": 1}, "IbtSLvi7OZ2lluqYdrsfXg": {"name": "Zinnias at Melrose", "latitude": 33.4952116, "longitude": -112.0844577, "address": "724 W Indian School Rd", "city": "Phoenix", "state": "AZ", "stars": 4.5, "review_count": 65, "is_open": 0}, "UhEhLSJrPRoiYWdHfJQxfw": {"name": "Salon RO5", "latitude": 33.4590697, "longitude": -112.0774761, "address": "1001 N 3rd Ave, Ste 5", "city": "Phoenix", "state": "AZ", "stars": 4.5, "review_count": 123, "is_open": 1}, "7Z0Txw_CE-Qm6Wx3Fwnelw": {"name": "Arcadia Color Garden", "latitude": 33.4683974, "longitude": -111.969924, "address": "1828 N 52nd St", "city": "Phoenix", "state": "AZ", "stars": 4.5, "review_count": 31, "is_open": 1}, "ds78mn62NmJ7mESTQ1kTcw": {"name": "The Yard", "latitude": 33.6854553223, "longitude": -112.104888916, "address": "21846 N 21st Ave", "city": "Phoenix", "state": "AZ", "stars": 5.0, "review_count": 31, "is_open": 1}, "2R3u7_pISZSG7WvrBUgbcQ": {"name": "Arizona Cutlery & Sharpening Service", "latitude": 33.601662, "longitude": -112.037693, "address": "12620 N Cave Creek Rd, Ste 4", "city": "Phoenix", "state": "AZ", "stars": 4.5, "review_count": 20, "is_open": 1}, "HZpOBGmWw1DWDL9fc_7nOg": {"name": "Ziggie's Music", "latitude": 33.4863260299, "longitude": -112.0692585239, "address": "3309 N 3rd St", "city": "Phoenix", "state": "AZ", "stars": 4.5, "review_count": 19, "is_open": 1}, "_b_NJMS-gkabFWU5AL7gWw": {"name": "Tatum Flowers", "latitude": 33.6106983, "longitude": -111.9768863, "address": "13637 N Tatum Blvd, Ste 24", "city": "Phoenix", "state": "AZ", "stars": 5.0, "review_count": 97, "is_open": 1}, "h0W8mf3Y5cuX70METMB84g": {"name": "SaleSumo", "latitude": 33.4500687, "longitude": -112.1621165, "address": "221 N 48th Ave", "city": "Phoenix", "state": "AZ", "stars": 4.5, "review_count": 160, "is_open": 1}, "7u0DEiUxTO3rAJ7C8ak46Q": {"name": "HTC Body Piercing - Phoenix", "latitude": 33.5978118, "longitude": -112.1203119, "address": "12416 N 28th Dr, Ste 20", "city": "Phoenix", "state": "AZ", "stars": 4.5, "review_count": 144, "is_open": 1}, "NWogD7BYgNT9t87dWX5pNA": {"name": "Jewelry Replacement Source", "latitude": 33.5099715933, "longitude": -112.0339566186, "address": "2200 E Camelback Rd, Ste 205", "city": "Phoenix", "state": "AZ", "stars": 5.0, "review_count": 33, "is_open": 1}, "UCiSb-oXVxBoyd99DL-QKg": {"name": "Payne & Morrison Florist", "latitude": 33.5419497, "longitude": -112.1350086, "address": "7144 N 35th Ave, Ste A", "city": "Phoenix", "state": "AZ", "stars": 4.5, "review_count": 23, "is_open": 1}, "GdgGAINCqMXqcuKd2nKEBg": {"name": "Phoenix Art Museum", "latitude": 33.4667716102, "longitude": -112.0727462322, "address": "1625 N Central Ave", "city": "Phoenix", "state": "AZ", "stars": 4.5, "review_count": 406, "is_open": 1}, "8LYul-0GwtmoYOoXX1fpwg": {"name": "Valentina's Bridal & Tailors", "latitude": 33.5318669, "longitude": -112.047759, "address": "6522 N 16th St", "city": "Phoenix", "state": "AZ", "stars": 5.0, "review_count": 90, "is_open": 1}, "dDkkIIww7Sm5nJq96Ay-Iw": {"name": "Classic House", "latitude": 33.501653, "longitude": -112.082104, "address": "4431 N 7th Ave", "city": "Phoenix", "state": "AZ", "stars": 4.5, "review_count": 21, "is_open": 1}, "Dv9Z6UUD0mzWqs5vll1HzA": {"name": "Momentum Carpet Care", "latitude": 33.5243478, "longitude": -112.0976152, "address": "1750 W Bethany Home Rd", "city": "Phoenix", "state": "AZ", "stars": 5.0, "review_count": 56, "is_open": 1}, "8dszMFKT1F1iTMyxD78pAQ": {"name": "Fitness Equipment Repair", "latitude": 33.6642781, "longitude": -112.0843614, "address": "802 W Sequoia Dr", "city": "Phoenix", "state": "AZ", "stars": 4.5, "review_count": 24, "is_open": 1}, "g1kcKVYdg878fmtUd-7QMA": {"name": "Yes Beauty Supply", "latitude": 33.3787054, "longitude": -112.06669, "address": "510 E Baseline Rd, Ste D5", "city": "Phoenix", "state": "AZ", "stars": 4.5, "review_count": 27, "is_open": 1}, "BbR5d0Wdtn7sDbDi9saM0A": {"name": "Salon Boulevard Hair & Nails", "latitude": 33.6370097, "longitude": -112.0701721, "address": "288 E Greenway Pkwy, Ste 101", "city": "Phoenix", "state": "AZ", "stars": 4.5, "review_count": 28, "is_open": 0}, "UEJuf8fjTKYhNAsbacCctw": {"name": "Lizabel's Treasures", "latitude": 33.483722, "longitude": -112.0479332, "address": "3060 N 16th St", "city": "Phoenix", "state": "AZ", "stars": 4.5, "review_count": 20, "is_open": 0}, "IbMuq-Hj_S_tEo9joFN3Vg": {"name": "All American Eyeglass Repair", "latitude": 33.5672228, "longitude": -112.1347572, "address": "3505 W Dunlap Ave", "city": "Phoenix", "state": "AZ", "stars": 4.5, "review_count": 29, "is_open": 1}, "qwrQC1fN06wVEm3kXmn1ig": {"name": "Trader Joe's", "latitude": 33.304667, "longitude": -111.9945819, "address": "4025 E Chandler Blvd", "city": "Phoenix", "state": "AZ", "stars": 4.5, "review_count": 93, "is_open": 1}, "GRscYaLdirrYn3__EVCxyA": {"name": "Eye Doctors of Arizona", "latitude": 33.6401585, "longitude": -112.0101781, "address": "3321 E Bell Rd", "city": "Phoenix", "state": "AZ", "stars": 4.5, "review_count": 20, "is_open": 1}, "kWY5VE3HQyg94tWXqLzBfw": {"name": "The 'In' Groove", "latitude": 33.4808349, "longitude": -112.0076518, "address": "3420 E Thomas Rd", "city": "Phoenix", "state": "AZ", "stars": 5.0, "review_count": 61, "is_open": 1}, "PMZG2PedJcQ-H3ZAfMGtgg": {"name": "Shamus O'leary's Tropical Fruit Trees", "latitude": 33.3671615831, "longitude": -112.1009258553, "address": "8640 S 19th Ave", "city": "Phoenix", "state": "AZ", "stars": 4.5, "review_count": 50, "is_open": 1}, "AASlZeiW3U7LlmvXTqMyYw": {"name": "HTC Body Piercing - Uptown Phoenix", "latitude": 33.5051087, "longitude": -112.0827464, "address": "4634 N 7th Ave", "city": "Phoenix", "state": "AZ", "stars": 4.5, "review_count": 135, "is_open": 1}, "d-2g8JWtXuYsOqZtbFuZtw": {"name": "Bullfrog Pool Tile Cleaning", "latitude": 33.5840405342, "longitude": -112.0099931539, "address": "", "city": "Phoenix", "state": "AZ", "stars": 4.5, "review_count": 39, "is_open": 1}, "94_BUXYm9mJZ_BOsNA8g-w": {"name": "Del Sol Furniture & Mattress", "latitude": 33.4796302, "longitude": -112.0121856, "address": "2829 N 32nd St", "city": "Phoenix", "state": "AZ", "stars": 4.5, "review_count": 61, "is_open": 1}, "M0AXzGZolLWprqtR0tPy5A": {"name": "Full Spectrum Artworks", "latitude": 33.4636012, "longitude": -112.0535987, "address": "", "city": "Phoenix", "state": "AZ", "stars": 5.0, "review_count": 29, "is_open": 1}, "uptWkvn3yu_yXjs9dZmJHQ": {"name": "Hollywood Photo Studios", "latitude": 33.6021872, "longitude": -111.9836094, "address": "4550 E Cactus Rd, Ste 80", "city": "Phoenix", "state": "AZ", "stars": 5.0, "review_count": 36, "is_open": 1}, "QWcWNRN2XAwa6gSUHt-fnw": {"name": "Fumar Cigars", "latitude": 33.6960979, "longitude": -112.1043824, "address": "2010 W Parkside Ln, Ste 110", "city": "Phoenix", "state": "AZ", "stars": 5.0, "review_count": 26, "is_open": 1}, "W4l7a7uy9eSrRDrEgLGNfw": {"name": "Vape Escapes", "latitude": 33.5988157456, "longitude": -111.9817097455, "address": "4667 E Cactus Rd", "city": "Phoenix", "state": "AZ", "stars": 4.5, "review_count": 39, "is_open": 1}, "-sPRHDU5z1kSdGDP6KJp0g": {"name": "Ammo AZ", "latitude": 33.6831434, "longitude": -112.1025953, "address": "2005 W Deer Valley Rd, Ste 103", "city": "Phoenix", "state": "AZ", "stars": 5.0, "review_count": 31, "is_open": 1}, "sVl1HXzBXaOIY5RTs9VjQg": {"name": "Whozitz and Whatzitz Unique Gifts and Cards", "latitude": 33.5527006, "longitude": -112.0552584, "address": "1235 East Northern Ave", "city": "Phoenix", "state": "AZ", "stars": 4.5, "review_count": 26, "is_open": 1}, "e8pOr79JLyZ4qiTiUMmrlg": {"name": "Flower Works", "latitude": 33.5254399, "longitude": -112.0479568, "address": "6062 N 16th St", "city": "Phoenix", "state": "AZ", "stars": 5.0, "review_count": 25, "is_open": 1}, "8WCG4rs5o2rfwz0NvKshZw": {"name": "Innovative Pool Systems", "latitude": 33.2909097, "longitude": -112.0357137, "address": "", "city": "Phoenix", "state": "AZ", "stars": 4.5, "review_count": 20, "is_open": 1}, "7QDmb9NlxJ3VHttIgk4gjw": {"name": "IREEEL iPhone, iPad & Android repair", "latitude": 33.6561613, "longitude": -112.062774, "address": "814 E Union Hills Dr, C-12", "city": "Phoenix", "state": "AZ", "stars": 5.0, "review_count": 53, "is_open": 1}, "40gw99WSfAXpXAed1klSbA": {"name": "Honeycomb Organic Hair Studio", "latitude": 33.4795857, "longitude": -112.082984, "address": "2805 N 7th Ave", "city": "Phoenix", "state": "AZ", "stars": 5.0, "review_count": 24, "is_open": 1}, "ycWHUVqtEWw8XzqoLbRJww": {"name": "Don's Fine Cigars", "latitude": 33.510076, "longitude": -112.0738436, "address": "5036 N Central Ave", "city": "Phoenix", "state": "AZ", "stars": 4.5, "review_count": 41, "is_open": 1}, "ZDmc6BWa-SQLbILwaS1erA": {"name": "LensCrafters", "latitude": 33.6000446414, "longitude": -111.9895363995, "address": "4324 E Cactus Rd", "city": "Phoenix", "state": "AZ", "stars": 4.5, "review_count": 20, "is_open": 0}, "l4kp8GjWspD69sQsjTY9hw": {"name": "Mane Attraction Salon", "latitude": 33.5101512, "longitude": -112.0137629, "address": "3156 E Camelback Rd", "city": "Phoenix", "state": "AZ", "stars": 4.5, "review_count": 99, "is_open": 1}, "uq86TK7eViM1btLnijyKUA": {"name": "Kure CBD and Vape - Phoenix", "latitude": 33.609811, "longitude": -112.119194, "address": "2737 W Thunderbird Rd, Ste 105", "city": "Phoenix", "state": "AZ", "stars": 4.5, "review_count": 23, "is_open": 1}, "M_XPxdozcz7SI0APLpLTug": {"name": "Revolver Records", "latitude": 33.4583604, "longitude": -112.0715557, "address": "918 N 2nd St", "city": "Phoenix", "state": "AZ", "stars": 4.5, "review_count": 58, "is_open": 0}, "gqR3oAfAD-jeNxmlJRQAuw": {"name": "Wright In The Garden", "latitude": 33.5857413, "longitude": -112.0140094, "address": "10880 North 32nd St, Ste 27", "city": "Phoenix", "state": "AZ", "stars": 5.0, "review_count": 29, "is_open": 1}, "8kF-YXYNfBaaOvyTZF_5BA": {"name": "Joel J Ackerman, OD", "latitude": 33.613098, "longitude": -112.064218, "address": "14001 N 7th St, Ste B-103", "city": "Phoenix", "state": "AZ", "stars": 4.5, "review_count": 30, "is_open": 1}, "by2BjTZ5f1cBGD16z4eHAA": {"name": "Twigs and Twine", "latitude": 33.5015670841, "longitude": -112.0821639654, "address": "4427 N 7th Ave", "city": "Phoenix", "state": "AZ", "stars": 4.5, "review_count": 31, "is_open": 1}, "_g-L2Y2_hoUApSO0uHjy3g": {"name": "Vida | Moulin", "latitude": 33.5240419, "longitude": -112.0483124, "address": "1568 E Bethany Home Rd", "city": "Phoenix", "state": "AZ", "stars": 4.5, "review_count": 18, "is_open": 1}, "oh-HacTAgdXJ9K2oJPbtdg": {"name": "Biltmore Eye Physicians", "latitude": 33.5010348, "longitude": -112.0133457, "address": "4400 N 32nd St, Ste 280", "city": "Phoenix", "state": "AZ", "stars": 4.5, "review_count": 20, "is_open": 1}, "YKSctIPeNN9l9mAw6z4tfA": {"name": "Kreative Audio Video", "latitude": 33.4986286, "longitude": -111.9224398, "address": "", "city": "Phoenix", "state": "AZ", "stars": 5.0, "review_count": 24, "is_open": 1}, "nL5eFrg7L0Xnvu81nZUG3Q": {"name": "Elite Ordnance MFG", "latitude": 33.5820250532, "longitude": -112.0117531509, "address": "3217 E Shea Blvd, Ste 3", "city": "Phoenix", "state": "AZ", "stars": 5.0, "review_count": 26, "is_open": 1}, "nwP8kik0wnIMWvFhBe_rng": {"name": "Details Remodeling", "latitude": 33.509385, "longitude": -112.007743, "address": "4831 N 34th Pl", "city": "Phoenix", "state": "AZ", "stars": 4.5, "review_count": 31, "is_open": 1}, "Rd2ydAru-a0hmPAw_-mmeg": {"name": "Bertie's of Arcadia", "latitude": 33.4797564, "longitude": -111.9941067, "address": "4041 E Thomas Rd", "city": "Phoenix", "state": "AZ", "stars": 4.5, "review_count": 33, "is_open": 0}, "Ut4nk4AzlMX62Hy2_rqIew": {"name": "Karl's Quality Bakery", "latitude": 33.5665786, "longitude": -112.0723153, "address": "111 E Dunlap Ave, Ste 13", "city": "Phoenix", "state": "AZ", "stars": 4.5, "review_count": 133, "is_open": 1}, "j8GdfZxbZGcsHwRgNjO3fg": {"name": "Warehouse 215 @ Bentley Projects", "latitude": 33.440699, "longitude": -112.070571, "address": "215 E Grant St", "city": "Phoenix", "state": "AZ", "stars": 4.5, "review_count": 23, "is_open": 1}, "uUrRGXBMwTIs0cGzGhTvNg": {"name": "Brilliant Bridal", "latitude": 33.6550869, "longitude": -112.0809921, "address": "520 West Union Hills Dr", "city": "Phoenix", "state": "AZ", "stars": 4.5, "review_count": 105, "is_open": 1}, "U3gKpibRclRzbKlUx6Rukg": {"name": "Perfect Bride Alterations & Couture", "latitude": 33.4987625, "longitude": -112.0278657, "address": "2502 E Glenrosa Ave", "city": "Phoenix", "state": "AZ", "stars": 4.5, "review_count": 81, "is_open": 1}, "Yw3CxAmLGzGfTOpvEjWMLQ": {"name": "Baker Nursery", "latitude": 33.4886988, "longitude": -111.9955103, "address": "3414 N 40th St", "city": "Phoenix", "state": "AZ", "stars": 4.5, "review_count": 74, "is_open": 0}, "Yt3dmFHp_basMd3SEzfYdw": {"name": "Central Phoenix Eye Care", "latitude": 33.521118, "longitude": -112.0645438, "address": "5727 N 7th St, Ste 105", "city": "Phoenix", "state": "AZ", "stars": 4.5, "review_count": 171, "is_open": 1}, "NUioNntKbLfCi7RDbOcSlQ": {"name": "MVP Shoe Repair \u00a0- Moon Valley", "latitude": 33.6263934, "longitude": -112.0664068, "address": "15414 N 7 St, Ste 3", "city": "Phoenix", "state": "AZ", "stars": 4.5, "review_count": 28, "is_open": 1}, "Bbl8O6JQKXbtoKslcQw_EA": {"name": "All About Books and Comics", "latitude": 33.5108483287, "longitude": -112.0740690631, "address": "24 W Camelback Rd, Ste G", "city": "Phoenix", "state": "AZ", "stars": 5.0, "review_count": 25, "is_open": 1}, "P6Am5JzSmVunn7qRzphhtg": {"name": "Life Storage", "latitude": 33.641431, "longitude": -112.040152, "address": "1928 E Bell Rd", "city": "Phoenix", "state": "AZ", "stars": 4.5, "review_count": 35, "is_open": 1}, "nXzmhV7wTkCNcX_b1f7EkA": {"name": "Pinot's Palette - Paradise Valley", "latitude": 33.5834251, "longitude": -111.9768837, "address": "10625 N Tatum Blvd, Ste D142", "city": "Phoenix", "state": "AZ", "stars": 5.0, "review_count": 68, "is_open": 0}, "m-VkLfwvmEZWmpeybI75WA": {"name": "Go-Kat-Go", "latitude": 33.4992381, "longitude": -112.0650583, "address": "4314 N 7th Ave", "city": "Phoenix", "state": "AZ", "stars": 4.5, "review_count": 30, "is_open": 0}, "llNV5bhffhnGOZXPkDq-jQ": {"name": "Pearson Eyecare Group", "latitude": 33.508979, "longitude": -112.042863, "address": "1831 E Camelback Rd, Ste B2", "city": "Phoenix", "state": "AZ", "stars": 4.5, "review_count": 39, "is_open": 1}, "xwEdGft_817uRgjna1QP0g": {"name": "SJ Jewelry Supply", "latitude": 33.478485, "longitude": -112.029874, "address": "2725 N 24th St, Ste 1", "city": "Phoenix", "state": "AZ", "stars": 4.5, "review_count": 20, "is_open": 1}, "XGp0pViQXgtZXpsx6ofTyQ": {"name": "Cost Plus World Market", "latitude": 33.5096324, "longitude": -112.0436188, "address": "1750 E Camelback Rd", "city": "Phoenix", "state": "AZ", "stars": 4.5, "review_count": 65, "is_open": 1}, "nbmD3ua5pVPyBpWYtrwIBA": {"name": "ABC Vacuum Center", "latitude": 33.4946781, "longitude": -112.0263287, "address": "2545 E Indian School Rd", "city": "Phoenix", "state": "AZ", "stars": 4.5, "review_count": 30, "is_open": 1}, "EL3XTFBbYN5TPhzAFfAzeQ": {"name": "Anderson Lock & Safe", "latitude": 33.5272171, "longitude": -112.1345488, "address": "6146 N 35th Ave", "city": "Phoenix", "state": "AZ", "stars": 4.5, "review_count": 25, "is_open": 1}, "XAYeFkO4q1_r7bPvszhJ6w": {"name": "Revival Art Collective", "latitude": 33.4655551, "longitude": -112.0798437, "address": "335 W McDowell Rd", "city": "Phoenix", "state": "AZ", "stars": 4.5, "review_count": 28, "is_open": 1}, "K8cV8Y_S663aC8BiZI-a8g": {"name": "Fantasia Crystals", "latitude": 33.511602, "longitude": -112.065341, "address": "5108 N 7th St", "city": "Phoenix", "state": "AZ", "stars": 5.0, "review_count": 89, "is_open": 1}, "K_4Vbtm0VupWl2MMTxlRkw": {"name": "Brothers Tailors", "latitude": 33.6130741, "longitude": -111.9770808, "address": "13843 N Tatum Blvd, Ste 21", "city": "Phoenix", "state": "AZ", "stars": 4.5, "review_count": 105, "is_open": 1}, "QoC81Y4w5aZZ2VLI4Mxwlw": {"name": "Coffee Zona", "latitude": 33.5133606072, "longitude": -112.0652211397, "address": "5202 N 7th St, Ste 130", "city": "Phoenix", "state": "AZ", "stars": 5.0, "review_count": 55, "is_open": 1}, "JDRK3TTpMwGvHlZK13f8cw": {"name": "C & S Sporting Goods", "latitude": 33.5514207, "longitude": -112.0582096, "address": "7822 N 12th St", "city": "Phoenix", "state": "AZ", "stars": 4.5, "review_count": 56, "is_open": 1}, "ZINEfhpVrb0Uh6VbX9-sOQ": {"name": "Changing Hands", "latitude": 33.5096787781, "longitude": -112.0787198984, "address": "300 W Camelback Rd, Ste 1", "city": "Phoenix", "state": "AZ", "stars": 4.5, "review_count": 117, "is_open": 1}, "fbVFJNbdVPjVq_pCwh8PFQ": {"name": "Rebel Salon & Vintage", "latitude": 33.496541, "longitude": -112.083817, "address": "700 W Campbell Ave, Ste 14", "city": "Phoenix", "state": "AZ", "stars": 4.5, "review_count": 29, "is_open": 1}, "I49nMBeU3fke0W_qCkmU8g": {"name": "TEASPRESSA | Arcadia", "latitude": 33.4951002521, "longitude": -111.9815042053, "address": "4628 E Indian School Rd", "city": "Phoenix", "state": "AZ", "stars": 4.5, "review_count": 194, "is_open": 1}, "G7dWMiAuilyhwIvHiexDaw": {"name": "Boulder Valley Pools", "latitude": 33.7408942621, "longitude": -111.9781235978, "address": "", "city": "Phoenix", "state": "AZ", "stars": 4.5, "review_count": 35, "is_open": 1}, "QcogA6JDOV7gIjEHlSqGCw": {"name": "Your Nails & Spa", "latitude": 33.6398988696, "longitude": -111.9954995939, "address": "4001 E Bell Rd", "city": "Phoenix", "state": "AZ", "stars": 4.5, "review_count": 184, "is_open": 1}, "Ca2adKUeRpDxV4YxWaUtew": {"name": "Pinspiration", "latitude": 33.6758496937, "longitude": -111.964477, "address": "5410 E High St, Ste 105", "city": "Phoenix", "state": "AZ", "stars": 4.5, "review_count": 75, "is_open": 1}, "daDHbd1gtDvjxerVjn8A7g": {"name": "Floor & Decor", "latitude": 33.506832, "longitude": -112.042361, "address": "1800 E Highland Ave", "city": "Phoenix", "state": "AZ", "stars": 4.5, "review_count": 120, "is_open": 1}, "UcFHDGa0Zsh8tpKbEdPnBQ": {"name": "Ganem Jewelers", "latitude": 33.6543602, "longitude": -111.9258865, "address": "18560 N Scottsdale Rd, Ste 190", "city": "Phoenix", "state": "AZ", "stars": 4.5, "review_count": 56, "is_open": 1}, "FSbyhKcrKsDBMPCtn1FeuA": {"name": "Lizzie G Formals", "latitude": 33.5540140276, "longitude": -112.1113868895, "address": "8027 N Black Canyon Hwy, Ste D", "city": "Phoenix", "state": "AZ", "stars": 4.5, "review_count": 18, "is_open": 1}, "gsb62HgT3PbfMgunS8zJPQ": {"name": "Toy Anxiety", "latitude": 33.6124852, "longitude": -112.012193, "address": "13825 N 32nd St, Ste 15", "city": "Phoenix", "state": "AZ", "stars": 4.5, "review_count": 31, "is_open": 1}, "R0U1t0_7iii2moItc6aZMA": {"name": "Bunky Boutique", "latitude": 33.4653897, "longitude": -112.0722527, "address": "1437 N 1st St, Ste 103", "city": "Phoenix", "state": "AZ", "stars": 4.5, "review_count": 66, "is_open": 1}, "Q4mSrGQLCcSonuZkNqNDRA": {"name": "Arizona Premium Mattress", "latitude": 33.68792, "longitude": -112.109589, "address": "22201 N 24th Ave, Ste 2", "city": "Phoenix", "state": "AZ", "stars": 4.5, "review_count": 40, "is_open": 1}, "gIJRuXhpkjk_UI5GnnL0bQ": {"name": "Mor Furniture for Less", "latitude": 33.6115951, "longitude": -111.9798417, "address": "4712 E Thunderbird Rd", "city": "Phoenix", "state": "AZ", "stars": 4.5, "review_count": 45, "is_open": 0}, "1jHjiEo3mVqd73a7-dm8-w": {"name": "HookUp Cellular", "latitude": 33.4808822, "longitude": -112.1280274, "address": "3126 W Thomas Rd, Ste 104", "city": "Phoenix", "state": "AZ", "stars": 4.5, "review_count": 28, "is_open": 1}, "sAolbA6ENiVZmQBcY_SNPA": {"name": "Bamboo Pools Service and Repair", "latitude": 33.6516824917, "longitude": -111.9942645004, "address": "", "city": "Phoenix", "state": "AZ", "stars": 5.0, "review_count": 18, "is_open": 1}, "zX3p2_1WO1v6W-F5Aa3itQ": {"name": "Organic Living", "latitude": 33.5601606, "longitude": -112.0657535, "address": "8342 N 7th St", "city": "Phoenix", "state": "AZ", "stars": 4.5, "review_count": 30, "is_open": 1}, "bz462FmLv77D2Xy8BM6nsw": {"name": "Refresh Pools", "latitude": 33.5989484, "longitude": -111.9979174, "address": "3910 E Bloomfield Rd", "city": "Phoenix", "state": "AZ", "stars": 4.5, "review_count": 28, "is_open": 1}, "L78iGMh9aJo8lAH1CglhqQ": {"name": "Hinrichsen Jewelers", "latitude": 33.6383974, "longitude": -112.068238, "address": "401 E Bell Rd, Ste 23", "city": "Phoenix", "state": "AZ", "stars": 5.0, "review_count": 48, "is_open": 1}, "mvJCdT2YcQiEyldckjA0uQ": {"name": "Bike Masters", "latitude": 33.3204192, "longitude": -111.97966, "address": "4802 E Ray Rd", "city": "Phoenix", "state": "AZ", "stars": 4.5, "review_count": 19, "is_open": 1}, "cdPES0ZwjQq95UGysNL9iA": {"name": "Benefit Air Conditioning", "latitude": 33.4946839, "longitude": -112.0899038, "address": "1315 W Indian School Rd", "city": "Phoenix", "state": "AZ", "stars": 4.5, "review_count": 29, "is_open": 1}, "QQfkmvN_BPWK5LjHmBNNPg": {"name": "Granite Dude", "latitude": 33.510125, "longitude": -112.073286, "address": "5025 N Central Ave, Ste 316", "city": "Phoenix", "state": "AZ", "stars": 4.5, "review_count": 39, "is_open": 1}, "LyN84-xpLwsVk4kBz8SpdQ": {"name": "Upright Garage Door and Gate", "latitude": 33.5873074, "longitude": -112.1062691, "address": "2231 W Shangri La Rd, Ste P", "city": "Phoenix", "state": "AZ", "stars": 4.5, "review_count": 28, "is_open": 1}, "5OFe7LZ8GVRsninbctjxaQ": {"name": "Renew Skin & Laser", "latitude": 33.5148071, "longitude": -112.047963, "address": "5320 N 16th St", "city": "Phoenix", "state": "AZ", "stars": 5.0, "review_count": 18, "is_open": 1}, "ZnmxZ0Uq2qb5bg3cTCkDYQ": {"name": "Grey Matter Family Bicycle Shop", "latitude": 33.5226131, "longitude": -112.0478222, "address": "5826 N 16th St", "city": "Phoenix", "state": "AZ", "stars": 4.5, "review_count": 35, "is_open": 1}, "BleVv_D1wYnmqPE4OqMSqw": {"name": "Swoon Salon + Boutique", "latitude": 33.458863, "longitude": -112.092307, "address": "1501 Grand Ave, Ste 101, The Oasis On Grand Building", "city": "Phoenix", "state": "AZ", "stars": 5.0, "review_count": 18, "is_open": 1}, "LttFSUjuG7wj1ZEblbXjUQ": {"name": "Curious Nature", "latitude": 33.510086, "longitude": -112.074193, "address": "5032 N Central Ave", "city": "Phoenix", "state": "AZ", "stars": 5.0, "review_count": 31, "is_open": 1}, "lBqkAjOhm-LMHt6y1Ap_QA": {"name": "Williams Passport Photography AZ", "latitude": 33.398673, "longitude": -112.031038, "address": "2328 E Chanute Pass", "city": "Phoenix", "state": "AZ", "stars": 5.0, "review_count": 29, "is_open": 1}, "RS9-ntmOcbMMUxFfhboaww": {"name": "W R Williams Fine Jewelry", "latitude": 33.495132, "longitude": -111.97986, "address": "4730 E Indian School Rd, Ste 115", "city": "Phoenix", "state": "AZ", "stars": 5.0, "review_count": 27, "is_open": 1}, "aTlN0kN0gLycCd4uV1GmHw": {"name": "Dyson Service Center", "latitude": 33.6556533, "longitude": -112.0120325, "address": "3230 E Union Hills Dr", "city": "Phoenix", "state": "AZ", "stars": 5.0, "review_count": 147, "is_open": 1}, "eZXhBAQ65BUtnc56r9U1Kg": {"name": "Handyman Xtreme", "latitude": 33.5725815, "longitude": -112.0118669, "address": "", "city": "Phoenix", "state": "AZ", "stars": 4.5, "review_count": 41, "is_open": 1}, "GoeKg1hE-VMWFyI1PMOqiA": {"name": "Target Optical", "latitude": 33.5209415, "longitude": -112.0974002, "address": "5715 N 19th Ave", "city": "Phoenix", "state": "AZ", "stars": 4.5, "review_count": 40, "is_open": 1}, "JVARU0VRB3fwzl1wABgaXQ": {"name": "Healthy Eye Care Fit Optical", "latitude": 33.5029651778, "longitude": -112.0297994297, "address": "4525 N 24th St, Ste 120", "city": "Phoenix", "state": "AZ", "stars": 5.0, "review_count": 62, "is_open": 1}, "Nc7cqq5k0WZsVhu25QrmNQ": {"name": "Sun Valley Stereo", "latitude": 33.480147, "longitude": -112.020845, "address": "2809 E Thomas Rd", "city": "Phoenix", "state": "AZ", "stars": 5.0, "review_count": 157, "is_open": 1}, "31DwbuY8LIj_K_FcJ8NgoA": {"name": "MVP Shoe Repair", "latitude": 33.5984282, "longitude": -112.0136019, "address": "12310 N 32nd St", "city": "Phoenix", "state": "AZ", "stars": 4.5, "review_count": 26, "is_open": 1}, "WUT5Q6FtsMespzgeprA-Dg": {"name": "Bancless", "latitude": 33.6323711, "longitude": -112.031251, "address": "16026 N Cave Creek Rd", "city": "Phoenix", "state": "AZ", "stars": 4.5, "review_count": 18, "is_open": 1}, "wWhq9cKLCrZHcp-ezp-hPQ": {"name": "Musical Instrument Museum", "latitude": 33.6675252733, "longitude": -111.9784432222, "address": "4725 E Mayo Blvd", "city": "Phoenix", "state": "AZ", "stars": 4.5, "review_count": 551, "is_open": 1}, "o9xhWhCjaM78D9C2U2glEw": {"name": "Half Price TV Wall Mounting Service", "latitude": 33.6629442, "longitude": -112.0182329, "address": "", "city": "Phoenix", "state": "AZ", "stars": 5.0, "review_count": 73, "is_open": 1}, "GBzsyUgO6Af1a34-27mCNw": {"name": "SummerWinds Nursery -Tatum", "latitude": 33.648494, "longitude": -111.978742, "address": "17826 N Tatum Blvd", "city": "Phoenix", "state": "AZ", "stars": 4.5, "review_count": 55, "is_open": 1}, "EwBome2EKTcALO4hqu7oMw": {"name": "Jhonny's Barbershop", "latitude": 33.7977861, "longitude": -112.120899, "address": "2815 W Carefree Hwy", "city": "Phoenix", "state": "AZ", "stars": 4.5, "review_count": 18, "is_open": 1}, "tq2B9UpvdLNUW7tdVm-FrA": {"name": "Nutrishop", "latitude": 33.5834399, "longitude": -111.9768301, "address": "10625 N. Tatum Blvd., Ste D101", "city": "Phoenix", "state": "AZ", "stars": 4.5, "review_count": 23, "is_open": 1}, "3aoR7TN3pcXXiL38JbW3ow": {"name": "AZ Express Glass and Mirror", "latitude": 33.481234, "longitude": -112.127029, "address": "3116 W Thomas Rd", "city": "Phoenix", "state": "AZ", "stars": 5.0, "review_count": 35, "is_open": 1}, "7z60tKjIuFfjkSyMV0wbGw": {"name": "Valenti Custom Tailoring", "latitude": 33.4946985303, "longitude": -112.0275925269, "address": "2507 E Indian School Rd", "city": "Phoenix", "state": "AZ", "stars": 4.5, "review_count": 42, "is_open": 1}, "RZBpTguaXugaICAjOdtfTg": {"name": "The Bee's Knees", "latitude": 33.471943, "longitude": -112.048036, "address": "2222 N 16th St", "city": "Phoenix", "state": "AZ", "stars": 4.5, "review_count": 31, "is_open": 1}, "meLoeZ7sXUNVPxmKkyMI7w": {"name": "Sutra Studios - Midtown", "latitude": 33.473962, "longitude": -112.064836, "address": "2317 N 7th St", "city": "Phoenix", "state": "AZ", "stars": 4.5, "review_count": 75, "is_open": 0}, "s9_S1OPrNxGQch17OVO0qw": {"name": "Phoenix Fishing Supply", "latitude": 33.5078727, "longitude": -112.0480159, "address": "4810 N 16th St", "city": "Phoenix", "state": "AZ", "stars": 4.5, "review_count": 23, "is_open": 1}, "wSYPTYZsvo7fGbTXdECnQg": {"name": "Blossoms & Beehives", "latitude": 33.511121, "longitude": -111.9859118963, "address": "5053 N 44th St", "city": "Phoenix", "state": "AZ", "stars": 5.0, "review_count": 20, "is_open": 1}, "qSCOJz9HqjRm_5xMCDyCrg": {"name": "Local Nomad", "latitude": 33.5103093, "longitude": -112.0725505, "address": "100 E Camelback Rd, Ste 168", "city": "Phoenix", "state": "AZ", "stars": 4.5, "review_count": 18, "is_open": 1}, "JH1w3xJ-kXE-QPInOD9pTw": {"name": "Axis Hookah Lounge", "latitude": 33.625153, "longitude": -112.031275, "address": "15222 N Cave Creek Rd", "city": "Phoenix", "state": "AZ", "stars": 4.5, "review_count": 22, "is_open": 1}, "sZ8nYeYwkpGhtrL-43Myeg": {"name": "Hoopla! Letters", "latitude": 33.4636012, "longitude": -112.0535987, "address": "", "city": "Phoenix", "state": "AZ", "stars": 5.0, "review_count": 27, "is_open": 1}, "4fTHwn95Ovc6eeAHtrd66A": {"name": "Ide Mania", "latitude": 33.479833, "longitude": -112.0736803, "address": "2831 N Central", "city": "Phoenix", "state": "AZ", "stars": 4.5, "review_count": 42, "is_open": 1}, "KnuxTVJVUXDih7R9rpO4IA": {"name": "Roberto's Sofa Factory", "latitude": 33.4879302, "longitude": -112.1338629, "address": "3401 N 35th Ave", "city": "Phoenix", "state": "AZ", "stars": 4.5, "review_count": 31, "is_open": 1}, "gArD_iQ_6BR9UGMwKXntDg": {"name": "Valley Verde Community Garden Center and Desert Gift Shop", "latitude": 33.6685873193, "longitude": -112.0292813703, "address": "20023 N 24th Way", "city": "Phoenix", "state": "AZ", "stars": 5.0, "review_count": 41, "is_open": 1}, "Os2GLMOyF39NV6obOdQAug": {"name": "Sassy Glasses", "latitude": 33.539156, "longitude": -112.048063, "address": "7000 N 16th St", "city": "Phoenix", "state": "AZ", "stars": 4.5, "review_count": 63, "is_open": 1}, "POf7cWqtue4fj8mNtzczSQ": {"name": "Bicycles of Phoenix", "latitude": 33.610826, "longitude": -111.9791238, "address": "13636 N Tatum Blvd, Ste 9", "city": "Phoenix", "state": "AZ", "stars": 4.5, "review_count": 73, "is_open": 1}, "zRK93KUNUSLWckxU611QNQ": {"name": "Abc Cake Decorating Supplies", "latitude": 33.4947429, "longitude": -112.0198314, "address": "2853 E Indian School Rd", "city": "Phoenix", "state": "AZ", "stars": 4.5, "review_count": 90, "is_open": 1}, "A__XEMryVN7j3a-7oSkRcw": {"name": "All About Books & Comics", "latitude": 33.5097731, "longitude": -112.0756045, "address": "5060 N Central Ave", "city": "Phoenix", "state": "AZ", "stars": 4.5, "review_count": 57, "is_open": 0}, "xoLQvLVBwvOrb-Os0I78PQ": {"name": "Pool Shop", "latitude": 33.3169892, "longitude": -112.0043308, "address": "3636 E Ray Rd, Ste 10", "city": "Phoenix", "state": "AZ", "stars": 4.5, "review_count": 21, "is_open": 1}, "YqA-X7Koz8rgWggKdLXlQw": {"name": "Antique Sugar", "latitude": 33.4952326, "longitude": -112.0845206, "address": "724 W Indian School Rd", "city": "Phoenix", "state": "AZ", "stars": 4.5, "review_count": 40, "is_open": 0}, "jxWamuwuQpmzDxL576ZyGw": {"name": "Brass Monkey Bike Shop", "latitude": 33.4659806126, "longitude": -112.0449165968, "address": "1720 E Mcdowell Rd", "city": "Phoenix", "state": "AZ", "stars": 5.0, "review_count": 56, "is_open": 1}, "Q70TX19skg8v9OL6VIdF3A": {"name": "Mythic Home Theater", "latitude": 33.6512105, "longitude": -112.2564712, "address": "9163 W Union Hills Dr, Ste 116", "city": "Phoenix", "state": "AZ", "stars": 5.0, "review_count": 68, "is_open": 1}, "nr4KH_8O-JtJBmFir8UISw": {"name": "Iron Creation", "latitude": 33.448667, "longitude": -112.042872, "address": "1810 E Washington St", "city": "Phoenix", "state": "AZ", "stars": 4.5, "review_count": 47, "is_open": 1}, "2V-TzWecvR7OxP6paCWhfA": {"name": "Space Solutions Garage Cabinets Custom Closets Phoenix", "latitude": 33.6896223, "longitude": -112.0963767, "address": "1725 W Williams Dr", "city": "Phoenix", "state": "AZ", "stars": 4.5, "review_count": 44, "is_open": 1}, "XNI1ilqT1S5R-R_oivB8mA": {"name": "Runner's Den", "latitude": 33.5312732, "longitude": -112.0472411, "address": "6505 N 16th St", "city": "Phoenix", "state": "AZ", "stars": 4.5, "review_count": 131, "is_open": 1}, "Lcrp2NGjy3pKTcPp5j7Dbg": {"name": "Clear Choice Pool Fence", "latitude": 33.6364503, "longitude": -112.0118669, "address": "", "city": "Phoenix", "state": "AZ", "stars": 5.0, "review_count": 19, "is_open": 1}, "vYGzEt7JsXjaUn03SfTDEA": {"name": "Fascinations", "latitude": 33.6362984, "longitude": -112.0142423, "address": "16428 N 32nd St, Ste 105-107", "city": "Phoenix", "state": "AZ", "stars": 4.5, "review_count": 29, "is_open": 1}, "FzDkUFYeBguLTF-h0kD1qw": {"name": "B & D Guitar Repair", "latitude": 33.6803018, "longitude": -112.1070743, "address": "2202 W Lone Cactus Dr, Ste 4", "city": "Phoenix", "state": "AZ", "stars": 5.0, "review_count": 32, "is_open": 1}, "y3YRUsh8FVih0AhYLx-DWA": {"name": "Epic Game Trailer", "latitude": 33.6289952, "longitude": -112.1370601, "address": "", "city": "Phoenix", "state": "AZ", "stars": 5.0, "review_count": 31, "is_open": 1}, "50Ull2QxpgNT21vB_KBZ9g": {"name": "The Fit  Alterations & Custom Design", "latitude": 33.5293867, "longitude": -112.0646915, "address": "6307 N 7th St", "city": "Phoenix", "state": "AZ", "stars": 4.5, "review_count": 204, "is_open": 1}, "vv1QnrKDq-uKm0v4mK4WYQ": {"name": "Fallout Games", "latitude": 33.613015724, "longitude": -111.9770595391, "address": "13843 N Tatum Blvd, Ste 12", "city": "Phoenix", "state": "AZ", "stars": 4.5, "review_count": 36, "is_open": 1}, "EIOJqolpgGKzFUAhf-pg3g": {"name": "A To Z Equipment Rentals & Sales", "latitude": 33.6293514, "longitude": -112.0138231, "address": "15634 N 32nd St", "city": "Phoenix", "state": "AZ", "stars": 5.0, "review_count": 18, "is_open": 1}, "e8922UxJYK40z-1AIaM6cA": {"name": "Don't Box It Bridals", "latitude": 33.6218605, "longitude": -112.0314753, "address": "14848 North Cave Creek Rd", "city": "Phoenix", "state": "AZ", "stars": 5.0, "review_count": 28, "is_open": 1}, "evhhJ-3v9wIdVFGH_JsEww": {"name": "Porter Barn Wood", "latitude": 33.438419, "longitude": -112.064594, "address": "901 S 7th St", "city": "Phoenix", "state": "AZ", "stars": 4.5, "review_count": 34, "is_open": 1}, "ao53-RJrIgW817_oqjVS8A": {"name": "HALO Animal Rescue Thrift Boutique", "latitude": 33.5931132, "longitude": -112.0411729, "address": "11649 N Cave Creek Rd, Ste D", "city": "Phoenix", "state": "AZ", "stars": 4.5, "review_count": 34, "is_open": 1}, "IUZznnImKOEU8k7oifRE9g": {"name": "Men's Apparel Club", "latitude": 33.4930291, "longitude": -112.0656616, "address": "4000 N 7th St, Ste 124", "city": "Phoenix", "state": "AZ", "stars": 5.0, "review_count": 94, "is_open": 1}, "Sz_ZDlg6cqmqva6dUhAZ6w": {"name": "Churchill's Fine Cigars", "latitude": 33.5109256, "longitude": -111.9862362, "address": "5041 N 44th St", "city": "Phoenix", "state": "AZ", "stars": 4.5, "review_count": 54, "is_open": 1}, "Nu_gZ_dTynmxLISsR1Mgeg": {"name": "Mototire", "latitude": 33.6045082, "longitude": -112.0369918, "address": "13012 N Cave Creek Rd, Ste 7", "city": "Phoenix", "state": "AZ", "stars": 5.0, "review_count": 55, "is_open": 1}, "_14wp3McW-kk7foNA9A2KQ": {"name": "Flowers By Jodi", "latitude": 33.674785, "longitude": -112.0208225, "address": "20650 N 29th Pl, Ste 105", "city": "Phoenix", "state": "AZ", "stars": 4.5, "review_count": 43, "is_open": 1}, "42FdT6aerDE0EMReyr5jug": {"name": "House of Diamonds", "latitude": 33.61119, "longitude": -111.977341, "address": "13637 N Tatum Blvd, Ste 25", "city": "Phoenix", "state": "AZ", "stars": 5.0, "review_count": 82, "is_open": 1}, "cLw9xNluWHyNLEUEi0WZ9Q": {"name": "AZ Vacuums", "latitude": 33.6407811, "longitude": -112.1328007, "address": "3434 W Bell Rd", "city": "Phoenix", "state": "AZ", "stars": 4.5, "review_count": 24, "is_open": 1}, "4UqbWEofQb_9K8dGexUyMg": {"name": "Exhale Bikes", "latitude": 33.640889, "longitude": -112.119366, "address": "2814 W Bell Rd, Ste 1475", "city": "Phoenix", "state": "AZ", "stars": 4.5, "review_count": 64, "is_open": 1}, "f1P3zKabx2bLOXvLNr7JKQ": {"name": "Jerry's Office Furniture", "latitude": 33.445059, "longitude": -112.050608, "address": "1413 E Jackson St", "city": "Phoenix", "state": "AZ", "stars": 4.5, "review_count": 18, "is_open": 1}, "kBKyNCvJg4cpSN2J4WOv9w": {"name": "Pueblo", "latitude": 33.4560163676, "longitude": -112.0605688918, "address": "1002 E Pierce St, Ste 103", "city": "Phoenix", "state": "AZ", "stars": 5.0, "review_count": 99, "is_open": 1}, "qo8xQ5WnRxE3IVzkHi4qJw": {"name": "Western Ranchman Store", "latitude": 33.6328355, "longitude": -112.0137532, "address": "16028 N 32nd St", "city": "Phoenix", "state": "AZ", "stars": 5.0, "review_count": 31, "is_open": 1}, "O_8Du5H8WrBwCZmVJpu2-w": {"name": "The Root Salon", "latitude": 33.522359, "longitude": -112.0645588, "address": "5813 N 7th St, Ste 120", "city": "Phoenix", "state": "AZ", "stars": 4.5, "review_count": 398, "is_open": 1}, "QuKdYy_B3dUsamWWK84mlw": {"name": "Mark's Luggage Service", "latitude": 33.4163027, "longitude": -112.047963, "address": "1542 E Victory St, Ste 1", "city": "Phoenix", "state": "AZ", "stars": 4.5, "review_count": 59, "is_open": 1}, "HKr5BYNVGTW33yQ1-tKgWA": {"name": "Heritage Hat Company", "latitude": 33.6098802, "longitude": -112.0365288, "address": "13602 N Cave Creek Rd", "city": "Phoenix", "state": "AZ", "stars": 4.5, "review_count": 52, "is_open": 1}, "n8WWa0DoUW2KaufEbscJ0Q": {"name": "Strawberry Hedgehog", "latitude": 33.4803070341, "longitude": -112.0916113881, "address": "1501 W Thomas Rd", "city": "Phoenix", "state": "AZ", "stars": 4.5, "review_count": 32, "is_open": 1}, "pals235j-S2z3dT-bY4RgA": {"name": "Brown Roofing LLC", "latitude": 33.592315, "longitude": -112.044541, "address": "11627 N 17th Pl", "city": "Phoenix", "state": "AZ", "stars": 4.5, "review_count": 121, "is_open": 1}, "PSRE_EDOniELkQ4_orGtFA": {"name": "iRun Running Store", "latitude": 33.4955349449, "longitude": -111.9798981027, "address": "4730 E Indian School, Ste 125", "city": "Phoenix", "state": "AZ", "stars": 5.0, "review_count": 27, "is_open": 1}, "vSxk7u_q3tpVMrKl-kKDyA": {"name": "Parker & Schmidt Clothiers", "latitude": 33.486222, "longitude": -111.999382, "address": "3201 N 38th St, Unit 22", "city": "Phoenix", "state": "AZ", "stars": 4.5, "review_count": 33, "is_open": 1}, "a5Hvmoe1H1kM8kaB99xMag": {"name": "Stinkweeds", "latitude": 33.5095246881, "longitude": -112.0746651708, "address": "12 W Camelback Rd", "city": "Phoenix", "state": "AZ", "stars": 4.5, "review_count": 135, "is_open": 1}, "WNlJ1H-_2WOfcDeQ3lFC1Q": {"name": "PALABRA", "latitude": 33.4580877, "longitude": -112.0722794, "address": "909 N 1st St", "city": "Phoenix", "state": "AZ", "stars": 5.0, "review_count": 20, "is_open": 1}, "fU3uckEUYecbkJwj_JSEWw": {"name": "Arizona Hiking Shack", "latitude": 33.4809204, "longitude": -112.0108888, "address": "3244 E Thomas Rd", "city": "Phoenix", "state": "AZ", "stars": 4.5, "review_count": 82, "is_open": 1}, "V_RFwFcpGCB_AVgxwFVpWA": {"name": "Abloom Salon", "latitude": 33.4572256, "longitude": -112.0898341, "address": "1301 Grand Ave", "city": "Phoenix", "state": "AZ", "stars": 5.0, "review_count": 28, "is_open": 1}, "r0XYcXQ_uaF6fTY1m_73gQ": {"name": "The Velo", "latitude": 33.4573858143, "longitude": -112.0715565922, "address": "828 N 2nd St", "city": "Phoenix", "state": "AZ", "stars": 4.5, "review_count": 45, "is_open": 1}, "JKa-QWMQnA_M7SeoDW9-3g": {"name": "Protect-A-Child Pool Fence of Phoenix", "latitude": 33.4962205, "longitude": -111.9641728, "address": "", "city": "Phoenix", "state": "AZ", "stars": 5.0, "review_count": 61, "is_open": 1}, "iGiol6c1Ir1rb0uYmHYYQw": {"name": "Barry's True Value", "latitude": 33.5512857, "longitude": -112.058154, "address": "7820 N 12th St", "city": "Phoenix", "state": "AZ", "stars": 4.5, "review_count": 34, "is_open": 1}, "0T-3yCtzeb1oZvDL1xhhBA": {"name": "Try Me Bicycle Shop", "latitude": 33.5715356, "longitude": -112.0921161, "address": "1514 W Hatcher Rd", "city": "Phoenix", "state": "AZ", "stars": 4.5, "review_count": 30, "is_open": 1}, "A3H749M1AEggNylDQ5Fr-A": {"name": "D&D Construction", "latitude": 33.6238562, "longitude": -112.0580085, "address": "N 11th St", "city": "Phoenix", "state": "AZ", "stars": 4.5, "review_count": 24, "is_open": 1}, "An4cR5bvcDrnLaqhSUtA-A": {"name": "All Terrain Landscaping", "latitude": 33.5106684, "longitude": -112.029752, "address": "", "city": "Phoenix", "state": "AZ", "stars": 4.5, "review_count": 36, "is_open": 1}, "VKphJYou_PKyyJmJ4OUjjg": {"name": "Acme Locksmith - Phoenix", "latitude": 33.5378509, "longitude": -112.0551356, "address": "1219 E Glendale Ave, Ste 5", "city": "Phoenix", "state": "AZ", "stars": 4.5, "review_count": 46, "is_open": 1}, "3RgLNenKXCGGMLs5U5kVIQ": {"name": "Paint-A-Holics", "latitude": 33.5725815, "longitude": -112.0118669, "address": "", "city": "Phoenix", "state": "AZ", "stars": 5.0, "review_count": 20, "is_open": 1}, "PZqLTvbh9IV10Q8Efhv2Vw": {"name": "The Plaza Bistro & Catering", "latitude": 33.594688, "longitude": -111.9793567, "address": "11811 N Tatum Blvd, Ste P108", "city": "Phoenix", "state": "AZ", "stars": 4.5, "review_count": 18, "is_open": 0}, "chtvAzSI_XsS1U9foHBdbA": {"name": "Arizona's Vision Eye Care Center", "latitude": 33.3082538494, "longitude": -111.9799034595, "address": "15215 S 48th St, Ste 180", "city": "Phoenix", "state": "AZ", "stars": 4.5, "review_count": 91, "is_open": 1}, "TA_xf3gZKfgyT_ygAf5NVA": {"name": "Citrine Natural Beauty Bar", "latitude": 33.5105272468, "longitude": -112.0265223929, "address": "2502 E Camelback Rd, Ste 166", "city": "Phoenix", "state": "AZ", "stars": 4.5, "review_count": 42, "is_open": 1}, "5eUXQhyKOs_zeq4fA9bqqw": {"name": "Circle 6 Studios", "latitude": 33.481233, "longitude": -112.0376862, "address": "2040 E Thomas Rd", "city": "Phoenix", "state": "AZ", "stars": 4.5, "review_count": 76, "is_open": 1}, "FEFoQNHEvdGZ8GakrC_M8w": {"name": "Nu York West Beauty Supply", "latitude": 33.4795723228, "longitude": -111.982088238, "address": "4605 E Thomas Rd", "city": "Phoenix", "state": "AZ", "stars": 5.0, "review_count": 28, "is_open": 1}, "VC7bU22yX2GicJJR3KZMzg": {"name": "Besco Lawn Mower Repair", "latitude": 33.5984578, "longitude": -112.1341501, "address": "12450 N 35th Ave, Ste 70", "city": "Phoenix", "state": "AZ", "stars": 5.0, "review_count": 22, "is_open": 1}, "MmQngNGY3jZRvexafrSwUg": {"name": "Life Storage", "latitude": 33.655479, "longitude": -111.9765621, "address": "18625 N Tatum Blvd", "city": "Phoenix", "state": "AZ", "stars": 4.5, "review_count": 25, "is_open": 1}, "lKbOgiXrM7JPuATIyLdYvA": {"name": "Copper State Tattoo", "latitude": 33.4869455, "longitude": -112.0827017, "address": "3343 N 7th Ave", "city": "Phoenix", "state": "AZ", "stars": 5.0, "review_count": 20, "is_open": 1}, "MSUrKuIMy9gfE-zjfcKjqQ": {"name": "Discount Granite", "latitude": 33.5697919, "longitude": -112.0858751, "address": "9207 N 10th Dr", "city": "Phoenix", "state": "AZ", "stars": 5.0, "review_count": 18, "is_open": 1}, "I-7_tRyqz2JAjyf4NvCSSQ": {"name": "Poor Little Rich Girl", "latitude": 33.4951706, "longitude": -112.0010639, "address": "3730 E Indian School Rd", "city": "Phoenix", "state": "AZ", "stars": 4.5, "review_count": 24, "is_open": 0}, "LJ6F0Vyias0EpuXAqGcA0Q": {"name": "Hair Pollution", "latitude": 33.5103658342, "longitude": -112.011023, "address": "1524 E McDowell Rd", "city": "Phoenix", "state": "AZ", "stars": 4.5, "review_count": 100, "is_open": 1}, "l-JAu-8mbn2Qn_B8zMJPvg": {"name": "Camelback Flowershop", "latitude": 33.4952378, "longitude": -111.9905351, "address": "4214 E Indian School Rd, Ste 101", "city": "Phoenix", "state": "AZ", "stars": 4.5, "review_count": 92, "is_open": 1}, "fQj99LaEsEt2ht3OwT2OCA": {"name": "Aracruz International Granite", "latitude": 33.4408809, "longitude": -112.1097678, "address": "2310 W Sherman St", "city": "Phoenix", "state": "AZ", "stars": 4.5, "review_count": 18, "is_open": 1}, "VWxV0K-n99dzW3V24Z0nOw": {"name": "Esprit Decor Gallery & Framing", "latitude": 33.5179651, "longitude": -112.0633794, "address": "5555 N 7th St, Ste 122", "city": "Phoenix", "state": "AZ", "stars": 5.0, "review_count": 32, "is_open": 1}, "bEfU650UsUh1YQLYMnGnNw": {"name": "H & R Sales Fabrics & Supplies", "latitude": 33.4601898, "longitude": -112.1347314, "address": "1118 N 35th Ave", "city": "Phoenix", "state": "AZ", "stars": 4.5, "review_count": 19, "is_open": 1}, "d6gTACfzxP0-2JgF73fK2w": {"name": "Cardiff Giant Tattoo", "latitude": 33.4655319, "longitude": -112.076677, "address": "119 W Mcdowell Rd", "city": "Phoenix", "state": "AZ", "stars": 4.5, "review_count": 25, "is_open": 1}, "IZGScOzLHWk0OvXm95rG5g": {"name": "Arizona Flower Market", "latitude": 33.4283049, "longitude": -112.0487683, "address": "2050 S 16th St", "city": "Phoenix", "state": "AZ", "stars": 4.5, "review_count": 108, "is_open": 1}, "WR2J_AufGGdPrJobNb5GHw": {"name": "Aji Spa", "latitude": 33.2665198, "longitude": -111.99188, "address": "5594 W Wild Horse Pass Blvd", "city": "Phoenix", "state": "AZ", "stars": 4.5, "review_count": 98, "is_open": 1}, "oLh-vOB3mXhX92kcxdjpOA": {"name": "Camelback Eye Care", "latitude": 33.509735, "longitude": -112.0769327, "address": "114 W Camelback Rd", "city": "Phoenix", "state": "AZ", "stars": 5.0, "review_count": 51, "is_open": 1}, "c2wgd6q_yYjU33u6V1gW1Q": {"name": "NorthStar Moving Company", "latitude": 33.5114334, "longitude": -112.0685027, "address": "", "city": "Phoenix", "state": "AZ", "stars": 5.0, "review_count": 52, "is_open": 1}, "1786aKnIZaZFQYmRfVHp3g": {"name": "Alphonsina", "latitude": 33.5789917, "longitude": -112.0134039, "address": "10210 N 32nd St, Unit A1", "city": "Phoenix", "state": "AZ", "stars": 5.0, "review_count": 27, "is_open": 1}, "uemVyCMnYsGjULyrFZ9mFQ": {"name": "As You Wish Pottery Painting Place", "latitude": 33.666638, "longitude": -112.123332, "address": "3009 W Agua Fria Fwy", "city": "Phoenix", "state": "AZ", "stars": 4.5, "review_count": 26, "is_open": 0}, "qosZtMMGbjeuZ0DQ1qPc3g": {"name": "Curbside Cyclery", "latitude": 33.331116, "longitude": -111.978381, "address": "4855 E Warner Rd, Ste 10", "city": "Phoenix", "state": "AZ", "stars": 4.5, "review_count": 34, "is_open": 1}}