[{"business_id":"_DZJXD_kxm7Nlb6ljI3cjg","name":"J & C Hobbies","latitude":40.4724691021,"longitude":-79.8188981309,"address":"12250 Frankstown Rd","city":"Pittsburgh","state":"PA","stars":2.5,"review_count":3,"is_open":0},{"business_id":"JrEEn-KvqX_B2KM3FF1FDg","name":"N Stuff Music","latitude":40.4958388,"longitude":-79.8574779,"address":"468 Freeport Rd","city":"Pittsburgh","state":"PA","stars":4.5,"review_count":24,"is_open":1},{"business_id":"XMNMDA4qO6HfEkHG9I2Qhw","name":"Dollar Tree","latitude":40.5177024,"longitude":-80.0380438,"address":"1030 W View Park Dr","city":"Pittsburgh","state":"PA","stars":3.0,"review_count":3,"is_open":1},{"business_id":"VWtI26Mu69IrG0nugb23lg","name":"Sprint Store","latitude":40.5294316317,"longitude":-80.0097937145,"address":"4885 Mcknight Rd","city":"Pittsburgh","state":"PA","stars":2.0,"review_count":9,"is_open":1},{"business_id":"0NRpgFl9N1cbli_8P-d2YA","name":"Framezilla","latitude":40.4560738,"longitude":-79.9763666,"address":"2716 Penn Ave","city":"Pittsburgh","state":"PA","stars":5.0,"review_count":8,"is_open":1},{"business_id":"F_WzuaMXsZ88TQI2AQVzBw","name":"S & S Candy & Cigar Co","latitude":40.428778,"longitude":-79.9764194,"address":"2025 E Carson St","city":"Pittsburgh","state":"PA","stars":4.0,"review_count":13,"is_open":1},{"business_id":"XvrjictKJzlNQKVFrYmA2A","name":"JCPenney","latitude":40.454505,"longitude":-80.1579606,"address":"2000 Robinson Town Ctr","city":"Pittsburgh","state":"PA","stars":3.0,"review_count":3,"is_open":1},{"business_id":"fC8Rn7NwpO7BptlnKaju2A","name":"Asti's South Hills Pharmacy","latitude":40.3679633,"longitude":-80.0370263,"address":"250 Mt Lebanon Boulevard","city":"Pittsburgh","state":"PA","stars":3.5,"review_count":9,"is_open":1},{"business_id":"ZK3Vf08XYFqT8N7sEBnWrg","name":"Herman J. Heyl Florist & Greenhouse","latitude":40.5489878389,"longitude":-80.0371990841,"address":"1137 Perry Hwy.","city":"Pittsburgh","state":"PA","stars":3.5,"review_count":5,"is_open":1},{"business_id":"OPfyzWCLTJoZwxZy6hfInw","name":"DSW Designer Shoe Warehouse","latitude":40.341168,"longitude":-80.057819,"address":"301 South Hills Village","city":"Pittsburgh","state":"PA","stars":4.5,"review_count":3,"is_open":1},{"business_id":"vmRUF9HvJURncX0AgH09XA","name":"Garcia Jewelers","latitude":40.4427717,"longitude":-79.9992898,"address":"717 Liberty Ave, Ste 301, Clark Bldg","city":"Pittsburgh","state":"PA","stars":4.0,"review_count":4,"is_open":1},{"business_id":"etDct97Ku5fPF_Pt3So2bQ","name":"Frankstown Gardens","latitude":40.4633369,"longitude":-79.8513952,"address":"10158 Frankstown Rd","city":"Pittsburgh","state":"PA","stars":1.0,"review_count":3,"is_open":1},{"business_id":"0U0DYaZudE9qyZfNkBfYIg","name":"Mccandless Crossing","latitude":40.5698972938,"longitude":-80.022541913,"address":"McKnight And Cumberland Rd","city":"Pittsburgh","state":"PA","stars":3.0,"review_count":3,"is_open":1},{"business_id":"6wsAW-YkIpHkYpM1mbMD1w","name":"Kmart","latitude":40.5518288484,"longitude":-80.0171834487,"address":"3000 Mcintyre Square Dr","city":"Pittsburgh","state":"PA","stars":3.0,"review_count":3,"is_open":0},{"business_id":"LRZeTdl-evYKOi2IHRs8kw","name":"Crystal River Gems","latitude":40.4419737,"longitude":-80.0034017,"address":"120 5th Ave, Ste 130","city":"Pittsburgh","state":"PA","stars":4.0,"review_count":18,"is_open":1},{"business_id":"ppqsjSOwtrHCsZmBKKMLIw","name":"CVS Pharmacy","latitude":40.4517,"longitude":-79.9515,"address":"4610 Centre Ave","city":"Pittsburgh","state":"PA","stars":2.5,"review_count":16,"is_open":1},{"business_id":"pnwUHvTjKAE0_yKnxdGJJA","name":"Rite Aid","latitude":40.495999,"longitude":-80.056955,"address":"535 Lincoln Ave","city":"Pittsburgh","state":"PA","stars":3.5,"review_count":3,"is_open":1},{"business_id":"iQ1Jdz_4my9xjCeJIA59-Q","name":"Gil-Con Tool Company","latitude":40.368052,"longitude":-80.0123782,"address":"3355 Library Rd","city":"Pittsburgh","state":"PA","stars":2.5,"review_count":6,"is_open":1},{"business_id":"FkFMB6yMrLaAADVlGmJYtQ","name":"Appliance Warehouse","latitude":40.4295665,"longitude":-79.993866,"address":"523 Bingham St","city":"Pittsburgh","state":"PA","stars":3.5,"review_count":6,"is_open":1},{"business_id":"9JPG7HOVkHJaXA4EFaIHTw","name":"Build-A-Bear Workshop","latitude":40.342170846,"longitude":-80.0560367606,"address":"301 S Hills Vlg","city":"Pittsburgh","state":"PA","stars":2.5,"review_count":4,"is_open":1},{"business_id":"w43yHlJzoCEqUVNRezo_7A","name":"Restaurant Depot","latitude":40.4642807,"longitude":-79.9705017,"address":"86 35th St","city":"Pittsburgh","state":"PA","stars":4.0,"review_count":6,"is_open":1},{"business_id":"93KxekwpBe4iGv3oyE28Lw","name":"Wild Purveyors","latitude":40.482216,"longitude":-79.9519928,"address":"5308 Butler St","city":"Pittsburgh","state":"PA","stars":3.5,"review_count":3,"is_open":1},{"business_id":"995cDn3wIwi4pw4N_uLSqw","name":"Starbucks","latitude":40.542894,"longitude":-80.008204,"address":"1000 Ross Park Mall Drive, K108B","city":"Pittsburgh","state":"PA","stars":4.0,"review_count":5,"is_open":1},{"business_id":"albrwWP2nFfxZBb0gDuR_A","name":"Kohl's Robinson Township","latitude":40.446707,"longitude":-80.1598524,"address":"6571 Steubenville Pike","city":"Pittsburgh","state":"PA","stars":3.5,"review_count":6,"is_open":1},{"business_id":"aOZc6jVYHfXeX1WSrtovVQ","name":"Soothe The Sole","latitude":40.489531,"longitude":-79.901127,"address":"21 Brilliant Ave","city":"Pittsburgh","state":"PA","stars":5.0,"review_count":3,"is_open":1},{"business_id":"WgkoKRxpK7u4VDEvkcMUJg","name":"Brooks Diamonds","latitude":40.4427705,"longitude":-79.9994015,"address":"717 Liberty Ave, Ste 303","city":"Pittsburgh","state":"PA","stars":4.5,"review_count":8,"is_open":1},{"business_id":"qxw9EBhd-kCpXdRQLowfVQ","name":"BCBGMAXAZRIA","latitude":40.4276772,"longitude":-79.9661278,"address":"2708 Sidney St","city":"Pittsburgh","state":"PA","stars":2.5,"review_count":3,"is_open":0},{"business_id":"3t94i16o8duNkwU1tdfWOQ","name":"Greenfield Jewelers","latitude":40.422244,"longitude":-79.928576,"address":"4233 Murray Ave","city":"Pittsburgh","state":"PA","stars":5.0,"review_count":9,"is_open":1},{"business_id":"FR1youGHBIHL4cFWud7mOg","name":"Sephora","latitude":40.3437312077,"longitude":-80.0568795204,"address":"301 South Hills Village, Space 1405A","city":"Pittsburgh","state":"PA","stars":3.5,"review_count":12,"is_open":1},{"business_id":"gpniU5W8n8mU94yr3pqeVQ","name":"Charming Charlie - Pittsburgh","latitude":40.3572713656,"longitude":-80.0523948669,"address":"1500 Washington Rd, Ste 1305","city":"Pittsburgh","state":"PA","stars":3.5,"review_count":6,"is_open":1},{"business_id":"zsIId0dtAP0ZZ7Z92gY2Gw","name":"Caesar's Designs","latitude":40.4507847,"longitude":-79.9350585,"address":"5413 Walnut St","city":"Pittsburgh","state":"PA","stars":5.0,"review_count":6,"is_open":1},{"business_id":"vg-r3melXfuPnjMjDp3VOw","name":"Carol's Confections & Souvenirs","latitude":40.434009,"longitude":-80.005785,"address":"225 W Station Square Dr","city":"Pittsburgh","state":"PA","stars":3.5,"review_count":11,"is_open":1},{"business_id":"gqSs8Pd2nXSaZ3-zYQVbOg","name":"Aerie","latitude":40.427953,"longitude":-79.966782,"address":"540 S 27th St","city":"Pittsburgh","state":"PA","stars":3.5,"review_count":7,"is_open":1},{"business_id":"ytlpNwWei-ESC15Vl0ZRlg","name":"Eureka Chocolates and Gifts","latitude":40.4511225095,"longitude":-79.9347049988,"address":"735 Copeland St, Ste 1","city":"Pittsburgh","state":"PA","stars":5.0,"review_count":7,"is_open":1},{"business_id":"ZdUCjzyD8qpZn0H9Kgi_iw","name":"Chasse Permanent Makeup","latitude":40.4836657,"longitude":-80.0115575,"address":"3462 Delaware St","city":"Pittsburgh","state":"PA","stars":5.0,"review_count":9,"is_open":1},{"business_id":"qaezzGPJyH7ptjZp285rWQ","name":"Star Jewelry Mfg","latitude":40.4427717,"longitude":-79.9992898,"address":"717 Liberty Ave","city":"Pittsburgh","state":"PA","stars":3.5,"review_count":3,"is_open":1},{"business_id":"LyNer6BQv1-nngfQnwDOsA","name":"REI","latitude":40.440012,"longitude":-80.149424,"address":"600 Settlers Ridge Center Dr","city":"Pittsburgh","state":"PA","stars":4.5,"review_count":9,"is_open":1},{"business_id":"KsWGy-WuTUm5ve5lFUOCfg","name":"Mattress Factory Art Museum","latitude":40.4568870177,"longitude":-80.0123333923,"address":"500 Sampsonia Way","city":"Pittsburgh","state":"PA","stars":4.0,"review_count":188,"is_open":1},{"business_id":"CG4gx6zaQpW7VirEKRZ8Eg","name":"Sears","latitude":40.4072271395,"longitude":-80.12286,"address":"1500 Robinson Center Dr","city":"Pittsburgh","state":"PA","stars":3.0,"review_count":4,"is_open":0},{"business_id":"aErcW4UasI4nM44TVgv3MQ","name":"Alex and Ani","latitude":40.5445585,"longitude":-80.0087509,"address":"1000 Ross Park Mall Dr","city":"Pittsburgh","state":"PA","stars":3.0,"review_count":3,"is_open":1},{"business_id":"hts23lFsInozOSo-CWxP0A","name":"Pittsburgh's Best Remodeling","latitude":40.4464867,"longitude":-79.7638782,"address":"409 Beatty Rd","city":"Pittsburgh","state":"PA","stars":5.0,"review_count":3,"is_open":1},{"business_id":"YZvaybK5UzKMCnNQwsMrWg","name":"kate spade new york","latitude":40.544228,"longitude":-80.004432,"address":"1000 Ross Park Mall Dr","city":"Pittsburgh","state":"PA","stars":3.5,"review_count":6,"is_open":1},{"business_id":"ttuz_S9uD0Hr-wGHM6uEBw","name":"Value City Furniture","latitude":40.4548023,"longitude":-80.1634198,"address":"1400 Park Manor Blvd","city":"Pittsburgh","state":"PA","stars":1.5,"review_count":28,"is_open":1},{"business_id":"wPCrLXptccNJZf7o-qY22A","name":"Winschel Hardware","latitude":40.4961297,"longitude":-79.944081,"address":"346 Butler St","city":"Pittsburgh","state":"PA","stars":5.0,"review_count":5,"is_open":1},{"business_id":"JihePFSjZMbWvGbGlIoUPA","name":"Colker's Cleaning World","latitude":40.4550758,"longitude":-79.9776127,"address":"2618 Penn Ave","city":"Pittsburgh","state":"PA","stars":5.0,"review_count":3,"is_open":1},{"business_id":"O4iHT8zSQXl0hjJpQHKe_g","name":"Bucci Jewelry","latitude":40.4427717,"longitude":-79.9992898,"address":"717 Liberty Ave, Ste 209","city":"Pittsburgh","state":"PA","stars":5.0,"review_count":5,"is_open":1},{"business_id":"CXtJOhJwVH8I3ji_R6i02Q","name":"Vape Inn On Liberty","latitude":40.4624913974,"longitude":-79.9500766397,"address":"4615 Liberty Ave","city":"Pittsburgh","state":"PA","stars":3.0,"review_count":10,"is_open":0},{"business_id":"oc6fTFD7AM_KSItw9de5tw","name":"Lappen Eye Care - Pittsburgh","latitude":40.4271028,"longitude":-79.9375675,"address":"4048 Beechwood Blvd","city":"Pittsburgh","state":"PA","stars":4.5,"review_count":9,"is_open":1},{"business_id":"lhtbHf-6-UVqSHK2IGkEdg","name":"Forever 21","latitude":40.3430949128,"longitude":-80.0565918535,"address":"300 S Hills Vlg","city":"Pittsburgh","state":"PA","stars":3.0,"review_count":4,"is_open":1},{"business_id":"5Gy8NBl41pnhhpxKWL6YEw","name":"SEE","latitude":40.451795,"longitude":-79.932568,"address":"5533 Walnut St","city":"Pittsburgh","state":"PA","stars":5.0,"review_count":7,"is_open":1},{"business_id":"p6Zzn377J7hSOACTb2EXkw","name":"LensCrafters","latitude":40.341493,"longitude":-80.055949,"address":"132 Hill St","city":"Pittsburgh","state":"PA","stars":2.5,"review_count":12,"is_open":1},{"business_id":"xExez3LxEULhqXE9lorcAQ","name":"Bella Bridesmaids","latitude":40.3496435,"longitude":-80.0524988,"address":"1752 N Highland Rd","city":"Pittsburgh","state":"PA","stars":4.5,"review_count":12,"is_open":0},{"business_id":"mxBpa0xF1g9zEw9EHiogiw","name":"Frame Gallery","latitude":40.494482,"longitude":-79.9324616,"address":"1001 Main St","city":"Pittsburgh","state":"PA","stars":5.0,"review_count":3,"is_open":1},{"business_id":"Q3gg2d_E08yFFuJyBc3CdQ","name":"Family Eye Care","latitude":40.4521839524,"longitude":-79.8386581476,"address":"509 Long Rd","city":"Pittsburgh","state":"PA","stars":1.5,"review_count":3,"is_open":1},{"business_id":"_CZUfZp5A2TqP5UeohDFVg","name":"See's Candies","latitude":40.542516,"longitude":-80.008082,"address":"1000 Ross Park Mall Dr, Suite J15A","city":"Pittsburgh","state":"PA","stars":4.0,"review_count":7,"is_open":1},{"business_id":"XdnW3ttBK2MUkjV9PdfjWw","name":"Three Rivers Vintage","latitude":40.4286445,"longitude":-79.9813605,"address":"1718 E Carson St","city":"Pittsburgh","state":"PA","stars":4.5,"review_count":22,"is_open":1},{"business_id":"uzKRwPFsUEgLUFgdi_vOwg","name":"Moonstones","latitude":40.3654790033,"longitude":-80.0244467966,"address":"1020 Castle Shannon Blvd","city":"Pittsburgh","state":"PA","stars":3.0,"review_count":36,"is_open":1},{"business_id":"9YmWoqNThtkYTc72_N0zfQ","name":"Neville Roller Drome","latitude":40.5089331357,"longitude":-80.1268774149,"address":"5109 Neville Rd","city":"Pittsburgh","state":"PA","stars":4.0,"review_count":22,"is_open":1},{"business_id":"OwhhoAC_kExe5ZoNLG3qMw","name":"Steel City Mower & Plow","latitude":40.356185,"longitude":-80.0287,"address":"4162 Library Rd","city":"Pittsburgh","state":"PA","stars":4.5,"review_count":10,"is_open":1},{"business_id":"wirXL-q4nupF-gXxiCKmLw","name":"Steel City Clothing Store","latitude":40.4419947,"longitude":-79.9975571,"address":"625 Smithfield St","city":"Pittsburgh","state":"PA","stars":4.5,"review_count":19,"is_open":1},{"business_id":"4WYS5vysv16q6CBamsypYA","name":"Johnny Angel's Ginchy Stuff","latitude":40.4563577,"longitude":-80.0324464,"address":"1800 Preble Ave","city":"Pittsburgh","state":"PA","stars":4.0,"review_count":5,"is_open":1},{"business_id":"dWMCiIBAvNk3sHi9fWakcw","name":"Verizon","latitude":40.4403009,"longitude":-79.9986737,"address":"355 5th Ave","city":"Pittsburgh","state":"PA","stars":2.0,"review_count":5,"is_open":1},{"business_id":"lWf9dYFXNajP3XkJiflJ1Q","name":"Sunburst School of Music","latitude":40.4381768,"longitude":-79.9212196,"address":"5843 Forbes Ave, Ste 201","city":"Pittsburgh","state":"PA","stars":5.0,"review_count":3,"is_open":1},{"business_id":"DQPcVHZFK5S9NyUFO3wtlg","name":"The Buckle","latitude":40.542242,"longitude":-80.008635,"address":"1000 Ross Park Mall Dr, Ste L06","city":"Pittsburgh","state":"PA","stars":2.5,"review_count":3,"is_open":1},{"business_id":"h3WGTFwDmvmZAMCG0gEa1g","name":"Staples","latitude":40.488212,"longitude":-79.8864173,"address":"999 Freeport Rd, The Waterworks","city":"Pittsburgh","state":"PA","stars":3.5,"review_count":7,"is_open":1},{"business_id":"WYFNTwj-38Mrej3PnF4fzw","name":"Dollar General","latitude":40.4528784487,"longitude":-79.9487121319,"address":"4725 Centre Ave","city":"Pittsburgh","state":"PA","stars":3.0,"review_count":6,"is_open":1},{"business_id":"ub078jIp3U0-8f2P_gG_sg","name":"H&M","latitude":40.4541221,"longitude":-80.1611634,"address":"1510 Robinson Center Rd","city":"Pittsburgh","state":"PA","stars":3.5,"review_count":3,"is_open":1},{"business_id":"qdbnLCJkK98J3W79T7F_gQ","name":"Style Encore","latitude":40.5696175132,"longitude":-80.0222072874,"address":"750 Providence Blvd","city":"Pittsburgh","state":"PA","stars":3.0,"review_count":21,"is_open":1},{"business_id":"sap_2HKsMLxywGImYU8sjQ","name":"Budget Blinds of Downtown Pittsburgh","latitude":40.4379259,"longitude":-79.9556424,"address":"","city":"Pittsburgh","state":"PA","stars":5.0,"review_count":5,"is_open":1},{"business_id":"qFy8R5NseclYmIFbMpGbuQ","name":"Bloom Cigar Company","latitude":40.4289912,"longitude":-79.9866,"address":"54 S 12th St","city":"Pittsburgh","state":"PA","stars":4.5,"review_count":17,"is_open":1},{"business_id":"4C9m63Xk7QVCk5ykJIPkjQ","name":"Commonwealth Press","latitude":40.4187375,"longitude":-80.009954,"address":"415 West Warrington Ave","city":"Pittsburgh","state":"PA","stars":4.5,"review_count":21,"is_open":1},{"business_id":"783qMhPSIRhMvM5O8WXiww","name":"HomeGoods","latitude":40.453885,"longitude":-80.1697818,"address":"2000 Park Manor Blvd","city":"Pittsburgh","state":"PA","stars":4.5,"review_count":19,"is_open":1},{"business_id":"Cot6sn3QVG1utmh3qJNF7Q","name":"Target","latitude":40.535487,"longitude":-80.067772,"address":"288 Mt Nebo Pointe Dr","city":"Pittsburgh","state":"PA","stars":4.0,"review_count":14,"is_open":1},{"business_id":"d7mNEMA_o7TFYAehHzueDw","name":"Cvs\/Pharmacy","latitude":40.4395492,"longitude":-80.0704438,"address":"88 W Steuben St","city":"Pittsburgh","state":"PA","stars":3.0,"review_count":4,"is_open":1},{"business_id":"T80fbUgn5cJJbn087tAB2w","name":"Goldstock Jewelers","latitude":40.442771,"longitude":-79.999409,"address":"717 Liberty Ave, Ste 203","city":"Pittsburgh","state":"PA","stars":3.5,"review_count":14,"is_open":1},{"business_id":"NbT7iIVr8rz6tglE7tYTAg","name":"Master's Hardware","latitude":40.4200798,"longitude":-79.8844306,"address":"7544 Roslyn St","city":"Pittsburgh","state":"PA","stars":5.0,"review_count":5,"is_open":1},{"business_id":"8tCdk0ZRf6ZfTn8LZ_prKQ","name":"The Headgear","latitude":40.4396833,"longitude":-80.000408,"address":"312 Forbes Ave","city":"Pittsburgh","state":"PA","stars":4.5,"review_count":3,"is_open":1},{"business_id":"RPQnA3wxxTNK9ysfEKSqtQ","name":"Kawaii Gifts","latitude":40.451,"longitude":-79.9348937,"address":"738 Copeland St & 5413-B Walnut St","city":"Pittsburgh","state":"PA","stars":4.5,"review_count":26,"is_open":1},{"business_id":"kpwVYo1FS1qPI9S2v50RsA","name":"Inspired Closets","latitude":40.3871256,"longitude":-80.0439732,"address":"318 Washington Rd","city":"Pittsburgh","state":"PA","stars":5.0,"review_count":6,"is_open":1},{"business_id":"xtzbpC8nvkPRnIKy7UTkig","name":"Stuart Day Guitars","latitude":40.421911,"longitude":-79.9954432,"address":"707 E Warrington Ave","city":"Pittsburgh","state":"PA","stars":5.0,"review_count":4,"is_open":1},{"business_id":"jgJ49_07V74oZpTxIFtHaA","name":"Sears Carpet Cleaning & Air Duct Cleaning","latitude":40.550119,"longitude":-79.960291,"address":"3401 Felicity Ave","city":"Pittsburgh","state":"PA","stars":3.0,"review_count":17,"is_open":1},{"business_id":"AwopPZrF9trJxZ4yp51xbQ","name":"Giant Eagle","latitude":40.4311183,"longitude":-79.9766909,"address":"2021 Wharton Ave","city":"Pittsburgh","state":"PA","stars":2.5,"review_count":24,"is_open":1},{"business_id":"htKaC4cHY4wlB4Wqb8CDnQ","name":"Allure","latitude":40.4613814,"longitude":-79.948985,"address":"4730 Liberty Ave","city":"Pittsburgh","state":"PA","stars":4.5,"review_count":7,"is_open":1},{"business_id":"udOQuerBSi074Nsagjx6eg","name":"JCPenney","latitude":40.5430838339,"longitude":-80.0071369603,"address":"1006 Ross Park Mall Dr","city":"Pittsburgh","state":"PA","stars":2.0,"review_count":12,"is_open":1},{"business_id":"BILDxxCeTdEinTWDGY3O8g","name":"Ice Castle","latitude":40.366011,"longitude":-80.0263913,"address":"990 Castle Shannon Blvd","city":"Pittsburgh","state":"PA","stars":2.5,"review_count":14,"is_open":1},{"business_id":"XK1Xk_hhBlJuoUrwtBTbnA","name":"Art of Steel","latitude":40.4523186,"longitude":-79.9825854,"address":"2125 Penn Ave","city":"Pittsburgh","state":"PA","stars":3.0,"review_count":19,"is_open":1},{"business_id":"wBxWtEKg-7UTjXWgtFL49A","name":"Southside Jewelers","latitude":40.4289128,"longitude":-79.9796475,"address":"1821 E Carson St","city":"Pittsburgh","state":"PA","stars":2.5,"review_count":3,"is_open":1},{"business_id":"nFO_fAXbpMMaBSTVqsvF5Q","name":"SW Randall","latitude":40.4378399,"longitude":-79.9206932,"address":"5856 Forbes Ave","city":"Pittsburgh","state":"PA","stars":3.0,"review_count":8,"is_open":1},{"business_id":"2AnfthYxuJ8MlO2srQiEkg","name":"The Framery","latitude":40.463875,"longitude":-79.966701,"address":"3441 Butler St","city":"Pittsburgh","state":"PA","stars":5.0,"review_count":3,"is_open":0},{"business_id":"A8Yxg4vFN87WC010q9RKFQ","name":"Family Dollar Stores","latitude":40.4470355,"longitude":-79.8936925,"address":"7627 Penn Ave","city":"Pittsburgh","state":"PA","stars":2.5,"review_count":5,"is_open":1},{"business_id":"73mE3MRuzKmdbBI6tjbUoA","name":"The Clothes Horse","latitude":40.388851,"longitude":-80.0499854,"address":"306 Beverly Rd","city":"Pittsburgh","state":"PA","stars":5.0,"review_count":8,"is_open":1},{"business_id":"ZnLDvdtZS8FKELxwClmGIQ","name":"Precision Pointing & Restoration","latitude":40.4838822,"longitude":-79.7340943,"address":"309 Thornwood Dr","city":"Pittsburgh","state":"PA","stars":2.0,"review_count":3,"is_open":1},{"business_id":"HzVdhJ0lY8fsu7KQFRZyiw","name":"AT&T Store","latitude":40.342224,"longitude":-80.055594,"address":"301 S Hills Village","city":"Pittsburgh","state":"PA","stars":3.0,"review_count":3,"is_open":1},{"business_id":"SWbxieOcjc8av87YUpjxRg","name":"James Gallery","latitude":40.4412782,"longitude":-80.0333753,"address":"413 S Main St","city":"Pittsburgh","state":"PA","stars":5.0,"review_count":3,"is_open":1},{"business_id":"uCKrHFoZKKN70LrlBzNEyw","name":"Yuriy's Jewelry","latitude":40.4426261,"longitude":-79.9970892,"address":"643 Smithfield St","city":"Pittsburgh","state":"PA","stars":4.5,"review_count":9,"is_open":1},{"business_id":"Czk2Qqc1bBzZfFpcRynMDg","name":"Community Thrift Center","latitude":40.4293011,"longitude":-80.0540162,"address":"2226 Noblestown Rd","city":"Pittsburgh","state":"PA","stars":3.5,"review_count":17,"is_open":1},{"business_id":"nKUohp6mCtnZl1ZoNvySkw","name":"Aldi","latitude":40.5114078455,"longitude":-79.9451072884,"address":"880 Butler St","city":"Pittsburgh","state":"PA","stars":4.5,"review_count":5,"is_open":1},{"business_id":"ul5kS0CmBhCud72B6S3deg","name":"Fallas Stores","latitude":40.4276413,"longitude":-79.8879257,"address":"1763 S Braddock Ave","city":"Pittsburgh","state":"PA","stars":1.5,"review_count":3,"is_open":1},{"business_id":"etu25vAhmkEc0RIg_JMing","name":"Aldi","latitude":40.4269135,"longitude":-79.9674323,"address":"2628 E Carson St","city":"Pittsburgh","state":"PA","stars":4.0,"review_count":28,"is_open":1},{"business_id":"WG6GsWEbZe2guw-QOidMDQ","name":"SEPHORA","latitude":40.5445685,"longitude":-80.0087509,"address":"1000 Ross Park Mall Dr, Spc C07A","city":"Pittsburgh","state":"PA","stars":4.0,"review_count":20,"is_open":1},{"business_id":"a0FS7zFE6x5DnEXeO-v7Fg","name":"Daniels' Discount","latitude":40.329591,"longitude":-79.9884834,"address":"5724 Curry Rd","city":"Pittsburgh","state":"PA","stars":3.0,"review_count":10,"is_open":1},{"business_id":"EafZ9d170S18zqd1qs9MLQ","name":"Settlers Ridge","latitude":40.439408,"longitude":-80.149135,"address":"700 Settler Ridge Center Dr","city":"Pittsburgh","state":"PA","stars":3.5,"review_count":10,"is_open":1},{"business_id":"R-EElWnm_aIAUCFN0Qw8xQ","name":"Three Rivers Arts Festival","latitude":40.4406574,"longitude":-80.0095609,"address":"101 Commonwealth Pl, Ste 1","city":"Pittsburgh","state":"PA","stars":4.0,"review_count":39,"is_open":1},{"business_id":"cNNtjnsz708bICtPqXYjsQ","name":"Giant Eagle","latitude":40.440414,"longitude":-80.070738,"address":"51 Walsh Rd","city":"Pittsburgh","state":"PA","stars":3.0,"review_count":5,"is_open":1},{"business_id":"x_DjeSEMkJkFHzSTfKYHvA","name":"West Liberty Cycles","latitude":40.393858,"longitude":-80.019631,"address":"801 Brookline Blvd","city":"Pittsburgh","state":"PA","stars":4.5,"review_count":16,"is_open":1},{"business_id":"zj6Bg0aeNVzkMIeHFpRDew","name":"Box Heart","latitude":40.4629205,"longitude":-79.9509151,"address":"4523 Liberty Ave","city":"Pittsburgh","state":"PA","stars":4.5,"review_count":3,"is_open":1},{"business_id":"03wTiETnZoZ0HowpXsSRuQ","name":"Kountz & Rider","latitude":40.4380067,"longitude":-79.9988746,"address":"301 Grant St, Ste 21","city":"Pittsburgh","state":"PA","stars":5.0,"review_count":3,"is_open":0},{"business_id":"kAgSFJ_yUGyz98g8q1zIqw","name":"Cosmetic Laser Centers","latitude":40.4553843,"longitude":-80.1619588,"address":"6507 Robinson Centre Dr","city":"Pittsburgh","state":"PA","stars":5.0,"review_count":3,"is_open":1},{"business_id":"dvbSeyQuS5xbw60Pe6raGg","name":"Global Market Retail","latitude":40.4342212,"longitude":-79.9230271,"address":"2016 Murray Ave","city":"Pittsburgh","state":"PA","stars":5.0,"review_count":7,"is_open":1},{"business_id":"XrYAU-lCeIfDjKiaLMHvkg","name":"Altar'd State","latitude":40.5445685,"longitude":-80.0087509,"address":"1000 Ross Park Mall Dr, Ste L13A","city":"Pittsburgh","state":"PA","stars":3.5,"review_count":5,"is_open":1},{"business_id":"vaYmOrzaYE0-Bd297Cf5-A","name":"Rockler Woodworking & Hardware","latitude":40.5407097876,"longitude":-80.0119434035,"address":"7402 Mcknight Rd","city":"Pittsburgh","state":"PA","stars":4.0,"review_count":4,"is_open":1},{"business_id":"tPofkcatyAfU4pyXprc6Ow","name":"PachaMama Divine Connection","latitude":40.4504976,"longitude":-79.9844291,"address":"1812 Penn Ave","city":"Pittsburgh","state":"PA","stars":5.0,"review_count":5,"is_open":1},{"business_id":"bpvv9BpcTlkLeMbYSQZDsw","name":"Steam Masters","latitude":40.5006447,"longitude":-80.0121147,"address":"4535 Mcknight Rd","city":"Pittsburgh","state":"PA","stars":4.0,"review_count":6,"is_open":1},{"business_id":"kXScENbHsJFkivqwbILeSA","name":"Alberts Gifts","latitude":40.459256,"longitude":-79.972672,"address":"3001 Penn Ave","city":"Pittsburgh","state":"PA","stars":3.5,"review_count":3,"is_open":1},{"business_id":"9yACFTyBd460lJD7YgYZZA","name":"Giant Eagle","latitude":40.462393,"longitude":-79.824129,"address":"230 Rodi Rd","city":"Pittsburgh","state":"PA","stars":2.5,"review_count":8,"is_open":1},{"business_id":"TGHHVE6JycO4L9xfb3kCpA","name":"Kay Jewelers","latitude":40.5445585,"longitude":-80.0087509,"address":"1000 Ross Park Mall Dr, Ste 2","city":"Pittsburgh","state":"PA","stars":2.0,"review_count":5,"is_open":1},{"business_id":"bGKAjrtFz1ssLSCh0ORjrQ","name":"Koolkat Designs","latitude":40.3802644,"longitude":-80.0442919,"address":"691 Washington Rd","city":"Pittsburgh","state":"PA","stars":3.5,"review_count":3,"is_open":0},{"business_id":"ujtlFhJyBWQ7tv2xq0FIRQ","name":"Loova","latitude":40.4329694,"longitude":-80.0045096,"address":"125 W Station Square Dr","city":"Pittsburgh","state":"PA","stars":3.5,"review_count":6,"is_open":0},{"business_id":"nXSLrKb4o7ocXjFXjJCVKw","name":"Heart of the Earth","latitude":40.4510637,"longitude":-79.9348095,"address":"738 Copeland St","city":"Pittsburgh","state":"PA","stars":3.0,"review_count":7,"is_open":0},{"business_id":"GFFNWhFNOyxtb3cq0I0sHQ","name":"Sally Beauty Supply","latitude":40.525672,"longitude":-80.007369,"address":"4801 McKnight Rd","city":"Pittsburgh","state":"PA","stars":2.5,"review_count":5,"is_open":1},{"business_id":"gd9K_ODAV7mKa-gAMZIKkA","name":"Penn Avenue Pottery","latitude":40.4510332,"longitude":-79.9845939,"address":"1905 Penn Ave","city":"Pittsburgh","state":"PA","stars":4.5,"review_count":8,"is_open":1},{"business_id":"_HR-YLv77wsTe1nIpR8bow","name":"Tiny Box Vape Shop","latitude":40.519096,"longitude":-80.0320643,"address":"432 Perry Hwy","city":"Pittsburgh","state":"PA","stars":3.5,"review_count":11,"is_open":1},{"business_id":"Ka009dSfdEggnbYpPYrT0g","name":"Michael's Bridal Galleria","latitude":40.5477169,"longitude":-80.0355297,"address":"1130 Perry Hwy","city":"Pittsburgh","state":"PA","stars":4.0,"review_count":6,"is_open":1},{"business_id":"AaQFvrcLXzPq8TtmIwpbfg","name":"The Hkan Hookah Bar","latitude":40.4282556,"longitude":-79.9740375,"address":"2210 E Carson St","city":"Pittsburgh","state":"PA","stars":3.0,"review_count":4,"is_open":0},{"business_id":"Ha63J58CN0kZfz36T33e2g","name":"Eyetique","latitude":40.450825,"longitude":-80.161478,"address":"2460 Robinson Centre Dr","city":"Pittsburgh","state":"PA","stars":3.0,"review_count":7,"is_open":1},{"business_id":"U5QcgzwssTQ6X60IQiB5jQ","name":"J Crew","latitude":40.5445585,"longitude":-80.0087509,"address":"1000 Ross Park Mall Dr","city":"Pittsburgh","state":"PA","stars":2.5,"review_count":4,"is_open":1},{"business_id":"0Em_6So49P5c0j1bJABo3g","name":"Jos. A. Bank","latitude":40.54457,"longitude":-80.008753,"address":"1000 Ross Park Mall Dr, Ste D","city":"Pittsburgh","state":"PA","stars":1.0,"review_count":4,"is_open":1},{"business_id":"FM_JfwjnkGJw5PPuWHK6-g","name":"Songbird Artistry","latitude":40.4657371,"longitude":-79.9536646,"address":"4316 Penn Ave","city":"Pittsburgh","state":"PA","stars":5.0,"review_count":5,"is_open":1},{"business_id":"im2J4GZZdEl7s4o21D7rgw","name":"Lucy's","latitude":40.4524912,"longitude":-79.9815446,"address":"2216 Penn Ave","city":"Pittsburgh","state":"PA","stars":4.5,"review_count":49,"is_open":1},{"business_id":"AoSG2sfQy3rf6ySzEYgQiA","name":"Gabriel Brothers","latitude":40.554589,"longitude":-80.016156,"address":"7900 McKnight Rd","city":"Pittsburgh","state":"PA","stars":4.0,"review_count":13,"is_open":0},{"business_id":"xEKDZKuXXOd67f7O4crgPQ","name":"Miller Frame","latitude":40.4599915,"longitude":-79.9240873,"address":"6020 Centre Ave","city":"Pittsburgh","state":"PA","stars":4.5,"review_count":3,"is_open":1},{"business_id":"qxskOj5LdG8KDJfhwxsjqw","name":"Learning Express Toys","latitude":40.357037,"longitude":-80.051331,"address":"1500 Washington Rd","city":"Pittsburgh","state":"PA","stars":3.5,"review_count":3,"is_open":1},{"business_id":"JFLhQnQDcjnmSJG_eZ6TIw","name":"Levin Mattress","latitude":40.4495173331,"longitude":-80.1608083998,"address":"6528 Stubenville Pike","city":"Pittsburgh","state":"PA","stars":4.0,"review_count":4,"is_open":1},{"business_id":"kfnPBmYI9kn9a30l2VkPWw","name":"Giant Eagle Pharmacy","latitude":40.555173,"longitude":-80.018303,"address":"8050 McKnight Rd","city":"Pittsburgh","state":"PA","stars":3.0,"review_count":6,"is_open":1},{"business_id":"Gke_dDm4Chc4BtYkbgLZ5Q","name":"Smoke Wizard","latitude":40.4379194,"longitude":-79.9201297,"address":"5874 Forbes Ave","city":"Pittsburgh","state":"PA","stars":3.0,"review_count":6,"is_open":1},{"business_id":"gGB6Odj0AnVxPXxWkBRaNA","name":"Torrid","latitude":40.342041,"longitude":-80.055559,"address":"301 S Hills Village, Ste 1050B","city":"Pittsburgh","state":"PA","stars":5.0,"review_count":4,"is_open":1},{"business_id":"9CPd4canLC31gsDIo--6yQ","name":"Wallace Floral","latitude":40.4419737,"longitude":-80.0034017,"address":"120 5th Ave","city":"Pittsburgh","state":"PA","stars":3.5,"review_count":4,"is_open":1},{"business_id":"mH8CjCZuCwgKfKnRCrwm7g","name":"Eyetique","latitude":40.4412756,"longitude":-79.9576748,"address":"3701 Forbes Ave","city":"Pittsburgh","state":"PA","stars":3.5,"review_count":3,"is_open":1},{"business_id":"FBlq4gaQ_fxi_sSs7R8w8A","name":"Olde Allegheny Community Gardens","latitude":40.456834,"longitude":-80.0094869,"address":"1311 Arch St","city":"Pittsburgh","state":"PA","stars":4.5,"review_count":4,"is_open":1},{"business_id":"iCQYA6xNkeLOELRo1aHhCg","name":"Brooks Brothers","latitude":40.4415278,"longitude":-79.9973732,"address":"600 Smithfield St","city":"Pittsburgh","state":"PA","stars":3.0,"review_count":10,"is_open":1},{"business_id":"Y_tZOg2a9mUHgEqDBoKLgw","name":"RadioShack","latitude":40.4880978,"longitude":-79.8876016,"address":"961 Freeport Rd","city":"Pittsburgh","state":"PA","stars":4.5,"review_count":3,"is_open":0},{"business_id":"1Zoksw4ZZzrdQePSE8Z4EQ","name":"Premier Foliage & Flowering","latitude":40.4586744,"longitude":-79.9319553,"address":"5748 Baum Blvd","city":"Pittsburgh","state":"PA","stars":4.0,"review_count":4,"is_open":1},{"business_id":"Dj5_ClktBbyLCSV4cKquIQ","name":"Utrecht Art Supplies","latitude":40.4283263,"longitude":-79.9778037,"address":"1930 E Carson St","city":"Pittsburgh","state":"PA","stars":4.0,"review_count":3,"is_open":0},{"business_id":"Flxxmmegf_qLsjDog0j7xw","name":"Roxanne's Dried Flowers","latitude":40.4521079,"longitude":-79.9828038,"address":"2115 Penn Ave","city":"Pittsburgh","state":"PA","stars":4.5,"review_count":27,"is_open":1},{"business_id":"hdVCaoubEUQTYDszSyTtig","name":"Lush Cosmetics","latitude":40.3432891098,"longitude":-80.0575194937,"address":"301 S Hills Village","city":"Pittsburgh","state":"PA","stars":5.0,"review_count":15,"is_open":1},{"business_id":"YRxggYsptGe4_VJGb7ZYQg","name":"Welcome Pittsburgh Information Center and Gift Shop","latitude":40.4419737,"longitude":-80.0034017,"address":"120 Fifth Ave","city":"Pittsburgh","state":"PA","stars":4.5,"review_count":3,"is_open":1},{"business_id":"kl0vtf5R3KtYCNAMOC5viw","name":"Spencer's","latitude":40.544686,"longitude":-80.007139,"address":"1000 Ross Park Mall","city":"Pittsburgh","state":"PA","stars":4.5,"review_count":3,"is_open":1},{"business_id":"5ZE-thfwrinDHWFBfoZIvQ","name":"Pittsburgh Rug Company","latitude":40.458313,"longitude":-79.9758053,"address":"2835 Smallman St","city":"Pittsburgh","state":"PA","stars":5.0,"review_count":5,"is_open":1},{"business_id":"EzB40zduHHO_S-F-AjaBAg","name":"Verizon","latitude":40.4565115965,"longitude":-79.9151934173,"address":"122 Bakery Square Blvd","city":"Pittsburgh","state":"PA","stars":2.5,"review_count":6,"is_open":1},{"business_id":"EveD_53xO4H1PbPRtcBkjw","name":"Scribe","latitude":40.4517568,"longitude":-79.9330841,"address":"731 1\/2 Filbert St","city":"Pittsburgh","state":"PA","stars":5.0,"review_count":3,"is_open":1},{"business_id":"2ZzThh_QS7JnNApvNwOH4w","name":"At Home","latitude":40.5522963,"longitude":-80.0166999,"address":"3000 Mcintyre Sq Dr","city":"Pittsburgh","state":"PA","stars":3.5,"review_count":10,"is_open":1},{"business_id":"7oG1Uwj_OKLSnYJ8SqiWSw","name":"Pandora","latitude":40.450656,"longitude":-79.93454,"address":"5424 Walnut St","city":"Pittsburgh","state":"PA","stars":5.0,"review_count":3,"is_open":1},{"business_id":"mILLgPTWueUh6CJOwLGdDA","name":"Kolor-N-Kiln","latitude":40.4547052,"longitude":-80.1571838,"address":"100 Robinson Center Dr","city":"Pittsburgh","state":"PA","stars":4.5,"review_count":9,"is_open":1},{"business_id":"jU7nm1w3CT7qfwqR83EbvA","name":"Mt Lebanon Floral Shop","latitude":40.3794013,"longitude":-80.0448518,"address":"725 Washington Rd","city":"Pittsburgh","state":"PA","stars":3.5,"review_count":20,"is_open":1},{"business_id":"SUEk02p6qjLfWzMZHjYSjA","name":"Lucys Handmade Clothing Shop","latitude":40.4516243,"longitude":-79.9836143,"address":"2021 Penn Ave","city":"Pittsburgh","state":"PA","stars":4.5,"review_count":6,"is_open":1},{"business_id":"7gw3eA_6ISl4W1lb4xPH5Q","name":"Leone Floral","latitude":40.4599461,"longitude":-79.9464669,"address":"4822 Liberty Ave","city":"Pittsburgh","state":"PA","stars":4.0,"review_count":6,"is_open":1},{"business_id":"cyhVmHksXAafxc7OJFHzug","name":"Roomful Express Furniture","latitude":40.4439054,"longitude":-80.082652,"address":"2250 Roswell Dr","city":"Pittsburgh","state":"PA","stars":1.5,"review_count":3,"is_open":0},{"business_id":"coo8SbhOO8RtPKznMwwTMw","name":"Toys R Us","latitude":40.4526378,"longitude":-80.1618318,"address":"2001 Park Manor Blvd","city":"Pittsburgh","state":"PA","stars":2.5,"review_count":8,"is_open":0},{"business_id":"yD8Y_Pd7euU_YGW74FXMOQ","name":"Don's Appliances","latitude":40.460569,"longitude":-79.925911,"address":"5958 Baum Blvd","city":"Pittsburgh","state":"PA","stars":2.5,"review_count":15,"is_open":1},{"business_id":"t7E0chL0rY4NNKtkHs7kaQ","name":"Marlene Harris Collection","latitude":40.4931484,"longitude":-79.9119458,"address":"238 1\/2 Freeport Rd","city":"Pittsburgh","state":"PA","stars":4.5,"review_count":37,"is_open":1},{"business_id":"OS3Y96FhiHwRLyiRfppaDw","name":"Bellevue Do It Best Hardware","latitude":40.4955249,"longitude":-80.056049,"address":"509 Lincoln Ave","city":"Pittsburgh","state":"PA","stars":4.5,"review_count":5,"is_open":1},{"business_id":"sHjF9hvB0qJ-Jiyq-NyJJA","name":"AT&T Store","latitude":40.439779,"longitude":-79.996269,"address":"500 Grant St, Ste 115","city":"Pittsburgh","state":"PA","stars":3.0,"review_count":8,"is_open":1},{"business_id":"pzKdQnjQUtMGLgPW6Fxr_Q","name":"Big Lots","latitude":40.4637105705,"longitude":-79.8273617193,"address":"11628 Penn Hills Dr","city":"Pittsburgh","state":"PA","stars":3.0,"review_count":6,"is_open":1},{"business_id":"kDkiFkPVc-fWDN3nzn8Pew","name":"Rothman Awning","latitude":40.4070865,"longitude":-79.9450031,"address":"44 W Elizabeth St","city":"Pittsburgh","state":"PA","stars":2.0,"review_count":4,"is_open":1},{"business_id":"CZPwDxPvj5T3YIELkOelsw","name":"Culmer Moving","latitude":40.4550064,"longitude":-79.9093657,"address":"6730 McPherson Blvd, Ste 1","city":"Pittsburgh","state":"PA","stars":4.0,"review_count":45,"is_open":1},{"business_id":"hQ1MOXOV5GBjAJv9W88lwQ","name":"Hot Rod Body Piercing Co.","latitude":40.4419592,"longitude":-79.9572204,"address":"115 Oakland Ave, Fl 2","city":"Pittsburgh","state":"PA","stars":4.5,"review_count":31,"is_open":0},{"business_id":"59sv6bcwj8XFMclG5KBwNQ","name":"Visionworks","latitude":40.343321,"longitude":-80.056338,"address":"301 S Hills Village, Space 2265A","city":"Pittsburgh","state":"PA","stars":3.0,"review_count":15,"is_open":1},{"business_id":"73UQ8yDPP_vAkSoc1gyJUw","name":"Aesthetic Skin & Laser Center","latitude":40.4659861738,"longitude":-79.9526327865,"address":"4424 Penn Ave, Ste 102","city":"Pittsburgh","state":"PA","stars":3.0,"review_count":8,"is_open":1},{"business_id":"Hn0dzCxesXWmZux79y80qQ","name":"Culture Shop","latitude":40.4287659745,"longitude":-79.9826647737,"address":"1602 1\/2 E Carson St","city":"Pittsburgh","state":"PA","stars":3.5,"review_count":33,"is_open":1},{"business_id":"sJat5ygh4-PhAJJ3eZ_eZw","name":"Pete Donati & Sons","latitude":40.339189,"longitude":-80.04985,"address":"35 Donati Rd","city":"Pittsburgh","state":"PA","stars":3.5,"review_count":10,"is_open":1},{"business_id":"CWWUo0zMnM6Ul9LVPwC0Bw","name":"Giant Eagle","latitude":40.555647,"longitude":-80.018337,"address":"8080 Mcintyre Sq Dr","city":"Pittsburgh","state":"PA","stars":2.5,"review_count":7,"is_open":1},{"business_id":"AaXrVLqmI3cnDcN_8GWWLw","name":"Steel City Vapors Express","latitude":40.4320547,"longitude":-79.9233034,"address":"2208 Murray Ave","city":"Pittsburgh","state":"PA","stars":4.5,"review_count":11,"is_open":0},{"business_id":"o5w4WlufJ3KryVMGRgu_FA","name":"The Salvation Army Family Store & Donation Center","latitude":40.4287701,"longitude":-79.9904985,"address":"811 E Carson St","city":"Pittsburgh","state":"PA","stars":3.5,"review_count":14,"is_open":1},{"business_id":"fa3w_Kz8koTClFot5dKoYw","name":"Braverman Arms","latitude":40.4419084,"longitude":-79.8801507,"address":"912 Penn Ave","city":"Pittsburgh","state":"PA","stars":5.0,"review_count":4,"is_open":0},{"business_id":"t8oz_kjDtziGukcA1MdQQQ","name":"BOOM Concepts","latitude":40.4649108,"longitude":-79.9413546,"address":"5139 Penn Ave","city":"Pittsburgh","state":"PA","stars":5.0,"review_count":3,"is_open":1},{"business_id":"2771B7Sk3fuL7DjDVCsk3Q","name":"Family Dollar","latitude":40.4436906,"longitude":-79.9806833,"address":"1917 Centre Ave","city":"Pittsburgh","state":"PA","stars":3.0,"review_count":3,"is_open":1},{"business_id":"4CVP_a_mH77ywcSaU4vUwA","name":"Meder's Garden Center","latitude":40.342249,"longitude":-79.955594,"address":"360 Regis Ave","city":"Pittsburgh","state":"PA","stars":4.5,"review_count":3,"is_open":1},{"business_id":"BKpmbZinihQPZra5SWks3A","name":"Allegheny Smokeworks","latitude":40.492507,"longitude":-79.864475,"address":"217 Freeport Rd","city":"Pittsburgh","state":"PA","stars":4.5,"review_count":14,"is_open":1},{"business_id":"zqzR_i_3L0e-NMI9ls-SFg","name":"Supercuts","latitude":40.399457,"longitude":-80.043683,"address":"3143 Banksville Ave, Banksville Plaza","city":"Pittsburgh","state":"PA","stars":2.5,"review_count":9,"is_open":1},{"business_id":"qHi4LjNSWTob3zzFrvs-QA","name":"Ultimate Outdoors","latitude":40.4787058,"longitude":-79.70574,"address":"2780 Golden Mile Hwy","city":"Pittsburgh","state":"PA","stars":5.0,"review_count":4,"is_open":1},{"business_id":"ydM6JUPDxKq7Z5tcd1z2cA","name":"Urbanowicz Jewelers","latitude":40.358985,"longitude":-80.0009352,"address":"600 Caste Village","city":"Pittsburgh","state":"PA","stars":4.0,"review_count":4,"is_open":1},{"business_id":"FTfpt1nfKCdzd58S-jePVg","name":"Klein's Flower Shop & Greenhouse","latitude":40.3683072,"longitude":-79.9775825,"address":"3912 Brownsville Rd.","city":"Pittsburgh","state":"PA","stars":5.0,"review_count":3,"is_open":1},{"business_id":"pOobG4bVsEv3rTGpPqCqgA","name":"Dollar General","latitude":40.3963059,"longitude":-80.0468123,"address":"1695 McFarland Rd","city":"Pittsburgh","state":"PA","stars":1.5,"review_count":6,"is_open":1},{"business_id":"55hh7ytRsWTEPC-66KJqGw","name":"Mattress Firm Robinson","latitude":40.4480170133,"longitude":-80.179795341,"address":"221 Summit Park Dr","city":"Pittsburgh","state":"PA","stars":3.5,"review_count":5,"is_open":0},{"business_id":"098G16F8OQHVzsFoe6sRHw","name":"Macy's","latitude":40.572702,"longitude":-79.800951,"address":"301 S Hills Vlg","city":"Pittsburgh","state":"PA","stars":2.5,"review_count":11,"is_open":1},{"business_id":"bzT3yfxbZSeGvvIRQSgGIg","name":"America's Best Contacts & Eyeglasses","latitude":40.339789,"longitude":-79.965475,"address":"10 Old Clairton Rd","city":"Pittsburgh","state":"PA","stars":3.0,"review_count":7,"is_open":1},{"business_id":"nQVbJcn7HcsYHlx8k2NVuw","name":"Ference Electric","latitude":40.49716,"longitude":-80.06389,"address":"934 McKinley Trce, Ste 212","city":"Pittsburgh","state":"PA","stars":5.0,"review_count":5,"is_open":1},{"business_id":"mndfvTs1HppOSgaAlSkwZA","name":"Loom Exquisite Textiles","latitude":40.4520298,"longitude":-79.982287,"address":"2124 Penn Ave","city":"Pittsburgh","state":"PA","stars":4.5,"review_count":11,"is_open":1},{"business_id":"Hav5aI2bcHxS-vCT3aVYuA","name":"The Flower Market","latitude":40.539147,"longitude":-80.0359836,"address":"994 Perry Hwy, Ste 1","city":"Pittsburgh","state":"PA","stars":5.0,"review_count":3,"is_open":1},{"business_id":"HBuaznlnySWD3KUBZiBXJg","name":"Bondstreet Shoes","latitude":40.4517596,"longitude":-79.9325658,"address":"5533 Walnut St","city":"Pittsburgh","state":"PA","stars":4.0,"review_count":6,"is_open":0},{"business_id":"kVEMdShYp-uIGruY5tLiTw","name":"A&A Estate Sales","latitude":40.3509675,"longitude":-79.9136731,"address":"","city":"Pittsburgh","state":"PA","stars":5.0,"review_count":3,"is_open":1},{"business_id":"NaYaHDiCTZn_ZE5vpNw-Xg","name":"Figleaf Boutique","latitude":40.4286571,"longitude":-79.983834,"address":"1406 E Carson St","city":"Pittsburgh","state":"PA","stars":4.0,"review_count":20,"is_open":1},{"business_id":"9GuzOketW5TmKPaEe1JdDQ","name":"Silver Eye Center For Photography","latitude":40.465101,"longitude":-79.9455768,"address":"4808 Penn Ave","city":"Pittsburgh","state":"PA","stars":3.0,"review_count":4,"is_open":1},{"business_id":"G6CWt1kAHwmbdCRMUCxNPg","name":"Rite Aid","latitude":40.441067,"longitude":-79.957254,"address":"3700 Forbes Ave","city":"Pittsburgh","state":"PA","stars":2.5,"review_count":3,"is_open":1},{"business_id":"7tFRJf7KOrVEKkWFVb5ClA","name":"Dandelions","latitude":40.469577,"longitude":-79.960824,"address":"4108 Butler St","city":"Pittsburgh","state":"PA","stars":4.5,"review_count":8,"is_open":0},{"business_id":"dpXDPvro4CJi2mhC0ohx5A","name":"Pittsburgh Glass Center","latitude":40.4640804,"longitude":-79.9328829,"address":"5472 Penn Ave","city":"Pittsburgh","state":"PA","stars":4.5,"review_count":36,"is_open":1},{"business_id":"a8k9pskz1nNjZvS08t6lcw","name":"Vogt True Value Hardware","latitude":40.4285857,"longitude":-79.984867,"address":"1308 E Carson St","city":"Pittsburgh","state":"PA","stars":3.5,"review_count":7,"is_open":1},{"business_id":"MIoaKihbI0po8kIV6cIckw","name":"Allegheny Landing","latitude":40.447489,"longitude":-80.002976,"address":"12 Federal St","city":"Pittsburgh","state":"PA","stars":5.0,"review_count":4,"is_open":1},{"business_id":"juTua9ZcUTUeXr8i_H14Xg","name":"Swirling Wind Vapors","latitude":40.3722635,"longitude":-79.9823218,"address":"3538 Saw Mill Run Rd","city":"Pittsburgh","state":"PA","stars":3.0,"review_count":4,"is_open":1},{"business_id":"y5GLyoG3V6SocoL7qqX0aA","name":"Pittsburgh Eye Associates","latitude":40.4659071,"longitude":-79.9526076,"address":"4424 Penn Ave Pittsburgh Pa, Ste 101","city":"Pittsburgh","state":"PA","stars":3.0,"review_count":8,"is_open":1},{"business_id":"CpKD5zT-cpCOATmebT4kcw","name":"Ulta Beauty","latitude":40.551373,"longitude":-80.021155,"address":"6240 Northway Dr","city":"Pittsburgh","state":"PA","stars":3.0,"review_count":29,"is_open":1},{"business_id":"GmLMQSSJjOkuOReTe2rWsw","name":"Vapor Galleria","latitude":40.4264,"longitude":-79.9664303,"address":"2724 East Carson St","city":"Pittsburgh","state":"PA","stars":5.0,"review_count":3,"is_open":1},{"business_id":"3j_8fQ3G3V3LEJuq8O-RTQ","name":"Best Buy North Fayette","latitude":40.4526371623,"longitude":-80.1813302591,"address":"440 Home Dr","city":"Pittsburgh","state":"PA","stars":2.0,"review_count":25,"is_open":1},{"business_id":"XJHZWOSbHQWVuYEqOkpiRQ","name":"Dormont Vision Center","latitude":40.3948836,"longitude":-80.0341369,"address":"2893 W Liberty Ave","city":"Pittsburgh","state":"PA","stars":4.0,"review_count":7,"is_open":1},{"business_id":"EVZXrb_568k_F1nhuYupLQ","name":"Hometowne Sports","latitude":40.4283228,"longitude":-79.9778078,"address":"1930 E Carson St","city":"Pittsburgh","state":"PA","stars":4.0,"review_count":10,"is_open":1},{"business_id":"KkU8rcLKKbPIdOMgWwFM3w","name":"Pittsburgh Paintball Park","latitude":40.422382,"longitude":-80.074389,"address":"1403 Idlewood Rd","city":"Pittsburgh","state":"PA","stars":4.0,"review_count":7,"is_open":1},{"business_id":"Dol1vDe04KRuzX2l8Klvog","name":"Awesome Books","latitude":40.4651258,"longitude":-79.9423817,"address":"5111 Penn Ave","city":"Pittsburgh","state":"PA","stars":4.5,"review_count":8,"is_open":0},{"business_id":"Ydv7oZxace-ig29rJiC3qw","name":"South Side Comics","latitude":40.3655259,"longitude":-79.9821106,"address":"4135B Brownsville Rd","city":"Pittsburgh","state":"PA","stars":3.5,"review_count":8,"is_open":1},{"business_id":"uN_f8SF2SPJn1UJ3P5pUOQ","name":"Hepatica","latitude":40.4323229,"longitude":-79.8933753,"address":"1119 S Braddock Ave","city":"Pittsburgh","state":"PA","stars":4.5,"review_count":14,"is_open":1},{"business_id":"h4YD1rFPRqOBNx3pq3aQlQ","name":"Mod Design & ARTica Gallery","latitude":40.4648791,"longitude":-79.9422247,"address":"5110 Penn Ave","city":"Pittsburgh","state":"PA","stars":3.5,"review_count":3,"is_open":1},{"business_id":"IS5M60DX0y7EbjQu3WSAsw","name":"Best Buy Century Iii","latitude":40.3348408,"longitude":-79.9446771,"address":"473 Clairton Blvd","city":"Pittsburgh","state":"PA","stars":3.0,"review_count":12,"is_open":1},{"business_id":"MkqiuG-zMWMEf0hwyyB-yA","name":"3 Guys Optical","latitude":40.4411825,"longitude":-80.0018204,"address":"208 Fifth Ave","city":"Pittsburgh","state":"PA","stars":3.5,"review_count":27,"is_open":0},{"business_id":"aX2mN3dhNBNBaTxTaF1HDQ","name":"Iron City Self Storage","latitude":40.4581679,"longitude":-79.9561895,"address":"3700 Bigelow Blvd","city":"Pittsburgh","state":"PA","stars":4.5,"review_count":7,"is_open":0},{"business_id":"Fk1F7knItB2d1DTRKPQGNw","name":"Kid To Kid Pittsburgh","latitude":40.5427702,"longitude":-80.0124082,"address":"7440 Mcknight Rd","city":"Pittsburgh","state":"PA","stars":4.0,"review_count":10,"is_open":1},{"business_id":"UfMRpaZTQKEmjYVMDiyEUQ","name":"3 Guys Optical","latitude":40.5296965,"longitude":-80.010085,"address":"4885 Mcknight Rd","city":"Pittsburgh","state":"PA","stars":5.0,"review_count":4,"is_open":0},{"business_id":"YTMo1JRrr6zVSHKcY_OnbA","name":"Robinson Town Centre","latitude":40.4542608,"longitude":-80.1692898,"address":"1980 Park Manor Blvd","city":"Pittsburgh","state":"PA","stars":4.5,"review_count":3,"is_open":1},{"business_id":"ssPMYdRhv1a5n02u50TANw","name":"Compression Management Services\/ Lymphedema Centers","latitude":40.4535223264,"longitude":-79.9375172802,"address":"580 S Aiken Ave, Ste 420","city":"Pittsburgh","state":"PA","stars":3.5,"review_count":3,"is_open":1},{"business_id":"n1deY7Ymy6C_VyS1DF3tnA","name":"Visit Pittsburgh","latitude":40.4421996969,"longitude":-80.003654137,"address":"120 5th Ave, Fl 1, HighMark Building","city":"Pittsburgh","state":"PA","stars":4.5,"review_count":6,"is_open":1},{"business_id":"lBTGu9ZHrvrWzwvb3TUjXg","name":"City Books","latitude":40.428935,"longitude":-79.987001,"address":"1111 E Carson St","city":"Pittsburgh","state":"PA","stars":4.0,"review_count":4,"is_open":0},{"business_id":"bqOuEU31evbcI064wHN1jQ","name":"DSW Designer Shoe Warehouse","latitude":40.4521943562,"longitude":-80.1697602219,"address":"2100 Park Manor Blvd","city":"Pittsburgh","state":"PA","stars":4.5,"review_count":7,"is_open":1},{"business_id":"exGLYhOPYOJM2qizOcUhVw","name":"Xtnd Case","latitude":40.4289093,"longitude":-79.9880208,"address":"1013 E Carson St","city":"Pittsburgh","state":"PA","stars":1.0,"review_count":9,"is_open":1},{"business_id":"UyF7JnYrECL38R4Nn38cDw","name":"3 Guys Optical","latitude":40.4413102,"longitude":-79.9576541,"address":"3701 Forbes Ave","city":"Pittsburgh","state":"PA","stars":3.5,"review_count":31,"is_open":1},{"business_id":"-EOkXdih0os9dWdSe3W8kA","name":"Banana Republic","latitude":40.5445685,"longitude":-80.0087509,"address":"1000 Rosspark Mall Dr","city":"Pittsburgh","state":"PA","stars":2.0,"review_count":3,"is_open":1},{"business_id":"c19Me4yU09FI7m2QzX-Adw","name":"Bloom Organic Skincare Parlor","latitude":40.480848,"longitude":-79.953774,"address":"5220 Butler St","city":"Pittsburgh","state":"PA","stars":5.0,"review_count":24,"is_open":0},{"business_id":"qjJcAz5WsRdcZWa4eEOE3Q","name":"Legions Hobbies & Games","latitude":40.5461428,"longitude":-80.0360908,"address":"1130 Perry Hwy","city":"Pittsburgh","state":"PA","stars":2.5,"review_count":6,"is_open":1},{"business_id":"PXKYgpMizFKRa0zAfaCWuQ","name":"Rite Aid","latitude":40.425747,"longitude":-79.972958,"address":"2300 Jane St","city":"Pittsburgh","state":"PA","stars":4.0,"review_count":6,"is_open":1},{"business_id":"0zpkvq98Gx34dF7UK2u02w","name":"Claire's Accessories","latitude":40.544596,"longitude":-80.0087509,"address":"1000 Ross Park Mall Dr","city":"Pittsburgh","state":"PA","stars":3.5,"review_count":3,"is_open":1},{"business_id":"7PTYZOAW1yF7o_OHdf0BAA","name":"Marshalls Department Store","latitude":40.395951,"longitude":-80.0673683,"address":"1900 Greentree Rd","city":"Pittsburgh","state":"PA","stars":4.0,"review_count":10,"is_open":1},{"business_id":"uHbxUKziypVkHffEYfnP2g","name":"North Park Ophthalmology, PC","latitude":40.5639441,"longitude":-80.0210378,"address":"5900 Corporate Dr, Ste 150","city":"Pittsburgh","state":"PA","stars":3.0,"review_count":7,"is_open":1},{"business_id":"6YUfUT1IyGCZs9RaIFylFA","name":"Free People","latitude":40.457577,"longitude":-79.916807,"address":"6425 Penn Ave","city":"Pittsburgh","state":"PA","stars":3.5,"review_count":3,"is_open":1},{"business_id":"hn3jQvvLNPB3QkQXEQHSSg","name":"Rite Aid","latitude":40.44174,"longitude":-79.998118,"address":"623 Smithfield St","city":"Pittsburgh","state":"PA","stars":2.5,"review_count":11,"is_open":1},{"business_id":"1Z1SH6kLoeJVwkWY1BXvyQ","name":"Lush Cosmetics","latitude":40.5433537605,"longitude":-80.0076852777,"address":"1000 Ross Park Mall Dr","city":"Pittsburgh","state":"PA","stars":4.5,"review_count":17,"is_open":1},{"business_id":"CTgyDRTOrc1lPAHMrXxFjw","name":"Northway Shoe and Repair","latitude":40.5492584,"longitude":-80.0209521,"address":"Northway Mall, 8000 Mcknight Rd","city":"Pittsburgh","state":"PA","stars":4.5,"review_count":5,"is_open":0},{"business_id":"sAlAxiVvi3RXd4tYO951WQ","name":"Desirable Kitchens & Refacing","latitude":40.4222843,"longitude":-80.0367259,"address":"","city":"Pittsburgh","state":"PA","stars":5.0,"review_count":3,"is_open":1},{"business_id":"dwPYzgE9f2uUsq1zikyA6g","name":"True Runner","latitude":40.4507834,"longitude":-79.9354103,"address":"5407 Walnut St","city":"Pittsburgh","state":"PA","stars":4.0,"review_count":24,"is_open":0},{"business_id":"MDjkBFRwr2Xo5QXERP5Tzg","name":"Wagner Quality Shoes","latitude":40.4711269,"longitude":-79.9603324,"address":"4313 Butler St","city":"Pittsburgh","state":"PA","stars":4.5,"review_count":9,"is_open":1},{"business_id":"pBSIzR0uR2LSs4ZrvIOrMw","name":"Brenckles Greenhouses","latitude":40.492724,"longitude":-79.99462,"address":"3815 Mount Troy Rd","city":"Pittsburgh","state":"PA","stars":4.0,"review_count":8,"is_open":1},{"business_id":"FoWiObWHfywmnGJYfLDQLw","name":"The Exchange","latitude":40.4410304,"longitude":-79.9581304,"address":"3613 Forbes Ave","city":"Pittsburgh","state":"PA","stars":4.0,"review_count":3,"is_open":1},{"business_id":"5m5Xt6N-uzSHBbQvNj26XA","name":"North Hills Lock & Safe","latitude":40.5368375,"longitude":-80.024634,"address":"962 Perry Hwy","city":"Pittsburgh","state":"PA","stars":4.0,"review_count":4,"is_open":1},{"business_id":"eQS4GqUh-D4Si-ERVa5IQw","name":"Crate & Barrel","latitude":40.5445685,"longitude":-80.0087509,"address":"1000 Ross Park Mall Dr","city":"Pittsburgh","state":"PA","stars":4.0,"review_count":6,"is_open":1},{"business_id":"6Qpv7Fjy9OzpTQ_qatWiDw","name":"Plumbers Equipment - North Hills","latitude":40.5102373,"longitude":-79.9920214,"address":"2134 Babcock Blvd","city":"Pittsburgh","state":"PA","stars":2.0,"review_count":3,"is_open":1},{"business_id":"VbBwp1MOOWP3pEGQ4Y824g","name":"DreamMaker Bath & Kitchen","latitude":40.3739695,"longitude":-79.9819266,"address":"3401 Saw Mill Run Blvd","city":"Pittsburgh","state":"PA","stars":1.0,"review_count":3,"is_open":1},{"business_id":"O-kE7vQWPuIcBTJcN7IHVQ","name":"J.Crew","latitude":40.4511966616,"longitude":-79.9341107905,"address":"5433 Walnut St","city":"Pittsburgh","state":"PA","stars":3.0,"review_count":5,"is_open":0},{"business_id":"R_j8H7aLP2xVShc-6iOcPQ","name":"Natural Stitches","latitude":40.4586356,"longitude":-79.9174452,"address":"6401 Penn Ave","city":"Pittsburgh","state":"PA","stars":4.5,"review_count":13,"is_open":0},{"business_id":"YBBybWbMO8G-uUfbS9XPbA","name":"Hens and Chicks","latitude":40.4580184,"longitude":-79.9275787,"address":"5892 Ellsworth Ave","city":"Pittsburgh","state":"PA","stars":5.0,"review_count":7,"is_open":0},{"business_id":"045F-O_4kmb6peoAVfrIXg","name":"Mike Feinberg","latitude":40.4502241,"longitude":-79.9847785,"address":"1736 Penn Ave","city":"Pittsburgh","state":"PA","stars":4.5,"review_count":13,"is_open":0},{"business_id":"c421hsVR6lRU4z8V1DnGoQ","name":"Mustard & Relics","latitude":40.4816248,"longitude":-80.0335933,"address":"3596 Brighton Rd","city":"Pittsburgh","state":"PA","stars":5.0,"review_count":4,"is_open":1},{"business_id":"WwMmr9yzYZ77vv6Uuvfqag","name":"Pop Culture Comics","latitude":40.5178946859,"longitude":-79.9591904112,"address":"1105 Mt Royal Blvd","city":"Pittsburgh","state":"PA","stars":4.5,"review_count":3,"is_open":1},{"business_id":"BX7ONRpKClT8ahXwEn_CJA","name":"The Exchange","latitude":40.5223345089,"longitude":-80.004972,"address":"4776 McKnight Rd","city":"Pittsburgh","state":"PA","stars":2.5,"review_count":12,"is_open":1},{"business_id":"haQkLoAcdUBvLteoY6NnJA","name":"CVS Pharmacy","latitude":40.4407261,"longitude":-80.0010683,"address":"242 Fifth Ave","city":"Pittsburgh","state":"PA","stars":3.5,"review_count":9,"is_open":1},{"business_id":"veWxZ-5DYy36t0qjG9t67g","name":"Schiller's Pharmacy & Cosmetique","latitude":40.4505938,"longitude":-79.9352289,"address":"811 S Aiken Ave","city":"Pittsburgh","state":"PA","stars":5.0,"review_count":16,"is_open":1},{"business_id":"jp4yBlO7Gwda9MomamdTyQ","name":"Ambiance Boutique","latitude":40.43333,"longitude":-79.894049,"address":"1039 S Braddock Ave","city":"Pittsburgh","state":"PA","stars":4.0,"review_count":4,"is_open":0},{"business_id":"XWU1txx1IbeHFiRJgbksqA","name":"Games Unlimited","latitude":40.433235,"longitude":-79.922761,"address":"2115 Murray Ave","city":"Pittsburgh","state":"PA","stars":5.0,"review_count":30,"is_open":1},{"business_id":"pnmyBq0CjKAWZh7OHmrsKQ","name":"Rite Aid","latitude":40.442601,"longitude":-80.003446,"address":"519 Penn Ave","city":"Pittsburgh","state":"PA","stars":2.5,"review_count":3,"is_open":1},{"business_id":"Kot0deqA1WAbZ7YXY5fQ5w","name":"The Home Depot","latitude":40.465204,"longitude":-79.9221284,"address":"400 N Highland Ave","city":"Pittsburgh","state":"PA","stars":2.5,"review_count":49,"is_open":1},{"business_id":"8EJKlOsaYT4VFTALPLMYrg","name":"Batteries Plus Bulbs","latitude":40.449995,"longitude":-80.182748,"address":"402 Home Dr","city":"Pittsburgh","state":"PA","stars":2.5,"review_count":8,"is_open":1},{"business_id":"1GRI4z3TBEN6C5sb62CqnQ","name":"Bike Pittsburgh","latitude":40.4707355,"longitude":-79.9610699,"address":"188 43rd St, Ste 1","city":"Pittsburgh","state":"PA","stars":3.5,"review_count":5,"is_open":1},{"business_id":"NGcT7QCrESx851i-NSsccA","name":"Dollar Tree","latitude":40.454492,"longitude":-80.163023,"address":"1360 Park Manor Blvd","city":"Pittsburgh","state":"PA","stars":4.0,"review_count":9,"is_open":1},{"business_id":"92Xo9ZPTEqIslNKrvRJrbw","name":"Banker Supply","latitude":40.4651961797,"longitude":-79.9430662123,"address":"5025 Penn Ave","city":"Pittsburgh","state":"PA","stars":4.5,"review_count":7,"is_open":0},{"business_id":"KkeeD-xZrHF1PeRrSwBL7A","name":"Flavour House Vapes","latitude":40.5109338,"longitude":-79.9461767,"address":"890 Butler St","city":"Pittsburgh","state":"PA","stars":3.5,"review_count":3,"is_open":0},{"business_id":"CaCW63Y68IUlqZQARC3LdQ","name":"Neighborhood Consignment","latitude":40.4184053,"longitude":-79.8486927,"address":"2141 Ardmore Blvd","city":"Pittsburgh","state":"PA","stars":4.0,"review_count":5,"is_open":0},{"business_id":"atANfuJE3Lou9Y9ClSW1WQ","name":"Wear After Shop","latitude":40.4609914,"longitude":-79.9483345,"address":"4752 Liberty Ave","city":"Pittsburgh","state":"PA","stars":4.5,"review_count":9,"is_open":0},{"business_id":"BAtL1yfd_C54_2nf-C9y0g","name":"The Vitamin Shoppe","latitude":40.5284725213,"longitude":-80.0069159,"address":"4850 Mcknight Rd","city":"Pittsburgh","state":"PA","stars":4.5,"review_count":7,"is_open":1},{"business_id":"juREDTAU4ERhxDT-qDgPTg","name":"WAX Jewelry Design Studio","latitude":40.458441,"longitude":-79.927535,"address":"5901 Ellsworth Ave","city":"Pittsburgh","state":"PA","stars":5.0,"review_count":5,"is_open":1},{"business_id":"yHtT66s76wZgPwkGhpBHmQ","name":"Pottery Barn","latitude":40.5445585,"longitude":-80.0087509,"address":"1000 Ross Park Mall Dr, Ste C03C","city":"Pittsburgh","state":"PA","stars":3.0,"review_count":7,"is_open":1},{"business_id":"6jzWUo0HAT3hNgBH-zHtYg","name":"Target","latitude":40.526686,"longitude":-80.007524,"address":"4801 McKnight Rd, Ste 3","city":"Pittsburgh","state":"PA","stars":3.5,"review_count":20,"is_open":1},{"business_id":"9JFrPxt656fpjLIeBAFg1w","name":"Wilson's Pharmacy","latitude":40.4658764,"longitude":-79.9551835,"address":"4101 Penn Ave","city":"Pittsburgh","state":"PA","stars":4.5,"review_count":4,"is_open":1},{"business_id":"xqTLe5cTwXkDMa9oI2qZhA","name":"Rite Aid","latitude":40.428884,"longitude":-79.978352,"address":"1915-1921 E Carson St","city":"Pittsburgh","state":"PA","stars":3.0,"review_count":6,"is_open":1},{"business_id":"FNirg3pUqTPZhfhtLU8OZw","name":"Crate","latitude":40.3945377224,"longitude":-80.0663845986,"address":"1960 Greentree Rd","city":"Pittsburgh","state":"PA","stars":3.5,"review_count":8,"is_open":1},{"business_id":"u2mvXTA8OjdH4XL1OhZ-hw","name":"Old Navy","latitude":40.5445585,"longitude":-80.0087394,"address":"1000 Ross Park Mall Dr, Ste 6","city":"Pittsburgh","state":"PA","stars":3.5,"review_count":3,"is_open":0},{"business_id":"ZR0BVGhgX-8jUcf7K7Qh6Q","name":"Solevo Wellness","latitude":40.42775,"longitude":-79.927069,"address":"5600 Forward Ave","city":"Pittsburgh","state":"PA","stars":4.0,"review_count":8,"is_open":1},{"business_id":"cUcQibSy_U1R2VDOR7_rLw","name":"Choices","latitude":40.450632,"longitude":-79.9348459,"address":"5416 Walnut St","city":"Pittsburgh","state":"PA","stars":3.5,"review_count":6,"is_open":1},{"business_id":"vA-E7ZXQaR71sqYT3O5x0A","name":"The Cuckoo's Nest Magic Shop","latitude":40.4281392,"longitude":-79.9727698,"address":"2304 E Carson St","city":"Pittsburgh","state":"PA","stars":5.0,"review_count":3,"is_open":0},{"business_id":"eDY9g4_uMX_uMuUzWAFqfg","name":"Today's Tiffany Home Decor And More","latitude":40.3569591,"longitude":-80.0518073,"address":"1500 Washington Rd, Ste 2802","city":"Pittsburgh","state":"PA","stars":1.5,"review_count":3,"is_open":1},{"business_id":"oUrbsHCQ3wvQtAtDgwWyXA","name":"Performance Bicycle","latitude":40.4590674,"longitude":-79.9172588,"address":"6401 Penn Ave","city":"Pittsburgh","state":"PA","stars":4.0,"review_count":23,"is_open":0},{"business_id":"sLkqUj7FAKDWKOR5MvQjEw","name":"Hocus Pocus","latitude":40.4410322,"longitude":-79.9586931,"address":"113 Meyran Ave","city":"Pittsburgh","state":"PA","stars":4.0,"review_count":4,"is_open":1},{"business_id":"0dsrqdZHrhblIoEpAKWe2w","name":"Amish Yard","latitude":40.3748662,"longitude":-79.98286,"address":"3316 Saw Mill Run Blvd","city":"Pittsburgh","state":"PA","stars":5.0,"review_count":3,"is_open":1},{"business_id":"qTZ1FcFpsvbaRa6es_Sa-A","name":"American Laser Skincare","latitude":40.4203452,"longitude":-80.0449645,"address":"969 Greentree Rd, Ste 170","city":"Pittsburgh","state":"PA","stars":2.0,"review_count":4,"is_open":0},{"business_id":"BpAYcm-3IQI6E05LEdW4dw","name":"Allegheny Millwork & Lumber","latitude":40.430775,"longitude":-79.988065,"address":"1001 Muriel St","city":"Pittsburgh","state":"PA","stars":4.0,"review_count":6,"is_open":1},{"business_id":"BDjZ5us1RyBGEQRgUeF7Tg","name":"Sportscards Etc","latitude":40.4511639,"longitude":-80.1310807,"address":"5629-B Steubenville Pike","city":"Pittsburgh","state":"PA","stars":4.0,"review_count":4,"is_open":1},{"business_id":"DUHIgv12tm8tW_CKT9-g6A","name":"Burlington Coat Factory","latitude":40.4417284,"longitude":-79.9979569,"address":"339 6th Ave","city":"Pittsburgh","state":"PA","stars":3.5,"review_count":30,"is_open":1},{"business_id":"ohkd4oHpIrvue5nWBPMSMg","name":"Ikea","latitude":40.452260176,"longitude":-80.1679316231,"address":"2001 Park Manor Blvd","city":"Pittsburgh","state":"PA","stars":3.0,"review_count":172,"is_open":1},{"business_id":"hwx3dXcuINmFkrY1xXPsJg","name":"Artifacts","latitude":40.4428458,"longitude":-80.0315369,"address":"110 S Main St, Ste 2","city":"Pittsburgh","state":"PA","stars":3.5,"review_count":3,"is_open":1},{"business_id":"zjhC4yuRoXPf_CYMq9TxTQ","name":"Carrick Pharmacy","latitude":40.3840047,"longitude":-79.9772094,"address":"2717 Brownsville Rd","city":"Pittsburgh","state":"PA","stars":5.0,"review_count":3,"is_open":1},{"business_id":"28u1EK0fkA2BUKh8u6U6eQ","name":"Gamestop","latitude":40.4406384258,"longitude":-79.9579879827,"address":"3608 Forbes Ave","city":"Pittsburgh","state":"PA","stars":3.5,"review_count":3,"is_open":0},{"business_id":"IEfpthg9F0FVsvjS-7Ty6w","name":"Gramar Granite & Marble","latitude":40.4280448,"longitude":-80.0523171,"address":"1258 Poplar St","city":"Pittsburgh","state":"PA","stars":2.5,"review_count":3,"is_open":0},{"business_id":"1kvNiRkJPgKOx5YoQnNxOA","name":"One Brilliant","latitude":40.489326,"longitude":-79.900587,"address":"12 Brilliant Ave","city":"Pittsburgh","state":"PA","stars":4.0,"review_count":4,"is_open":1},{"business_id":"tx7tdMz7Eo9LgtIHHx058A","name":"Blanc de Blanc Bridal Boutique","latitude":40.3970021,"longitude":-79.9881282,"address":"1806 Bownsville Rd, Fl 2","city":"Pittsburgh","state":"PA","stars":5.0,"review_count":5,"is_open":1},{"business_id":"aGUqC-fzPOheLb44DcwRLw","name":"Wood Street Galleries","latitude":40.4423306,"longitude":-79.9995793,"address":"601 Wood St","city":"Pittsburgh","state":"PA","stars":4.0,"review_count":16,"is_open":1},{"business_id":"tslec62Ei_R1W3Cq9EQAww","name":"Valotta's Tuxedo","latitude":40.3665776,"longitude":-79.9814916,"address":"4050 Brownsville Rd","city":"Pittsburgh","state":"PA","stars":3.0,"review_count":3,"is_open":1},{"business_id":"3f1A3XZLBTFONGkylcaYcw","name":"Surmesur","latitude":40.4412393,"longitude":-80.0019936,"address":"202 Fifth Ave","city":"Pittsburgh","state":"PA","stars":5.0,"review_count":8,"is_open":1},{"business_id":"cm69oeX7xQ-fT2L3ixQ42w","name":"Williams-Sonoma","latitude":40.5445585,"longitude":-80.0087509,"address":"1000 Ross Park Mall Dr, Ste D7","city":"Pittsburgh","state":"PA","stars":5.0,"review_count":3,"is_open":1},{"business_id":"QmTb7f_oeM7o6DLIQ2I2Jg","name":"Eide's Entertainment","latitude":40.4453625,"longitude":-79.9932627,"address":"1121 Penn Ave","city":"Pittsburgh","state":"PA","stars":3.5,"review_count":48,"is_open":1},{"business_id":"NQHDN1JzG-heuyrSkT9R9w","name":"Dollar Tree","latitude":40.4633127,"longitude":-79.8272114,"address":"12 Federal Dr","city":"Pittsburgh","state":"PA","stars":3.5,"review_count":7,"is_open":1},{"business_id":"9oByIzI1hv89Pk-Za8-EMQ","name":"20\/20 Vision Care","latitude":40.4229632,"longitude":-79.9285232,"address":"4203 Murray Ave","city":"Pittsburgh","state":"PA","stars":4.5,"review_count":23,"is_open":1},{"business_id":"d31o_frcQIn2opAqWpkopQ","name":"Zeds","latitude":40.428805,"longitude":-79.977785,"address":"1931 E Carson St","city":"Pittsburgh","state":"PA","stars":5.0,"review_count":6,"is_open":1},{"business_id":"e5VZzsKXpbFmqEr0EE9JIQ","name":"Goodnight Baby & Kids","latitude":40.5130355,"longitude":-79.9996425,"address":"2257 Babcock Blvd","city":"Pittsburgh","state":"PA","stars":2.0,"review_count":14,"is_open":0},{"business_id":"LMJW_BncFhCAu9GcZ0JIUg","name":"Paint Monkey","latitude":40.4728608,"longitude":-79.9638889,"address":"100 43rd St, Studio  118","city":"Pittsburgh","state":"PA","stars":5.0,"review_count":38,"is_open":1},{"business_id":"jl2ulYBIVZn77arpyb7Lkg","name":"Brookstone","latitude":40.495576,"longitude":-80.2556037,"address":"1000 Airport Blvd","city":"Pittsburgh","state":"PA","stars":2.0,"review_count":4,"is_open":1},{"business_id":"_1ReoJsaAHpCaSvqqj8aPQ","name":"Armory Print Works","latitude":40.455884,"longitude":-80.0009268,"address":"509 Tripoli St","city":"Pittsburgh","state":"PA","stars":5.0,"review_count":3,"is_open":1},{"business_id":"AXNfW322zc9r7H-F4Ow_QA","name":"Rite Aid","latitude":40.453696,"longitude":-79.998353,"address":"623-625 E Ohio St","city":"Pittsburgh","state":"PA","stars":3.5,"review_count":3,"is_open":1},{"business_id":"v_d6EgHYgDkbQNWGGOpfnA","name":"East End Community Thrift","latitude":40.461724,"longitude":-79.942316,"address":"5123 Penn Ave","city":"Pittsburgh","state":"PA","stars":4.0,"review_count":8,"is_open":1},{"business_id":"16koSe1h5_DmyQpJpaR9VQ","name":"Kevin's Computer & Photo","latitude":40.4261201095,"longitude":-79.9404427558,"address":"555 Greenfield Ave","city":"Pittsburgh","state":"PA","stars":5.0,"review_count":9,"is_open":1},{"business_id":"w7yLvolYg3SmDadIRERixw","name":"My Beauty Recess","latitude":40.511389,"longitude":-80.099232,"address":"8238 Ohio River Blvd","city":"Pittsburgh","state":"PA","stars":5.0,"review_count":11,"is_open":1},{"business_id":"UibGNVWNz-r8sDDz8E-lHg","name":"Kay Jewelers","latitude":40.427845,"longitude":-79.9653354,"address":"447 Cinema Dr","city":"Pittsburgh","state":"PA","stars":3.5,"review_count":3,"is_open":0},{"business_id":"xWuxYPG22YB4JYBfpUBQhg","name":"Phantom of the Attic","latitude":40.4269308,"longitude":-80.0548448,"address":"2351 Noblestown Rd","city":"Pittsburgh","state":"PA","stars":4.0,"review_count":6,"is_open":1},{"business_id":"fpoohm-3kIQ-U-ER7OqKfQ","name":"South Side Carpet Cleaning","latitude":40.383145,"longitude":-80.019216,"address":"545 McNeilly Rd","city":"Pittsburgh","state":"PA","stars":3.5,"review_count":4,"is_open":1},{"business_id":"D0QlxiC0l2oPpnRmhCJuIA","name":"Giant Eagle","latitude":40.4622839,"longitude":-79.8652086,"address":"9001 Frankstown Rd","city":"Pittsburgh","state":"PA","stars":2.0,"review_count":3,"is_open":1},{"business_id":"lPh04gQTsF77fQnCNSyfHw","name":"uBreakiFix","latitude":40.461581,"longitude":-79.949413,"address":"4718 Liberty Ave","city":"Pittsburgh","state":"PA","stars":4.0,"review_count":89,"is_open":1},{"business_id":"zZuDZscQgFS8cgjK76t7WQ","name":"Mahla & Co. Antiques","latitude":40.450212,"longitude":-79.986484,"address":"17th & Smallman St","city":"Pittsburgh","state":"PA","stars":4.5,"review_count":9,"is_open":1},{"business_id":"39kvczzSB18xYCHSQ1ZdzQ","name":"Framework","latitude":40.4379286,"longitude":-79.9202857,"address":"5868 Forbes Ave","city":"Pittsburgh","state":"PA","stars":5.0,"review_count":4,"is_open":0},{"business_id":"Gabxs-TaEKQMDvd-7Nm4Jw","name":"Hong Kong Custom Tailors Montaj","latitude":40.428689,"longitude":-79.8113226,"address":"201 Penn Center Blvd","city":"Pittsburgh","state":"PA","stars":2.0,"review_count":5,"is_open":1},{"business_id":"TRa1EW86g8Hq6CUIiaz_Ew","name":"Brighton Music Center","latitude":40.5099181,"longitude":-79.9912435,"address":"2110 Babcock Blvd","city":"Pittsburgh","state":"PA","stars":3.5,"review_count":3,"is_open":1},{"business_id":"_sR6PBPk5k0tam8kCSGBkQ","name":"Allison McGeary Events","latitude":40.4661558,"longitude":-79.9651219,"address":"3625 Butler St","city":"Pittsburgh","state":"PA","stars":3.5,"review_count":5,"is_open":1},{"business_id":"-7bvsSGKnY6O-JmSWc5V6g","name":"Nine Stories","latitude":40.4829304602,"longitude":-79.9509279054,"address":"5400 Butler St","city":"Pittsburgh","state":"PA","stars":4.5,"review_count":12,"is_open":0},{"business_id":"ke0XFzg0P-_b3zXkYRj43w","name":"Cammusos's Salon Spa Wigs","latitude":40.461653,"longitude":-79.705095,"address":"2350 Golden Mile Hwy","city":"Pittsburgh","state":"PA","stars":5.0,"review_count":3,"is_open":1},{"business_id":"Y6HWj-x2TW2Cxlbw_ZzuxQ","name":"GNC","latitude":40.4590674,"longitude":-79.9172588,"address":"6401 Penn Ave","city":"Pittsburgh","state":"PA","stars":2.0,"review_count":3,"is_open":1},{"business_id":"Cvzt440DVh7EHbLT69wbvw","name":"Fleet Feet","latitude":40.3495872,"longitude":-80.0528363,"address":"1751 N Highland Rd","city":"Pittsburgh","state":"PA","stars":5.0,"review_count":29,"is_open":1},{"business_id":"eXKvq91jz2JgKHvGUR4uig","name":"Floor Designs Unlimited","latitude":40.369406,"longitude":-80.012021,"address":"3330 Library Rd","city":"Pittsburgh","state":"PA","stars":2.0,"review_count":3,"is_open":1},{"business_id":"UJMgFxE7__dljvfpjlQyrw","name":"DSLR Workshops by Okello Dunkley","latitude":40.4408872,"longitude":-79.9942765,"address":"1 Bigelow Sq","city":"Pittsburgh","state":"PA","stars":4.5,"review_count":3,"is_open":1},{"business_id":"MxaZTse9M5oEGUEsT2CdaQ","name":"Best Feeds Garden Centers","latitude":40.50783,"longitude":-79.9908199,"address":"2105 Babcock Blvd","city":"Pittsburgh","state":"PA","stars":4.0,"review_count":15,"is_open":1},{"business_id":"yAQhluWOU-_f2IfkS24a_Q","name":"AntiquiTea Tearoom & Gift Shop","latitude":40.5200347,"longitude":-80.0325538,"address":"454 Perry Hwy","city":"Pittsburgh","state":"PA","stars":3.5,"review_count":3,"is_open":0},{"business_id":"uk02t8IVKw4LXdXKQVXq4Q","name":"Old Allegheny Shoppe","latitude":40.3525616,"longitude":-79.9774498,"address":"4755 Clairton Blvd","city":"Pittsburgh","state":"PA","stars":4.0,"review_count":4,"is_open":1},{"business_id":"kOgOqwII2AOVN1WPb94-jQ","name":"Amazing Books & Records","latitude":40.433956,"longitude":-79.9231398,"address":"2030 Murray Ave","city":"Pittsburgh","state":"PA","stars":4.5,"review_count":14,"is_open":1},{"business_id":"S2pNfjzy4J83O3j8bqHhJQ","name":"Herman J. Heyl Florist & Grnhse","latitude":40.339461,"longitude":-79.964743,"address":"36 Old Clairton Road","city":"Pittsburgh","state":"PA","stars":2.5,"review_count":3,"is_open":1},{"business_id":"RccF4eZTCsQnYFX2cMpnIw","name":"Yankee Candle","latitude":40.342603,"longitude":-80.056473,"address":"301 S Hills Vlg","city":"Pittsburgh","state":"PA","stars":3.0,"review_count":3,"is_open":1},{"business_id":"jjnlMDpGo2I2SfoKDTwkiQ","name":"Phantom of the Attic Games","latitude":40.445033,"longitude":-79.94907,"address":"406 S Craig St","city":"Pittsburgh","state":"PA","stars":4.0,"review_count":4,"is_open":1},{"business_id":"_TcHM1-B7ub4qsY8jiG-_A","name":"Sestili Nursery","latitude":40.4318157,"longitude":-79.9520146,"address":"3721 Swinburne St","city":"Pittsburgh","state":"PA","stars":4.0,"review_count":5,"is_open":1},{"business_id":"wqghLqYOmlJHa_EEV45z3g","name":"David's Shoes","latitude":40.461427,"longitude":-79.9239487,"address":"6017 Penn Ave","city":"Pittsburgh","state":"PA","stars":4.5,"review_count":3,"is_open":0},{"business_id":"j19cmGMGPjEyN0NA3jqSsQ","name":"Weldins","latitude":40.4424701,"longitude":-79.995298,"address":"707 Grant St","city":"Pittsburgh","state":"PA","stars":2.5,"review_count":10,"is_open":1},{"business_id":"B5lW4nNQmPlz0ne0Qws-sw","name":"Five Below","latitude":40.4891331624,"longitude":-79.8922549188,"address":"950 Freeport Rd","city":"Pittsburgh","state":"PA","stars":4.0,"review_count":4,"is_open":1},{"business_id":"48Jpocp6-e8QOWV1d_S_tQ","name":"Alfred Angelo Bridal","latitude":40.5350724,"longitude":-80.0106567,"address":"7204 McKnight Rd","city":"Pittsburgh","state":"PA","stars":4.0,"review_count":36,"is_open":0},{"business_id":"iCR-C-YTEZ53mr2FT1aSVw","name":"Rochella's All Season Unique Clothing","latitude":40.4581196,"longitude":-79.9253449,"address":"222 S Highland Ave","city":"Pittsburgh","state":"PA","stars":5.0,"review_count":3,"is_open":0},{"business_id":"KqKUIyVman7bUUinLg5-Kw","name":"Toy Land","latitude":40.5445685,"longitude":-80.0087509,"address":"1000 Ross Park Mall Dr","city":"Pittsburgh","state":"PA","stars":1.5,"review_count":3,"is_open":1},{"business_id":"DpPekIsTAxQzaBd2J9uIig","name":"Yankee Candle","latitude":40.4547758,"longitude":-80.1571284,"address":"1730 Robinson Center Dr","city":"Pittsburgh","state":"PA","stars":4.5,"review_count":3,"is_open":1},{"business_id":"4TjwgB-VaBbp1KC2TBoh-g","name":"Vineyard Vines","latitude":40.540989,"longitude":-80.008518,"address":"1000 Ross Park Mall Dr","city":"Pittsburgh","state":"PA","stars":2.5,"review_count":5,"is_open":1},{"business_id":"FyXDeBswn5cNmK355tTRrg","name":"Decade","latitude":40.4289708,"longitude":-79.9837836,"address":"1407 E Carson St","city":"Pittsburgh","state":"PA","stars":4.0,"review_count":10,"is_open":0},{"business_id":"iem-ulfY2cmA8ymNtbQGgA","name":"Dick's Sporting Goods","latitude":40.5511518,"longitude":-80.0212132,"address":"8000 McKnight Rd","city":"Pittsburgh","state":"PA","stars":2.5,"review_count":5,"is_open":0},{"business_id":"kHsWi-LVUuchUtltY8qk8A","name":"Green Cheeks Diaper Service","latitude":40.4295784581,"longitude":-79.9233698845,"address":"740 Taylor Ave","city":"Pittsburgh","state":"PA","stars":5.0,"review_count":8,"is_open":1},{"business_id":"KFJ5bpfde-JDGznX51V3cA","name":"Peak Ski and Snowboard","latitude":40.4608293,"longitude":-79.759004,"address":"640 Center Rd","city":"Pittsburgh","state":"PA","stars":3.5,"review_count":6,"is_open":1},{"business_id":"U8A5-3sXjpzW6ipfBETYng","name":"New Continental Smoke Shop","latitude":40.4319879,"longitude":-79.9233424,"address":"2210 Murray Ave","city":"Pittsburgh","state":"PA","stars":4.5,"review_count":4,"is_open":0},{"business_id":"f7htkD74WJjCedtABMTHzw","name":"Banana Republic","latitude":40.4514965,"longitude":-79.93228,"address":"5534 Walnut St","city":"Pittsburgh","state":"PA","stars":4.0,"review_count":15,"is_open":1},{"business_id":"92u71CNSwjIJpI4NJX9dFA","name":"Venture Outdoors","latitude":40.4304325,"longitude":-79.9967832,"address":"33 Terminal Way, Ste 537","city":"Pittsburgh","state":"PA","stars":4.0,"review_count":12,"is_open":1},{"business_id":"QZx8vWP9FiojherUMB9VuA","name":"Trader Joe's","latitude":40.3513544,"longitude":-80.0517205,"address":"1630 Washington Rd","city":"Pittsburgh","state":"PA","stars":4.5,"review_count":56,"is_open":1},{"business_id":"_GarnSDjP17PMu_z2-GGCA","name":"Vape Inn On Carson","latitude":40.4280865,"longitude":-79.971439,"address":"2336 E Carson St","city":"Pittsburgh","state":"PA","stars":4.0,"review_count":6,"is_open":0},{"business_id":"oK0LaUfxuMEVegkNy3vL1Q","name":"Cell Phones and More","latitude":40.3954923,"longitude":-80.0227623,"address":"532 Brookline Blvd","city":"Pittsburgh","state":"PA","stars":5.0,"review_count":3,"is_open":1},{"business_id":"q1siFv9ZIEStJ9palHNICA","name":"Norman Childs Eyewear by Eyetique","latitude":40.4507835,"longitude":-79.9347517,"address":"5508-5510 Walnut St","city":"Pittsburgh","state":"PA","stars":3.5,"review_count":3,"is_open":1},{"business_id":"DUFHhr3YROpDIK70a93mlQ","name":"The Window and Kitchen Specialists","latitude":40.3406578,"longitude":-79.9645708,"address":"2B Old Clairton Rd","city":"Pittsburgh","state":"PA","stars":3.0,"review_count":4,"is_open":1},{"business_id":"-qNJadaRVEkzKsVEDcqygA","name":"Verizon Authorized Retailer - GoWireless","latitude":40.426695,"longitude":-79.9659821391,"address":"2757 E Carson St","city":"Pittsburgh","state":"PA","stars":2.5,"review_count":5,"is_open":0},{"business_id":"01j7iKbLFUkmSpkm0nJlXg","name":"Well Oiled","latitude":40.3954627,"longitude":-80.0344759,"address":"1414 Potomac Ave","city":"Pittsburgh","state":"PA","stars":5.0,"review_count":3,"is_open":1},{"business_id":"fQ7CHiy8JxOP16Heu8TI0g","name":"The Computer Stop","latitude":40.3943911,"longitude":-80.0349574,"address":"2933 W Liberty Ave","city":"Pittsburgh","state":"PA","stars":5.0,"review_count":5,"is_open":1},{"business_id":"Jgp0SIsuHoDJljLeITYkNg","name":"Tela Ropa","latitude":40.4416401,"longitude":-79.9583489,"address":"116 Atwood St","city":"Pittsburgh","state":"PA","stars":4.5,"review_count":3,"is_open":0},{"business_id":"v1GHndXuUkDdV-gNCSldQQ","name":"The Exchange","latitude":40.4557353,"longitude":-80.1619204,"address":"6535 Robinson Ctr Dr","city":"Pittsburgh","state":"PA","stars":3.0,"review_count":8,"is_open":1},{"business_id":"SCxd99NRccEiWkYLiJi-6A","name":"Today's Home","latitude":40.5440974,"longitude":-80.0153914,"address":"7601 McKnight Rd","city":"Pittsburgh","state":"PA","stars":2.0,"review_count":6,"is_open":0},{"business_id":"OH0LxbsALqY9vk5dMKCZ3g","name":"Puccini Hair Design","latitude":40.4402973,"longitude":-79.9564375,"address":"237 Atwood St","city":"Pittsburgh","state":"PA","stars":4.0,"review_count":75,"is_open":1},{"business_id":"2jtiYFURN-6bkuUgcCGcJw","name":"Brilliant Nuevo Diamonds","latitude":40.4427717,"longitude":-79.9992898,"address":"717 Liberty Ave, Ste 306","city":"Pittsburgh","state":"PA","stars":4.5,"review_count":10,"is_open":1},{"business_id":"P70-TaPu7oYkIg0wPak4xg","name":"Carlisle's Bridal of Pittsburgh","latitude":40.537894,"longitude":-80.013346,"address":"7219 Mcknight Rd","city":"Pittsburgh","state":"PA","stars":3.5,"review_count":7,"is_open":1},{"business_id":"cI8WrDPaI-q5RQs3yb2SmQ","name":"Sears Outlet","latitude":40.481316,"longitude":-79.95809,"address":"27 51st St","city":"Pittsburgh","state":"PA","stars":2.5,"review_count":22,"is_open":1},{"business_id":"eV43FwoToNhVOgd8g-W8nQ","name":"Bath & Body Works","latitude":40.343184,"longitude":-80.056454,"address":"301 South Hills Village","city":"Pittsburgh","state":"PA","stars":3.0,"review_count":4,"is_open":1},{"business_id":"-yuNBcDIoOzCcS4GWU_o1A","name":"The Gilded Girl","latitude":40.4784388,"longitude":-79.9553131,"address":"5104 Butler St","city":"Pittsburgh","state":"PA","stars":4.5,"review_count":13,"is_open":1},{"business_id":"nOkZYXKrwHRc9a0puw1Amw","name":"Eyes On Regent Square","latitude":40.4317317,"longitude":-79.892967,"address":"1201 S Braddock Ave","city":"Pittsburgh","state":"PA","stars":3.0,"review_count":13,"is_open":1},{"business_id":"q9FifZsp6jno13xnby1XnA","name":"Clothes Minded","latitude":40.461206,"longitude":-79.948711,"address":"4740 Liberty Ave","city":"Pittsburgh","state":"PA","stars":4.5,"review_count":45,"is_open":1},{"business_id":"CMhtlIP3-XbrWUzcA3JKpQ","name":"Consignments On Centre","latitude":40.4567042,"longitude":-79.9363222,"address":"5503 Centre Ave","city":"Pittsburgh","state":"PA","stars":2.0,"review_count":9,"is_open":0},{"business_id":"37ZUkggFxGPq9CHEIpKFbw","name":"L.L.Bean","latitude":40.5426190161,"longitude":-80.0091354124,"address":"1000 Ross Park Mall Dr","city":"Pittsburgh","state":"PA","stars":4.0,"review_count":16,"is_open":1},{"business_id":"WStRSarYetZ_xe27Ihlo9Q","name":"Victoria's Secret Stores","latitude":40.4513552,"longitude":-79.9335816,"address":"5505 Walnut St","city":"Pittsburgh","state":"PA","stars":3.0,"review_count":3,"is_open":0},{"business_id":"cuDQMLZ5k7buA9qzWHbWXw","name":"Sur La Table","latitude":40.4279908,"longitude":-79.9662964,"address":"2681 Sydney St","city":"Pittsburgh","state":"PA","stars":4.0,"review_count":23,"is_open":1},{"business_id":"2XZmjAOs01Y92pS_ZHz0dw","name":"Eye Care For You by Dr. Roberta Horwitz OD","latitude":40.4498747,"longitude":-79.9145325,"address":"416 Hastings St","city":"Pittsburgh","state":"PA","stars":5.0,"review_count":3,"is_open":1},{"business_id":"-Gx40ZExU4mdshBneU3yJw","name":"DSW Designer Shoe Warehouse","latitude":40.335761,"longitude":-79.945224,"address":"451 Clairton Blvd","city":"Pittsburgh","state":"PA","stars":4.5,"review_count":3,"is_open":1},{"business_id":"vXVXhaZVdaNXAdpj5HxWSQ","name":"Value City Furniture","latitude":40.335372,"longitude":-79.944857,"address":"451 Clairton Blvd","city":"Pittsburgh","state":"PA","stars":2.0,"review_count":17,"is_open":1},{"business_id":"6eUm6V7WdJO7G_zFVh3eqA","name":"Biketek Pittsburgh","latitude":40.4378503,"longitude":-79.9212649,"address":"5842 Forbes Ave","city":"Pittsburgh","state":"PA","stars":4.5,"review_count":23,"is_open":1},{"business_id":"ldBC1zTkvZjaktAiN0RA2g","name":"Walgreens","latitude":40.459334,"longitude":-79.926763,"address":"5956 Penn Cir S","city":"Pittsburgh","state":"PA","stars":2.0,"review_count":7,"is_open":1},{"business_id":"lC_7pqmevOZjioHTB0jlxA","name":"Adzema Good Neighbor Pharmacy","latitude":40.5545633,"longitude":-80.0389249,"address":"8105 Perry Hwy, Ste 2","city":"Pittsburgh","state":"PA","stars":4.5,"review_count":4,"is_open":1},{"business_id":"ieGHj7l5ijyyo3whXlgPnw","name":"Champs","latitude":40.544288,"longitude":-80.006876,"address":"1000 Ross Park Mall Dr, Space H04B","city":"Pittsburgh","state":"PA","stars":4.5,"review_count":3,"is_open":1},{"business_id":"8tSROLkykO-hCbGfHsAqCg","name":"Villa","latitude":40.440435,"longitude":-80.0008899,"address":"435 Wood St, Ste 2","city":"Pittsburgh","state":"PA","stars":3.5,"review_count":3,"is_open":1},{"business_id":"5nuQ-265XVUtDHg3I4dJmQ","name":"Le Mix","latitude":40.4323168358,"longitude":-79.8935242785,"address":"1115 1\/2 S Braddock Ave","city":"Pittsburgh","state":"PA","stars":4.5,"review_count":6,"is_open":1},{"business_id":"PQjilhovaC_IwvXAqIMnuQ","name":"Eyeglass World","latitude":40.542562,"longitude":-80.012997,"address":"7498 Mcknight Rd","city":"Pittsburgh","state":"PA","stars":3.5,"review_count":12,"is_open":1},{"business_id":"CYlY19ieOwuhTw1-zlWQ-Q","name":"Greentree Florist & Boutique","latitude":40.4318156,"longitude":-80.0393531,"address":"600 Greentree Rd","city":"Pittsburgh","state":"PA","stars":3.5,"review_count":3,"is_open":0},{"business_id":"5A6f5ZIO1L1vA3Ge4AkNQw","name":"Eyetique","latitude":40.613594,"longitude":-80.054608,"address":"10644 Perry Highway","city":"Pittsburgh","state":"PA","stars":3.5,"review_count":3,"is_open":1},{"business_id":"qsQMRO2HH_CydtJXem_3Kw","name":"Vestis","latitude":40.4720186,"longitude":-79.9597034,"address":"4415 Butler St","city":"Pittsburgh","state":"PA","stars":5.0,"review_count":4,"is_open":1},{"business_id":"5q6jyfaRrYC01vPKMpCIqg","name":"Werner Jewelers","latitude":40.550592,"longitude":-80.036459,"address":"1130 Perry Hwy","city":"Pittsburgh","state":"PA","stars":5.0,"review_count":7,"is_open":1},{"business_id":"fZf_sSGkykw3N4mMKgDCwg","name":"Patagonia Pittsburgh","latitude":40.4514803,"longitude":-79.9333157,"address":"5509 Walnut St","city":"Pittsburgh","state":"PA","stars":4.0,"review_count":7,"is_open":1},{"business_id":"b69wx6RTTuPaH2mCYnjaLQ","name":"Bedalia's Beads","latitude":40.535036,"longitude":-80.0652521,"address":"227 Mt Nebo Pointe Dr","city":"Pittsburgh","state":"PA","stars":1.0,"review_count":4,"is_open":1},{"business_id":"MDiaUrGc2hoaqi-YDBWYUA","name":"Athleta","latitude":40.4507182,"longitude":-79.9342365,"address":"5430 Walnut St","city":"Pittsburgh","state":"PA","stars":4.0,"review_count":7,"is_open":1},{"business_id":"pszdjfTLVr-fKOjl9zh8bw","name":"The Skin Center Medical Spa","latitude":40.4507282,"longitude":-79.9357367,"address":"806 S Aiken Ave","city":"Pittsburgh","state":"PA","stars":4.5,"review_count":22,"is_open":1},{"business_id":"cvizjloWfezWP2X1NhLNXQ","name":"Men's Wearhouse","latitude":40.44817,"longitude":-80.18004,"address":"217 Summit Park Dr","city":"Pittsburgh","state":"PA","stars":4.0,"review_count":5,"is_open":1},{"business_id":"jP07A_fgj-Q7UVYAG0SqGA","name":"Avalon Exchange","latitude":40.437835,"longitude":-79.920627,"address":"5858 Forbes Ave","city":"Pittsburgh","state":"PA","stars":3.0,"review_count":74,"is_open":1},{"business_id":"f_dbdkcUedhjsLPgaxyEqA","name":"Roth Computer Register","latitude":40.399963,"longitude":-80.0005841,"address":"1600 Saw Mill Run Blvd","city":"Pittsburgh","state":"PA","stars":3.0,"review_count":4,"is_open":0},{"business_id":"fXhChaw2jPpq2QItLSfVCg","name":"Fern Hollow Bicycles","latitude":40.4439619,"longitude":-79.8920629,"address":"307 S Trenton Ave","city":"Pittsburgh","state":"PA","stars":4.5,"review_count":11,"is_open":1},{"business_id":"NepC5a0mrRAAMkcplX7y4Q","name":"Casey Insulation","latitude":40.545118,"longitude":-80.068441,"address":"2032 Karen Dr","city":"Pittsburgh","state":"PA","stars":5.0,"review_count":5,"is_open":1},{"business_id":"RCAcSTW3wI517ygnYjIjvw","name":"Costume World","latitude":40.4501061,"longitude":-79.9867628,"address":"1690 Smallman St","city":"Pittsburgh","state":"PA","stars":3.0,"review_count":12,"is_open":0},{"business_id":"CzA6ThquEWOXgVjkYeY1JA","name":"Kathmandu Artifacts","latitude":40.462452,"longitude":-79.949909,"address":"4625 Liberty Ave","city":"Pittsburgh","state":"PA","stars":5.0,"review_count":5,"is_open":1},{"business_id":"xk6gfZmnv6BNz3maown1kw","name":"William Penn Jewelers & Engravers","latitude":40.4362887,"longitude":-79.9226996,"address":"1837 Murray Ave","city":"Pittsburgh","state":"PA","stars":2.5,"review_count":12,"is_open":1},{"business_id":"FlYncPAj4Vddy6wYfzeJVA","name":"Homage","latitude":40.4610895,"longitude":-79.9244225,"address":"6010 Penn Ave","city":"Pittsburgh","state":"PA","stars":5.0,"review_count":7,"is_open":1},{"business_id":"Q2bZxihyeafI8w_hRNNM9A","name":"Dunham's Sports","latitude":40.55504,"longitude":-80.0191814,"address":"8070 McKnight Rd","city":"Pittsburgh","state":"PA","stars":4.5,"review_count":3,"is_open":1},{"business_id":"5VtT9Pf7zOBP2OD5xaKLYw","name":"Station Square","latitude":40.4334502,"longitude":-80.0038971,"address":"100 W Station Square Dr","city":"Pittsburgh","state":"PA","stars":3.0,"review_count":78,"is_open":1},{"business_id":"zA-5qI5HVh-_CaY886SrLA","name":"Assemble","latitude":40.4653154,"longitude":-79.9454768,"address":"4824 Penn Ave","city":"Pittsburgh","state":"PA","stars":5.0,"review_count":3,"is_open":1},{"business_id":"KsTsrgto44J3F4vIR0HEAw","name":"Ten Thousand Villages","latitude":40.4378519,"longitude":-79.922053,"address":"5820 Forbes Ave","city":"Pittsburgh","state":"PA","stars":5.0,"review_count":12,"is_open":1},{"business_id":"ij9rCdpxRcmudG57lGFFvg","name":"JOANN Fabrics and Crafts","latitude":40.538602,"longitude":-80.013463,"address":"7375 McKnight Rd","city":"Pittsburgh","state":"PA","stars":3.5,"review_count":9,"is_open":1},{"business_id":"Q-HphDiGP561Iw2AzsPB5A","name":"Ross Park Mall","latitude":40.5439917,"longitude":-80.0074183,"address":"1000 Ross Park Mall Dr","city":"Pittsburgh","state":"PA","stars":4.0,"review_count":115,"is_open":1},{"business_id":"0dDtttp35YQ7X2_MP3LblQ","name":"Hair Enhancements of Pittsburgh","latitude":40.394919,"longitude":-80.034009,"address":"2891 W Liberty Ave","city":"Pittsburgh","state":"PA","stars":4.5,"review_count":3,"is_open":1},{"business_id":"gZ1yFqQ4yPXVF69J1b5biA","name":"Burlington Coat Factory Warehouse","latitude":40.5251812,"longitude":-80.007121,"address":"4801 McKnight Rd","city":"Pittsburgh","state":"PA","stars":3.0,"review_count":4,"is_open":1},{"business_id":"8tVCQvYDaHElmtr9bpQroQ","name":"Body Shop Tattoo & Apparel","latitude":40.4722799,"longitude":-79.9590026,"address":"4504 Butler St","city":"Pittsburgh","state":"PA","stars":5.0,"review_count":3,"is_open":0},{"business_id":"qRzXgxmSugdqmPMGYm8QTA","name":"Bloomfield Drug Store","latitude":40.4618124,"longitude":-79.9489697,"address":"4727 Liberty Ave","city":"Pittsburgh","state":"PA","stars":4.0,"review_count":6,"is_open":1},{"business_id":"MGIgSvpT89CnKZF8n5TROg","name":"Costco","latitude":40.4588553,"longitude":-80.1655986,"address":"202 Costco Dr","city":"Pittsburgh","state":"PA","stars":4.0,"review_count":21,"is_open":1},{"business_id":"HMja0LgKco-PcSAdWhyRPA","name":"The Fireplace and Patioplace","latitude":40.394803,"longitude":-80.046847,"address":"1651 McFarland Rd","city":"Pittsburgh","state":"PA","stars":3.0,"review_count":5,"is_open":1},{"business_id":"zteZLrmv5yPhsonXoI5hQg","name":"JOANN Fabrics and Crafts","latitude":40.3338214,"longitude":-79.9445255,"address":"513 Clairton Blvd","city":"Pittsburgh","state":"PA","stars":3.5,"review_count":3,"is_open":1},{"business_id":"fnS6ntPRsyXIlVex9I5BFg","name":"CW Price","latitude":40.4243499,"longitude":-79.8876968,"address":"1763 S Braddock Ave","city":"Pittsburgh","state":"PA","stars":3.5,"review_count":3,"is_open":0},{"business_id":"l7e71T_WozJ6r8VrY7M94w","name":"South Hills Brewing Supply","latitude":40.4298811,"longitude":-80.0538853,"address":"2212 Noblestown Rd, Ste 6","city":"Pittsburgh","state":"PA","stars":4.5,"review_count":6,"is_open":1},{"business_id":"mtHyTGs45610CPKCETQDEw","name":"ToonSeum","latitude":40.443581,"longitude":-79.9965209,"address":"945 Liberty Ave","city":"Pittsburgh","state":"PA","stars":4.0,"review_count":24,"is_open":0},{"business_id":"UzbBrP-NJZ4bM1jWpGaNoQ","name":"The Dancer's Pointe","latitude":40.4573533,"longitude":-79.9751884,"address":"2821 Penn Ave","city":"Pittsburgh","state":"PA","stars":4.5,"review_count":6,"is_open":1},{"business_id":"oz8eHU_NLu9Q9D3lRjuI3g","name":"Ethan Allen","latitude":40.350296,"longitude":-80.0518452,"address":"1680 Washington Rd","city":"Pittsburgh","state":"PA","stars":2.5,"review_count":4,"is_open":1},{"business_id":"lAN5WEQn5SwKEmUIqddysg","name":"Trader Joe's","latitude":40.5703531,"longitude":-80.022255,"address":"9020 Covenant Ave","city":"Pittsburgh","state":"PA","stars":4.5,"review_count":58,"is_open":1},{"business_id":"vEqY7PmdhlqEblR8gzPw4g","name":"Modernformations Gallery","latitude":40.4653514,"longitude":-79.944454,"address":"4919 Penn Ave","city":"Pittsburgh","state":"PA","stars":5.0,"review_count":3,"is_open":0},{"business_id":"sg4YoTVJZKELd3WBwUgG1w","name":"Room Concepts","latitude":40.3584194,"longitude":-79.9811239,"address":"4465 Clairton Blvd","city":"Pittsburgh","state":"PA","stars":5.0,"review_count":5,"is_open":1},{"business_id":"P6HDtlj1GSu9UG2Aal2PPg","name":"Tightspot Dancewear Center","latitude":40.386165,"longitude":-79.9798403,"address":"2524 Brownsville Rd","city":"Pittsburgh","state":"PA","stars":3.5,"review_count":5,"is_open":1},{"business_id":"wVyAZ5ATW8UvsTaJFsjCfw","name":"Drum World","latitude":40.3652872,"longitude":-80.0245716,"address":"1020 Castle Shannon Blvd","city":"Pittsburgh","state":"PA","stars":2.0,"review_count":3,"is_open":0},{"business_id":"5PhR-nHi5qikEXqGKQ2g1g","name":"Rite Aid","latitude":40.4409662874,"longitude":-80.0038482325,"address":"100 Forbes Ave, Ste 100","city":"Pittsburgh","state":"PA","stars":5.0,"review_count":4,"is_open":1},{"business_id":"xtN3UOz1xFu3usxWeXTvhQ","name":"The Block Northway","latitude":40.5516087,"longitude":-80.0209421,"address":"8013 McKnight Rd","city":"Pittsburgh","state":"PA","stars":3.5,"review_count":11,"is_open":1},{"business_id":"s97Lrm9Qr2JdzRbHwMVFew","name":"Fox Chapel Ski & Board","latitude":40.4944606,"longitude":-79.8591969,"address":"392 Freeport Rd","city":"Pittsburgh","state":"PA","stars":3.5,"review_count":3,"is_open":1},{"business_id":"t_KmnPMzJPD_0JhsdPg3eg","name":"Reilly's Garden Center","latitude":40.5367762,"longitude":-80.0954485,"address":"1120 Roosevelt Rd","city":"Pittsburgh","state":"PA","stars":3.5,"review_count":9,"is_open":0},{"business_id":"b0CStusyvwyQaAH_ts2pjQ","name":"Macy's","latitude":40.456309,"longitude":-80.158099,"address":"3000 Robinson Center Dr","city":"Pittsburgh","state":"PA","stars":2.5,"review_count":16,"is_open":1},{"business_id":"Yvq0ik4VSezkarb4nLXHhw","name":"The Geekadrome","latitude":40.39545,"longitude":-80.022754,"address":"534 Brookline Blvd","city":"Pittsburgh","state":"PA","stars":3.5,"review_count":5,"is_open":1},{"business_id":"d65kicaKohFwQmByS0duyA","name":"Best-Made Shoes","latitude":40.458093,"longitude":-79.9419629,"address":"5143 Liberty Ave","city":"Pittsburgh","state":"PA","stars":3.0,"review_count":9,"is_open":1},{"business_id":"JJV1sSTQUni18rLn6TcsFA","name":"HomeGoods","latitude":40.5714758451,"longitude":-80.0177004933,"address":"850 Providence Blvd","city":"Pittsburgh","state":"PA","stars":4.0,"review_count":7,"is_open":1},{"business_id":"9fcq28aJYQ8coJdPBnR7Ig","name":"Princess Hair and Beauty Supply","latitude":40.4644818,"longitude":-79.9408243,"address":"5152 Penn Ave","city":"Pittsburgh","state":"PA","stars":3.0,"review_count":5,"is_open":0},{"business_id":"3NOHbRcemjyEGgDw5xviHg","name":"Pittsburgh Antique Mall","latitude":40.3648393,"longitude":-80.0238516,"address":"1116 Castle Shannon Blvd","city":"Pittsburgh","state":"PA","stars":3.5,"review_count":4,"is_open":1},{"business_id":"OMo-op7RtBsfefjwir167A","name":"Goodwill Computerworks","latitude":40.4800314,"longitude":-79.9569536,"address":"125 51st St","city":"Pittsburgh","state":"PA","stars":3.0,"review_count":8,"is_open":0},{"business_id":"9qxOJ8fMEFMXR0ihA1xd8A","name":"Frenchi's Deli & Market","latitude":40.4372028388,"longitude":-79.9526321828,"address":"449 Atwood St","city":"Pittsburgh","state":"PA","stars":4.5,"review_count":9,"is_open":1},{"business_id":"PlcO3nfHQBDuFJUJkIJQvA","name":"De La Torre Orthotics & Prosthetics","latitude":40.4574086,"longitude":-79.9324744,"address":"5750 Centre Ave, Ste 210","city":"Pittsburgh","state":"PA","stars":1.5,"review_count":3,"is_open":1},{"business_id":"cR3E4KIj--O4GtUaY_9GSg","name":"BHLDN","latitude":40.4572258,"longitude":-79.9166311,"address":"6425 Penn Ave","city":"Pittsburgh","state":"PA","stars":2.5,"review_count":3,"is_open":1},{"business_id":"UGXjV60FtiCQ4N7mz2vraw","name":"Unlocked Global Phones","latitude":40.429025,"longitude":-79.979677,"address":"1819 E Carson St","city":"Pittsburgh","state":"PA","stars":2.5,"review_count":3,"is_open":1},{"business_id":"yOz3FAEGgMlCOxDYOvW9XA","name":"Willi's Ski & Snowboard Shops","latitude":40.5448907,"longitude":-80.0362746,"address":"1101 Perry Hwy","city":"Pittsburgh","state":"PA","stars":3.5,"review_count":3,"is_open":1},{"business_id":"Kl-Xp6vdDNl8Jx1b15BwAg","name":"Dreaming Ant","latitude":40.4629248,"longitude":-79.9508171,"address":"4525 Liberty Ave","city":"Pittsburgh","state":"PA","stars":5.0,"review_count":7,"is_open":0},{"business_id":"VAi90YmGh93IjkdE9v87DQ","name":"Walmart","latitude":40.48798137,"longitude":-79.8891996081,"address":"877 Freeport Rd","city":"Pittsburgh","state":"PA","stars":2.0,"review_count":26,"is_open":1},{"business_id":"FYR3nVpNvY2X6dBu1Yp-8A","name":"A Party Place Rentals","latitude":40.5139867,"longitude":-80.0021259,"address":"2326 Babcock Blvd","city":"Pittsburgh","state":"PA","stars":5.0,"review_count":4,"is_open":1},{"business_id":"EZCD3jCOzH3LFQ4K2yPvKg","name":"Hobby Prodigy","latitude":40.4547052,"longitude":-80.1571838,"address":"100 Robinson Centre Dr","city":"Pittsburgh","state":"PA","stars":3.0,"review_count":9,"is_open":1},{"business_id":"AW_OAlFOz59Fo7ndhFGS2g","name":"Verizon Wireless","latitude":40.440879,"longitude":-79.958402,"address":"3601 Forbes Ave","city":"Pittsburgh","state":"PA","stars":1.5,"review_count":9,"is_open":1},{"business_id":"MfSSmUjgxwbGVXf4G8m-lw","name":"Joseph-Beth Booksellers","latitude":40.42488,"longitude":-79.98096,"address":"2705 E Carson St, SouthSide Works","city":"Pittsburgh","state":"PA","stars":4.5,"review_count":3,"is_open":0},{"business_id":"1fbOsfcPpdHIkWa3egdIZg","name":"David's Bridal","latitude":40.4556139316,"longitude":-80.1619840974,"address":"6525 Robinson Centre Dr","city":"Pittsburgh","state":"PA","stars":3.5,"review_count":59,"is_open":1},{"business_id":"vOufKKlue_M2RZ8lxqUKDg","name":"Microsoft Store","latitude":40.5445685,"longitude":-80.0087509,"address":"Ross Park Mall, 1000 Ross Park Mall Dr","city":"Pittsburgh","state":"PA","stars":5.0,"review_count":3,"is_open":0},{"business_id":"Q8ehgHHHgRchOxVM0wseFw","name":"Relax the Back","latitude":40.4592022,"longitude":-79.9192567,"address":"6343 Penn Ave","city":"Pittsburgh","state":"PA","stars":3.0,"review_count":3,"is_open":0},{"business_id":"La-deTxOcGc6YDrm3xBNcQ","name":"Phillip Injeian Violin Shop","latitude":40.443874,"longitude":-79.998649,"address":"821 Penn Ave","city":"Pittsburgh","state":"PA","stars":4.5,"review_count":5,"is_open":1},{"business_id":"-3pWXL_3nLFU6lcSlX1Xug","name":"MAC Cosmetics","latitude":40.5410497,"longitude":-80.0084278,"address":"1004 Ross Park Mall Dr","city":"Pittsburgh","state":"PA","stars":5.0,"review_count":6,"is_open":1},{"business_id":"UGnCFVByiBDvEDQxx0VkwA","name":"Santom Upholstery & Refinishing","latitude":40.531301,"longitude":-80.045276,"address":"371 Rochester Rd","city":"Pittsburgh","state":"PA","stars":4.0,"review_count":11,"is_open":1},{"business_id":"N5Eesnwt6FKRP59rBzmuDA","name":"Gamma Sports","latitude":40.4672389,"longitude":-79.9746094,"address":"200 Waterfront Dr","city":"Pittsburgh","state":"PA","stars":2.5,"review_count":3,"is_open":1},{"business_id":"XPCG_S00_lkfNUVZfYALyQ","name":"Arts & Crafts: Botanica & Occult Shop","latitude":40.4654459,"longitude":-79.9450565,"address":"4901 Penn Ave","city":"Pittsburgh","state":"PA","stars":4.5,"review_count":3,"is_open":1},{"business_id":"xZK5cRGg8V1CFE2w3KWsPQ","name":"CVS Pharmacy","latitude":40.4438,"longitude":-79.9276,"address":"5600 Wilkins Ave","city":"Pittsburgh","state":"PA","stars":4.0,"review_count":5,"is_open":1},{"business_id":"uckenZXmQqo-7bhB6UlTZQ","name":"Pittsburgh Filmmakers","latitude":40.4559244,"longitude":-79.953763,"address":"477 Melwood Ave","city":"Pittsburgh","state":"PA","stars":3.0,"review_count":3,"is_open":1},{"business_id":"hH8ymTeBZKQJRJAwWQ3FCQ","name":"Tuesday Morning","latitude":40.4291690946,"longitude":-79.813006036,"address":"3430 William Penn Hwy","city":"Pittsburgh","state":"PA","stars":4.0,"review_count":4,"is_open":1},{"business_id":"Ea-6xpe581a_mmeD3W3mog","name":"Giant Eagle","latitude":40.584507,"longitude":-80.038122,"address":"9805 McKnight Rd","city":"Pittsburgh","state":"PA","stars":3.5,"review_count":6,"is_open":1},{"business_id":"v8biQgKhr30QtRf6VnGeew","name":"World of Rugs","latitude":40.4531199,"longitude":-80.1654014,"address":"1955 Park Manor Blvd","city":"Pittsburgh","state":"PA","stars":3.5,"review_count":3,"is_open":1},{"business_id":"PKnJO6iXVuZrH8QwWTm40w","name":"Hall Of Cards","latitude":40.368716,"longitude":-80.034821,"address":"300 Mount Lebanon Blvd, Ste 13","city":"Pittsburgh","state":"PA","stars":3.0,"review_count":8,"is_open":1},{"business_id":"FcOMDTDtKaucQ-KIjba45g","name":"Tiffany & Co","latitude":40.544265,"longitude":-80.007625,"address":"1000 Ross Park Mall Dr","city":"Pittsburgh","state":"PA","stars":4.0,"review_count":8,"is_open":1},{"business_id":"jZ5IN3qemzDWkJsBGI2DyA","name":"White Whale Bookstore","latitude":40.4611065,"longitude":-79.9482096,"address":"4754 Liberty Ave","city":"Pittsburgh","state":"PA","stars":5.0,"review_count":22,"is_open":1},{"business_id":"ACuadoOj5oDglIZdmxuLkw","name":"CVS Pharmacy","latitude":40.395666,"longitude":-80.023582,"address":"500 Brookline Blvd","city":"Pittsburgh","state":"PA","stars":3.5,"review_count":8,"is_open":1},{"business_id":"5ECSyjTywswbyqwpeZR-mg","name":"Gene Sanes","latitude":40.4495829,"longitude":-79.986713,"address":"1645 Penn Ave","city":"Pittsburgh","state":"PA","stars":3.5,"review_count":7,"is_open":1},