{"JrEEn-KvqX_B2KM3FF1FDg": {"name": "N Stuff Music", "latitude": 40.4958388, "longitude": -79.8574779, "address": "468 Freeport Rd", "city": "Pittsburgh", "state": "PA", "stars": 4.5, "review_count": 24, "is_open": 1}, "XdnW3ttBK2MUkjV9PdfjWw": {"name": "Three Rivers Vintage", "latitude": 40.4286445, "longitude": -79.9813605, "address": "1718 E Carson St", "city": "Pittsburgh", "state": "PA", "stars": 4.5, "review_count": 22, "is_open": 1}, "wirXL-q4nupF-gXxiCKmLw": {"name": "Steel City Clothing Store", "latitude": 40.4419947, "longitude": -79.9975571, "address": "625 Smithfield St", "city": "Pittsburgh", "state": "PA", "stars": 4.5, "review_count": 19, "is_open": 1}, "qFy8R5NseclYmIFbMpGbuQ": {"name": "Bloom Cigar Company", "latitude": 40.4289912, "longitude": -79.9866, "address": "54 S 12th St", "city": "Pittsburgh", "state": "PA", "stars": 4.5, "review_count": 17, "is_open": 1}, "4C9m63Xk7QVCk5ykJIPkjQ": {"name": "Commonwealth Press", "latitude": 40.4187375, "longitude": -80.009954, "address": "415 West Warrington Ave", "city": "Pittsburgh", "state": "PA", "stars": 4.5, "review_count": 21, "is_open": 1}, "783qMhPSIRhMvM5O8WXiww": {"name": "HomeGoods", "latitude": 40.453885, "longitude": -80.1697818, "address": "2000 Park Manor Blvd", "city": "Pittsburgh", "state": "PA", "stars": 4.5, "review_count": 19, "is_open": 1}, "RPQnA3wxxTNK9ysfEKSqtQ": {"name": "Kawaii Gifts", "latitude": 40.451, "longitude": -79.9348937, "address": "738 Copeland St & 5413-B Walnut St", "city": "Pittsburgh", "state": "PA", "stars": 4.5, "review_count": 26, "is_open": 1}, "x_DjeSEMkJkFHzSTfKYHvA": {"name": "West Liberty Cycles", "latitude": 40.393858, "longitude": -80.019631, "address": "801 Brookline Blvd", "city": "Pittsburgh", "state": "PA", "stars": 4.5, "review_count": 16, "is_open": 1}, "im2J4GZZdEl7s4o21D7rgw": {"name": "Lucy's", "latitude": 40.4524912, "longitude": -79.9815446, "address": "2216 Penn Ave", "city": "Pittsburgh", "state": "PA", "stars": 4.5, "review_count": 49, "is_open": 1}, "Flxxmmegf_qLsjDog0j7xw": {"name": "Roxanne's Dried Flowers", "latitude": 40.4521079, "longitude": -79.9828038, "address": "2115 Penn Ave", "city": "Pittsburgh", "state": "PA", "stars": 4.5, "review_count": 27, "is_open": 1}, "hdVCaoubEUQTYDszSyTtig": {"name": "Lush Cosmetics", "latitude": 40.3432891098, "longitude": -80.0575194937, "address": "301 S Hills Village", "city": "Pittsburgh", "state": "PA", "stars": 5.0, "review_count": 15, "is_open": 1}, "t7E0chL0rY4NNKtkHs7kaQ": {"name": "Marlene Harris Collection", "latitude": 40.4931484, "longitude": -79.9119458, "address": "238 1/2 Freeport Rd", "city": "Pittsburgh", "state": "PA", "stars": 4.5, "review_count": 37, "is_open": 1}, "hQ1MOXOV5GBjAJv9W88lwQ": {"name": "Hot Rod Body Piercing Co.", "latitude": 40.4419592, "longitude": -79.9572204, "address": "115 Oakland Ave, Fl 2", "city": "Pittsburgh", "state": "PA", "stars": 4.5, "review_count": 31, "is_open": 0}, "BKpmbZinihQPZra5SWks3A": {"name": "Allegheny Smokeworks", "latitude": 40.492507, "longitude": -79.864475, "address": "217 Freeport Rd", "city": "Pittsburgh", "state": "PA", "stars": 4.5, "review_count": 14, "is_open": 1}, "dpXDPvro4CJi2mhC0ohx5A": {"name": "Pittsburgh Glass Center", "latitude": 40.4640804, "longitude": -79.9328829, "address": "5472 Penn Ave", "city": "Pittsburgh", "state": "PA", "stars": 4.5, "review_count": 36, "is_open": 1}, "uN_f8SF2SPJn1UJ3P5pUOQ": {"name": "Hepatica", "latitude": 40.4323229, "longitude": -79.8933753, "address": "1119 S Braddock Ave", "city": "Pittsburgh", "state": "PA", "stars": 4.5, "review_count": 14, "is_open": 1}, "c19Me4yU09FI7m2QzX-Adw": {"name": "Bloom Organic Skincare Parlor", "latitude": 40.480848, "longitude": -79.953774, "address": "5220 Butler St", "city": "Pittsburgh", "state": "PA", "stars": 5.0, "review_count": 24, "is_open": 0}, "1Z1SH6kLoeJVwkWY1BXvyQ": {"name": "Lush Cosmetics", "latitude": 40.5433537605, "longitude": -80.0076852777, "address": "1000 Ross Park Mall Dr", "city": "Pittsburgh", "state": "PA", "stars": 4.5, "review_count": 17, "is_open": 1}, "R_j8H7aLP2xVShc-6iOcPQ": {"name": "Natural Stitches", "latitude": 40.4586356, "longitude": -79.9174452, "address": "6401 Penn Ave", "city": "Pittsburgh", "state": "PA", "stars": 4.5, "review_count": 13, "is_open": 0}, "045F-O_4kmb6peoAVfrIXg": {"name": "Mike Feinberg", "latitude": 40.4502241, "longitude": -79.9847785, "address": "1736 Penn Ave", "city": "Pittsburgh", "state": "PA", "stars": 4.5, "review_count": 13, "is_open": 0}, "veWxZ-5DYy36t0qjG9t67g": {"name": "Schiller's Pharmacy & Cosmetique", "latitude": 40.4505938, "longitude": -79.9352289, "address": "811 S Aiken Ave", "city": "Pittsburgh", "state": "PA", "stars": 5.0, "review_count": 16, "is_open": 1}, "XWU1txx1IbeHFiRJgbksqA": {"name": "Games Unlimited", "latitude": 40.433235, "longitude": -79.922761, "address": "2115 Murray Ave", "city": "Pittsburgh", "state": "PA", "stars": 5.0, "review_count": 30, "is_open": 1}, "9oByIzI1hv89Pk-Za8-EMQ": {"name": "20/20 Vision Care", "latitude": 40.4229632, "longitude": -79.9285232, "address": "4203 Murray Ave", "city": "Pittsburgh", "state": "PA", "stars": 4.5, "review_count": 23, "is_open": 1}, "LMJW_BncFhCAu9GcZ0JIUg": {"name": "Paint Monkey", "latitude": 40.4728608, "longitude": -79.9638889, "address": "100 43rd St, Studio  118", "city": "Pittsburgh", "state": "PA", "stars": 5.0, "review_count": 38, "is_open": 1}, "Cvzt440DVh7EHbLT69wbvw": {"name": "Fleet Feet", "latitude": 40.3495872, "longitude": -80.0528363, "address": "1751 N Highland Rd", "city": "Pittsburgh", "state": "PA", "stars": 5.0, "review_count": 29, "is_open": 1}, "kOgOqwII2AOVN1WPb94-jQ": {"name": "Amazing Books & Records", "latitude": 40.433956, "longitude": -79.9231398, "address": "2030 Murray Ave", "city": "Pittsburgh", "state": "PA", "stars": 4.5, "review_count": 14, "is_open": 1}, "QZx8vWP9FiojherUMB9VuA": {"name": "Trader Joe's", "latitude": 40.3513544, "longitude": -80.0517205, "address": "1630 Washington Rd", "city": "Pittsburgh", "state": "PA", "stars": 4.5, "review_count": 56, "is_open": 1}, "-yuNBcDIoOzCcS4GWU_o1A": {"name": "The Gilded Girl", "latitude": 40.4784388, "longitude": -79.9553131, "address": "5104 Butler St", "city": "Pittsburgh", "state": "PA", "stars": 4.5, "review_count": 13, "is_open": 1}, "q9FifZsp6jno13xnby1XnA": {"name": "Clothes Minded", "latitude": 40.461206, "longitude": -79.948711, "address": "4740 Liberty Ave", "city": "Pittsburgh", "state": "PA", "stars": 4.5, "review_count": 45, "is_open": 1}, "6eUm6V7WdJO7G_zFVh3eqA": {"name": "Biketek Pittsburgh", "latitude": 40.4378503, "longitude": -79.9212649, "address": "5842 Forbes Ave", "city": "Pittsburgh", "state": "PA", "stars": 4.5, "review_count": 23, "is_open": 1}, "pszdjfTLVr-fKOjl9zh8bw": {"name": "The Skin Center Medical Spa", "latitude": 40.4507282, "longitude": -79.9357367, "address": "806 S Aiken Ave", "city": "Pittsburgh", "state": "PA", "stars": 4.5, "review_count": 22, "is_open": 1}, "lAN5WEQn5SwKEmUIqddysg": {"name": "Trader Joe's", "latitude": 40.5703531, "longitude": -80.022255, "address": "9020 Covenant Ave", "city": "Pittsburgh", "state": "PA", "stars": 4.5, "review_count": 58, "is_open": 1}, "jZ5IN3qemzDWkJsBGI2DyA": {"name": "White Whale Bookstore", "latitude": 40.4611065, "longitude": -79.9482096, "address": "4754 Liberty Ave", "city": "Pittsburgh", "state": "PA", "stars": 5.0, "review_count": 22, "is_open": 1}, "1GaP0tW-3gA3DM2WDoD7aw": {"name": "Heidioptics", "latitude": 40.4398969, "longitude": -80.0021785, "address": "223 4th Ave", "city": "Pittsburgh", "state": "PA", "stars": 5.0, "review_count": 15, "is_open": 1}, "szCcTSAzXJgerKtBgBBW5g": {"name": "Buddy's Brews On Carson", "latitude": 40.4282880868, "longitude": -79.9752062559, "address": "2112 E Carson St", "city": "Pittsburgh", "state": "PA", "stars": 4.5, "review_count": 17, "is_open": 1}, "efSbCWuU0FJbLmPC5CDfdg": {"name": "Bicycle Heaven", "latitude": 40.4563577, "longitude": -80.0324464, "address": "1800 Preble Ave", "city": "Pittsburgh", "state": "PA", "stars": 5.0, "review_count": 173, "is_open": 1}, "1jMtot685bxNT7oeSTNCaA": {"name": "Construction Junction", "latitude": 40.4496169181, "longitude": -79.8988556098, "address": "214 N Lexington St", "city": "Pittsburgh", "state": "PA", "stars": 4.5, "review_count": 51, "is_open": 1}, "bgcnrM6fbsWIR8amscTQNA": {"name": "Beyond Bedtime Books", "latitude": 40.3963449, "longitude": -80.0353418, "address": "1453 Potomac Ave", "city": "Pittsburgh", "state": "PA", "stars": 5.0, "review_count": 16, "is_open": 1}, "u0IBpeFgrr9ZRvq31K_o6w": {"name": "Henne Jewelers", "latitude": 40.4513374, "longitude": -79.9337758, "address": "5501 Walnut St, Ste 1", "city": "Pittsburgh", "state": "PA", "stars": 4.5, "review_count": 40, "is_open": 1}, "yNtWlyqVq8dzCj1JT7YT4Q": {"name": "Visionworks", "latitude": 40.4419737, "longitude": -80.0034017, "address": "120 Fifth Ave Pl, Ste M-110", "city": "Pittsburgh", "state": "PA", "stars": 4.5, "review_count": 20, "is_open": 1}, "jZOiACYhr7wP0zNnQL4LFg": {"name": "Ten Toes of Pittsburgh Inc", "latitude": 40.4509831, "longitude": -79.9335455, "address": "5502 Walnut St", "city": "Pittsburgh", "state": "PA", "stars": 4.5, "review_count": 30, "is_open": 1}, "zuz4w_uDWT5xC0EXOquhHQ": {"name": "Harold's Flower Shop", "latitude": 40.4405269, "longitude": -79.9940152, "address": "700 5th Ave", "city": "Pittsburgh", "state": "PA", "stars": 4.5, "review_count": 15, "is_open": 0}, "L9w6yeIxEtuMP0O7YWKWtA": {"name": "Von Walter & Funk", "latitude": 40.4806898236, "longitude": -79.9541436884, "address": "5210 Butler St", "city": "Pittsburgh", "state": "PA", "stars": 5.0, "review_count": 13, "is_open": 1}, "YN8pgoAGNfk8J3LKmSVJ2w": {"name": "Red Star Kombucha", "latitude": 40.441162461, "longitude": -80.0026917804, "address": "433 Graeme St", "city": "Pittsburgh", "state": "PA", "stars": 5.0, "review_count": 19, "is_open": 0}, "Mh8rIgIhPTrefqwgRh_uWw": {"name": "Knit One", "latitude": 40.4283108, "longitude": -79.9246088, "address": "2721 Murray Ave", "city": "Pittsburgh", "state": "PA", "stars": 4.5, "review_count": 13, "is_open": 0}, "9-eAUaJMBhsO2uRt5sgGdw": {"name": "Segway Pittsburgh", "latitude": 40.434492, "longitude": -80.006498, "address": "228 W Station Square Dr", "city": "Pittsburgh", "state": "PA", "stars": 4.5, "review_count": 42, "is_open": 1}, "l1Y-eGCg2nVxklM5Ti6_6w": {"name": "The Farmer's Daughter Flowers", "latitude": 40.4533361, "longitude": -80.000576, "address": "431 E Ohio St", "city": "Pittsburgh", "state": "PA", "stars": 4.5, "review_count": 40, "is_open": 1}, "kCtDDd4YzCtgedYClsVIAw": {"name": "Orr's Jewelers", "latitude": 40.4382921, "longitude": -79.9207394, "address": "5857 Forbes Ave", "city": "Pittsburgh", "state": "PA", "stars": 4.5, "review_count": 32, "is_open": 1}, "nytVs5PeKgyRMBeK7TxeSw": {"name": "Kards Unlimited", "latitude": 40.4512012, "longitude": -79.9328073, "address": "5522 Walnut St", "city": "Pittsburgh", "state": "PA", "stars": 4.5, "review_count": 59, "is_open": 1}, "EAM-Ttijl9PfNuCrvOE5Zw": {"name": "Hot Rod Piercing", "latitude": 40.4286145, "longitude": -79.9824788, "address": "95 S 16th St", "city": "Pittsburgh", "state": "PA", "stars": 4.5, "review_count": 53, "is_open": 1}, "al2hUXHYPUyWndls5azong": {"name": "Pittsburgh Beauty Bar", "latitude": 40.4281467777, "longitude": -79.9704805162, "address": "2429 E Carson St, Ste 101", "city": "Pittsburgh", "state": "PA", "stars": 4.5, "review_count": 115, "is_open": 1}, "T7urN1yvp8TT6kG0w6tDAA": {"name": "INPAX Academy & Range", "latitude": 40.5698152, "longitude": -80.0178181, "address": "900 Providence Blvd, Ste 100", "city": "Pittsburgh", "state": "PA", "stars": 5.0, "review_count": 15, "is_open": 1}, "ATbnabmZappvijrKdnuFvA": {"name": "Jim Ludwig's Blumengarten Florist", "latitude": 40.4556935, "longitude": -79.9770276, "address": "2650 Penn Ave", "city": "Pittsburgh", "state": "PA", "stars": 4.5, "review_count": 67, "is_open": 1}, "czJKX4DmZR_1JeRmPcnmbQ": {"name": "Las Palmas Carniceria", "latitude": 40.3945796, "longitude": -80.0217308, "address": "700 Brookline Blvd", "city": "Pittsburgh", "state": "PA", "stars": 4.5, "review_count": 232, "is_open": 1}, "6MQJMPVi5HobGjx73DaE7Q": {"name": "Pittsburgh Furniture Company", "latitude": 40.470943, "longitude": -79.9600419, "address": "4312 Butler St", "city": "Pittsburgh", "state": "PA", "stars": 5.0, "review_count": 25, "is_open": 1}, "lnvkShNMuLI3XkLf8NX7_Q": {"name": "Alex's East End Floral Shoppe", "latitude": 40.4584992, "longitude": -79.9224302, "address": "236 Shady Ave", "city": "Pittsburgh", "state": "PA", "stars": 4.5, "review_count": 27, "is_open": 1}, "IjjYH0FqBwnif-qXAlcFOw": {"name": "Vanity Box Boutique", "latitude": 40.4580547, "longitude": -79.9275787, "address": "5892 Ellsworth Ave", "city": "Pittsburgh", "state": "PA", "stars": 5.0, "review_count": 17, "is_open": 1}, "NjH2Zy8J8nKSfIgOwA1Cbg": {"name": "Iron City Bikes", "latitude": 40.4671488, "longitude": -79.9638809, "address": "3822 Butler St", "city": "Pittsburgh", "state": "PA", "stars": 4.5, "review_count": 29, "is_open": 1}, "IvC6thJkTlWmhVB8AR0luA": {"name": "Sergio's Style", "latitude": 40.394911, "longitude": -80.0339896, "address": "2891 W Liberty Ave", "city": "Pittsburgh", "state": "PA", "stars": 4.5, "review_count": 39, "is_open": 1}, "rAtRO7AC8hFiDfWZrWzPdw": {"name": "Pavement", "latitude": 40.4662419, "longitude": -79.9649976, "address": "3629 Butler St", "city": "Pittsburgh", "state": "PA", "stars": 4.5, "review_count": 34, "is_open": 1}, "cmcUx0yiIiuVRUhjb0kGXw": {"name": "Eons Fashion Antique", "latitude": 40.4568715, "longitude": -79.9294162, "address": "5850 Ellsworth Ave", "city": "Pittsburgh", "state": "PA", "stars": 4.5, "review_count": 30, "is_open": 1}, "wi0JoPT_61pmzn87KcVQgg": {"name": "Honor Your Body Wellness", "latitude": 40.3955122, "longitude": -80.034047, "address": "2882 West Liberty Ave., 2nd Floor", "city": "Pittsburgh", "state": "PA", "stars": 4.5, "review_count": 43, "is_open": 1}, "KIyAce9_U9NUeUVQn8iLSA": {"name": "Handmade Arcade", "latitude": 40.445559043, "longitude": -79.9978065491, "address": "1000 Fort Duquesne Blvd", "city": "Pittsburgh", "state": "PA", "stars": 4.5, "review_count": 19, "is_open": 1}, "nFgpPR2Bce9t_s8siEv9Kw": {"name": "Wild Card", "latitude": 40.4705575, "longitude": -79.9606642, "address": "4209 Butler St", "city": "Pittsburgh", "state": "PA", "stars": 4.5, "review_count": 88, "is_open": 1}, "3clNGTYOHTnDUZPUnihL3g": {"name": "SIX16 Body Piercing", "latitude": 40.472074, "longitude": -79.9596771, "address": "4417 Butler St", "city": "Pittsburgh", "state": "PA", "stars": 4.5, "review_count": 55, "is_open": 1}, "SHGZcoeW7LB_nLf74QjwFg": {"name": "Kraynick's Bike Shop", "latitude": 40.4652961, "longitude": -79.9438063, "address": "5003 Penn Ave", "city": "Pittsburgh", "state": "PA", "stars": 4.5, "review_count": 31, "is_open": 1}, "Usd_eiae2ZLlPjBLxpkeUA": {"name": "Inhale Pittsburgh", "latitude": 40.4442769817, "longitude": -80.0008124487, "address": "100 7th St", "city": "Pittsburgh", "state": "PA", "stars": 4.5, "review_count": 13, "is_open": 1}, "O1lmP2PEN8PRX7ceWIf2PA": {"name": "Buffalo Exchange", "latitude": 40.428591, "longitude": -79.9857224, "address": "1214 E. Carson St.", "city": "Pittsburgh", "state": "PA", "stars": 4.5, "review_count": 17, "is_open": 1}, "fw2V7tFKHQlhHy4bNoSyXg": {"name": "Larrimor's", "latitude": 40.4411909, "longitude": -80.0004856, "address": "249 Fifth Ave", "city": "Pittsburgh", "state": "PA", "stars": 5.0, "review_count": 22, "is_open": 1}, "StAOv_9vi4r9T3MqE5ySLw": {"name": "The Cigar Den", "latitude": 40.481878, "longitude": -79.952564, "address": "5268 Butler St", "city": "Pittsburgh", "state": "PA", "stars": 4.5, "review_count": 28, "is_open": 0}, "aEsQU7YmlhisVHTSLadeDQ": {"name": "Phantom of the Attic - Oakland", "latitude": 40.4448788, "longitude": -79.9484106, "address": "411 S Craig St, Second Floor", "city": "Pittsburgh", "state": "PA", "stars": 5.0, "review_count": 20, "is_open": 1}, "9Vf__OXZkR7pyp0CbMN0Nw": {"name": "Kiln N Time", "latitude": 40.4647153, "longitude": -79.9614976, "address": "3801 Penn Ave", "city": "Pittsburgh", "state": "PA", "stars": 4.5, "review_count": 19, "is_open": 1}, "JXUkn_7Pd2MrEkC8559W8g": {"name": "Thick Bikes", "latitude": 40.4291873, "longitude": -79.9836483, "address": "62 S 15th St", "city": "Pittsburgh", "state": "PA", "stars": 4.5, "review_count": 52, "is_open": 1}, "zacTq2J8DAj4-ROHM_aRog": {"name": "Clarissa Boutique", "latitude": 40.4730514, "longitude": -79.9589098, "address": "4603 Butler St", "city": "Pittsburgh", "state": "PA", "stars": 4.5, "review_count": 13, "is_open": 1}, "hlzDnbp7H7KPTefI1uwhjA": {"name": "Blue Monkey Tea Pittsburgh", "latitude": 40.4378605, "longitude": -79.9201969, "address": "5872 Forbes Ave", "city": "Pittsburgh", "state": "PA", "stars": 4.5, "review_count": 42, "is_open": 1}, "F2_-eG3Ln0HkMzah5FVT-w": {"name": "Yinzers", "latitude": 40.4523924, "longitude": -79.9825343, "address": "2127 Penn Ave", "city": "Pittsburgh", "state": "PA", "stars": 4.5, "review_count": 28, "is_open": 1}, "0Q7-i7KHlzBoejEKbW5DUQ": {"name": "Mayfly Market and Deli", "latitude": 40.45724, "longitude": -80.00958, "address": "1327 Arch St", "city": "Pittsburgh", "state": "PA", "stars": 4.5, "review_count": 18, "is_open": 1}, "JGnTLBiJuk0vGWcJUHDJQw": {"name": "City Grows", "latitude": 40.4806497, "longitude": -79.9541624, "address": "5208 Butler St", "city": "Pittsburgh", "state": "PA", "stars": 5.0, "review_count": 17, "is_open": 1}, "ebgCzdUOElNJirj6eFuXiw": {"name": "Kindred Cycles", "latitude": 40.454386, "longitude": -79.979636, "address": "2515 Penn Ave", "city": "Pittsburgh", "state": "PA", "stars": 5.0, "review_count": 23, "is_open": 1}, "P-rLDdSC6FT_TzJ6xS85CA": {"name": "Mattress Firm Village of East Side", "latitude": 40.459452938, "longitude": -79.9181942303, "address": "6401 Penn Ave, Ste 470", "city": "Pittsburgh", "state": "PA", "stars": 4.5, "review_count": 13, "is_open": 1}, "_9Fp8T6mPHUO1AhLhbAoXQ": {"name": "Paul Michael Design", "latitude": 40.4634122266, "longitude": -79.9668086246, "address": "3453 Butler St", "city": "Pittsburgh", "state": "PA", "stars": 5.0, "review_count": 27, "is_open": 1}, "i6daUWbqTYrCJgB9Gk7pDQ": {"name": "Jupe Boutique", "latitude": 40.428026, "longitude": -79.972679, "address": "2306 E Carson St", "city": "Pittsburgh", "state": "PA", "stars": 4.5, "review_count": 13, "is_open": 0}, "ZP1KGjhtQ-C1d_z3ItL8jQ": {"name": "S.W. Randall Toyes & Giftes", "latitude": 40.4421676, "longitude": -79.9968765, "address": "630 Smithfield St", "city": "Pittsburgh", "state": "PA", "stars": 4.5, "review_count": 26, "is_open": 1}, "2099abC1lsypFGDJVG5uIQ": {"name": "4121 Main", "latitude": 40.4652584, "longitude": -79.9543423, "address": "4121 Main St", "city": "Pittsburgh", "state": "PA", "stars": 4.5, "review_count": 37, "is_open": 1}, "LFhkMq9DCSGpYI5Cdlpyiw": {"name": "720 Music, Clothing and Cafe", "latitude": 40.471775, "longitude": -79.959903, "address": "4405 Butler St", "city": "Pittsburgh", "state": "PA", "stars": 4.5, "review_count": 17, "is_open": 0}, "C-6ntT2ss7axyMhR3XmZBQ": {"name": "love, Pittsburgh", "latitude": 40.4292399, "longitude": -80.0071768, "address": "301 Shiloh St", "city": "Pittsburgh", "state": "PA", "stars": 5.0, "review_count": 19, "is_open": 1}, "L0DJ7-GUDMLIlIR-7vykvQ": {"name": "Merante's Gifts", "latitude": 40.4619011, "longitude": -79.9490237, "address": "4723 Liberty Ave", "city": "Pittsburgh", "state": "PA", "stars": 4.5, "review_count": 17, "is_open": 1}, "gMMSxoxlu-CcocrwRJfgPg": {"name": "This Magic Moment Bridal Studio", "latitude": 40.514207, "longitude": -80.030219, "address": "153 Perry Hwy, Ste 200", "city": "Pittsburgh", "state": "PA", "stars": 5.0, "review_count": 14, "is_open": 1}, "nKtzNATLJ07ThHnvfu6GfQ": {"name": "McCauley Celin Eyecare Associates", "latitude": 40.53647, "longitude": -80.035902, "address": "956 Perry Hwy", "city": "Pittsburgh", "state": "PA", "stars": 4.5, "review_count": 13, "is_open": 1}, "b4Atbd4V8UKEoXzhbL-o5g": {"name": "Leaf & Bean", "latitude": 40.4521302, "longitude": -79.9818887, "address": "2200 Penn Ave", "city": "Pittsburgh", "state": "PA", "stars": 4.5, "review_count": 71, "is_open": 1}, "gcrz3WGhLuwH6B1JnwHgjw": {"name": "Artist & Craftsman Supply", "latitude": 40.4330477261, "longitude": -79.9275129977, "address": "5603 Hobart St", "city": "Pittsburgh", "state": "PA", "stars": 4.5, "review_count": 18, "is_open": 1}, "Jg4iMxNVtryk-Y7BbfebMQ": {"name": "Juke Records", "latitude": 40.4624918, "longitude": -79.9511623, "address": "4526 Liberty Ave", "city": "Pittsburgh", "state": "PA", "stars": 4.5, "review_count": 22, "is_open": 0}, "KMNDr5f2UwjxJbTHnidZ6w": {"name": "Una Biologicals", "latitude": 40.4711625, "longitude": -79.9598616, "address": "4322 Butler St", "city": "Pittsburgh", "state": "PA", "stars": 4.5, "review_count": 19, "is_open": 1}, "8RC8xUo07sTIXI3FaqzYEA": {"name": "Highway Robbery Vintage", "latitude": 40.428457, "longitude": -79.976981, "address": "2012 E Carson St", "city": "Pittsburgh", "state": "PA", "stars": 4.5, "review_count": 20, "is_open": 1}, "WPRLdtddBtD-jfVYQFvOhQ": {"name": "Giant Eagle Express", "latitude": 40.5379144, "longitude": -79.8388218, "address": "2611 Freeport Rd", "city": "Pittsburgh", "state": "PA", "stars": 4.5, "review_count": 13, "is_open": 1}, "rbZ4AHL1LV8KGW9NDGbI9w": {"name": "Flowers In the Attic", "latitude": 40.4769006, "longitude": -79.7823842, "address": "7505 Saltsburg Rd", "city": "Pittsburgh", "state": "PA", "stars": 4.5, "review_count": 37, "is_open": 1}, "dwAtKEutQKgCvb7wSSU8Kw": {"name": "Top Gear Bicycle Shop", "latitude": 40.4595929, "longitude": -79.9253253, "address": "5996 Centre Ave, Ste 204", "city": "Pittsburgh", "state": "PA", "stars": 4.5, "review_count": 19, "is_open": 0}, "evLpXcko1HYI5Ek8HUSxzQ": {"name": "Hippie & French", "latitude": 40.4789225, "longitude": -79.9551078, "address": "5122 Butler St", "city": "Pittsburgh", "state": "PA", "stars": 5.0, "review_count": 18, "is_open": 1}, "9A23qP-9IWNnJyseV8RYLw": {"name": "Underground Printing", "latitude": 40.4409039, "longitude": -79.9585541, "address": "117 Meyran Ave", "city": "Pittsburgh", "state": "PA", "stars": 5.0, "review_count": 18, "is_open": 1}, "wfgM-QIJq-9v61ee_EmlWQ": {"name": "Pageboy Salon & Boutique", "latitude": 40.4827079, "longitude": -79.9731661, "address": "420 North Ave", "city": "Pittsburgh", "state": "PA", "stars": 4.5, "review_count": 57, "is_open": 1}, "dIsUtYng6lzaaLOqHlkOMA": {"name": "Jerry's Records", "latitude": 40.4327703, "longitude": -79.9234435, "address": "2136 Murray Ave", "city": "Pittsburgh", "state": "PA", "stars": 4.5, "review_count": 74, "is_open": 1}, "NbJLcLffxFvYTD7MfgCXOg": {"name": "Mint Salon & Gallery", "latitude": 40.458231332, "longitude": -79.9223222306, "address": "238 Shady Ave", "city": "Pittsburgh", "state": "PA", "stars": 4.5, "review_count": 51, "is_open": 1}, "DvtyvjueulKD3c3782yyww": {"name": "Sinners & Saints Tattoo", "latitude": 40.4573894, "longitude": -79.9253066, "address": "252 S Highland Ave", "city": "Pittsburgh", "state": "PA", "stars": 5.0, "review_count": 14, "is_open": 1}, "-ME7F1xPHdtyje-SzQPnkw": {"name": "Paint Monkey", "latitude": 40.4691015, "longitude": -79.9614983, "address": "4020 Butler St", "city": "Pittsburgh", "state": "PA", "stars": 5.0, "review_count": 14, "is_open": 1}, "idM0hDe_Pp2IeYgH0DIIBw": {"name": "The Big Idea Bookstore and Cafe", "latitude": 40.4601392, "longitude": -79.9467527, "address": "4812 Liberty Ave", "city": "Pittsburgh", "state": "PA", "stars": 4.5, "review_count": 24, "is_open": 1}, "FM4yuRAyt3bMEQdx7SqeHA": {"name": "Miracle on Liberty", "latitude": 40.4426791, "longitude": -79.9996546, "address": "705 Liberty Ave", "city": "Pittsburgh", "state": "PA", "stars": 4.5, "review_count": 19, "is_open": 1}, "--wIGbLEhlpl_UeAIyDmZQ": {"name": "Galaxie Electronics", "latitude": 40.4327703, "longitude": -79.9234435, "address": "2136 Murray Ave", "city": "Pittsburgh", "state": "PA", "stars": 4.5, "review_count": 14, "is_open": 1}, "_pZSfQFBCD3FL7sioartvA": {"name": "The Candle Lab", "latitude": 40.4718459, "longitude": -79.9597674, "address": "4409 Butler St", "city": "Pittsburgh", "state": "PA", "stars": 4.5, "review_count": 60, "is_open": 1}, "ZHoTQbkhGcLw9Oq_r-TiZQ": {"name": "Randyland", "latitude": 40.4580766, "longitude": -80.0098045, "address": "1501 Arch St", "city": "Pittsburgh", "state": "PA", "stars": 5.0, "review_count": 117, "is_open": 1}, "K3p2iyJ8xRU5-5NlvoxiFA": {"name": "Carnegie Museums of Pittsburgh", "latitude": 40.444011, "longitude": -79.950361, "address": "4400 Forbes Ave", "city": "Pittsburgh", "state": "PA", "stars": 4.5, "review_count": 55, "is_open": 1}, "6SgAFVbpOR7mD-qsuqbGmw": {"name": "Cruel Noise Records", "latitude": 40.4574417, "longitude": -79.9658899, "address": "3138 Dobson St, Fl 2", "city": "Pittsburgh", "state": "PA", "stars": 4.5, "review_count": 14, "is_open": 1}, "hWzbOi1-eS8PmPyZRV8Lew": {"name": "Staghorn Garden Cafe", "latitude": 40.4258227, "longitude": -79.9418473, "address": "517 Greenfield Ave", "city": "Pittsburgh", "state": "PA", "stars": 4.5, "review_count": 63, "is_open": 1}, "K34wQG_chxynxWSGNYI5QQ": {"name": "Pittsburgh Center for Creative Reuse", "latitude": 40.449987, "longitude": -79.8978841, "address": "214 N Lexington St", "city": "Pittsburgh", "state": "PA", "stars": 4.5, "review_count": 24, "is_open": 1}, "cdwJYqlp_NjS1w5Tz4J5dw": {"name": "Artisan", "latitude": 40.4653383, "longitude": -79.9438735, "address": "5001 Penn Ave", "city": "Pittsburgh", "state": "PA", "stars": 5.0, "review_count": 35, "is_open": 1}, "CU047MuCn7u-9UGA2-xhmA": {"name": "Carnegie Museum of Art", "latitude": 40.4432834, "longitude": -79.9502225, "address": "4400 Forbes Ave", "city": "Pittsburgh", "state": "PA", "stars": 4.5, "review_count": 61, "is_open": 1}, "9ai2NBOoFXNyLY0eJ0L7lw": {"name": "Pittsburgh Guitars", "latitude": 40.4289587, "longitude": -79.9850661, "address": "1305 E Carson St", "city": "Pittsburgh", "state": "PA", "stars": 5.0, "review_count": 20, "is_open": 1}, "aYsns6ELqLivkMMH2OcIOA": {"name": "GreenSinner Floral Event Design", "latitude": 40.481405, "longitude": -79.953875, "address": "5232 Butler St", "city": "Pittsburgh", "state": "PA", "stars": 4.5, "review_count": 14, "is_open": 1}, "4OO7bv4_8KqCA-OILQS-Qg": {"name": "Who New Retro Mod Decor", "latitude": 40.4798427, "longitude": -79.9545648, "address": "5156 Butler St", "city": "Pittsburgh", "state": "PA", "stars": 4.5, "review_count": 20, "is_open": 1}}