[{"business_id":"BHw9jZJMNodmDnODvmFbnA","name":"Shadyside Commons","latitude":40.4531841,"longitude":-79.9408445,"address":"401 Amberson Ave","city":"Pittsburgh","state":"PA","stars":4.0,"review_count":13,"is_open":1},{"business_id":"cfnYxbg2O9EfOcB0Vt-cyg","name":"GoTo Guys Handyman","latitude":40.4509149,"longitude":-79.9024779,"address":"","city":"Pittsburgh","state":"PA","stars":1.5,"review_count":3,"is_open":1},{"business_id":"8ivPsz1lvHSHBOQPLNlhDw","name":"Griffin Inspection Services","latitude":40.5029699,"longitude":-79.9500477,"address":"","city":"Pittsburgh","state":"PA","stars":5.0,"review_count":13,"is_open":1},{"business_id":"nb_S6DtesKmsBna80wO3lg","name":"Millennium Dance Complex","latitude":40.4276048,"longitude":-79.9696714,"address":"2504 E Carson St","city":"Pittsburgh","state":"PA","stars":3.0,"review_count":4,"is_open":1},{"business_id":"Q71qKflHUuzU6xQM_IroYg","name":"Observatory Hill","latitude":40.4842067,"longitude":-80.0159181,"address":"3605 Perrysville Ave","city":"Pittsburgh","state":"PA","stars":4.0,"review_count":4,"is_open":1},{"business_id":"jearVVAId3iOyQF8xOBDhA","name":"5-Star Air","latitude":40.426752,"longitude":-79.982479,"address":"156 S 17th St","city":"Pittsburgh","state":"PA","stars":5.0,"review_count":4,"is_open":1},{"business_id":"5w8gyOiqSAPTlrirVVi1Pw","name":"Slc Realty","latitude":40.4538778,"longitude":-79.95299,"address":"372 N Craig St","city":"Pittsburgh","state":"PA","stars":4.0,"review_count":3,"is_open":1},{"business_id":"QfhWIuZNK7lLqr136VKStQ","name":"Arsenal 201","latitude":40.4690248314,"longitude":-79.9646218884,"address":"3922 Foster St","city":"Pittsburgh","state":"PA","stars":4.5,"review_count":4,"is_open":1},{"business_id":"V3pGUSzhvpzCDEWYDI_Zog","name":"Hip at the Flashlight Factory","latitude":40.4536042,"longitude":-80.0157087,"address":"831 W North Ave","city":"Pittsburgh","state":"PA","stars":3.5,"review_count":6,"is_open":1},{"business_id":"HAwFmYdhRamvk4oN2xHUkA","name":"3030 South Water Street Apartments","latitude":40.4256716,"longitude":-79.9606249,"address":"3030 S Water St","city":"Pittsburgh","state":"PA","stars":1.0,"review_count":4,"is_open":1},{"business_id":"8Td6QFmp0J1XQlYhgRhogA","name":"U-Haul at McKnight Rd","latitude":40.5165259,"longitude":-80.0041225,"address":"4720 McKnight Rd","city":"Pittsburgh","state":"PA","stars":4.0,"review_count":6,"is_open":1},{"business_id":"HOy7atDfILktkgMNKtWYDw","name":"Aegis Realty Partners","latitude":40.4382283,"longitude":-80.0198502,"address":"1301 Grandview Ave, Ste 1136E","city":"Pittsburgh","state":"PA","stars":1.0,"review_count":3,"is_open":1},{"business_id":"Is81pUI8jes9Kp783yBl2Q","name":"Remnant City","latitude":40.3780023,"longitude":-79.9875392,"address":"2855 Saw Mill Run Blvd","city":"Pittsburgh","state":"PA","stars":4.5,"review_count":7,"is_open":1},{"business_id":"BCaqMn2IfWalXRhERfLsbQ","name":"Christa Ross - RE\/MAX Select Realty","latitude":40.4625531,"longitude":-79.9274079,"address":"5817 Penn Ave","city":"Pittsburgh","state":"PA","stars":3.5,"review_count":3,"is_open":1},{"business_id":"ROAfOcAAWb7awBZ0GtI9yg","name":"Lowe's Home Improvement","latitude":40.5701420156,"longitude":-80.0247479894,"address":"8701 Duncan Ave","city":"Pittsburgh","state":"PA","stars":3.0,"review_count":8,"is_open":1},{"business_id":"SQtUIKYEk8STR3MHcvGvKQ","name":"Williams Stained Glass Studio","latitude":40.3650724,"longitude":-80.0234695,"address":"1115 Castle Shannon Blvd","city":"Pittsburgh","state":"PA","stars":3.5,"review_count":3,"is_open":1},{"business_id":"C8MsojGq8zuK31fnQF89Rw","name":"Galia Fencing","latitude":40.4909423,"longitude":-79.7287703,"address":"","city":"Pittsburgh","state":"PA","stars":2.5,"review_count":3,"is_open":1},{"business_id":"hts23lFsInozOSo-CWxP0A","name":"Pittsburgh's Best Remodeling","latitude":40.4464867,"longitude":-79.7638782,"address":"409 Beatty Rd","city":"Pittsburgh","state":"PA","stars":5.0,"review_count":3,"is_open":1},{"business_id":"-Wdp5xVPqhbFxWZDVmqRNw","name":"Zerorez Pittsburgh","latitude":40.5331563,"longitude":-80.0594733,"address":"453 Lowries Run Rd","city":"Pittsburgh","state":"PA","stars":4.5,"review_count":41,"is_open":1},{"business_id":"Yg0PyXxqNj7FbNFYrUUvGw","name":"Shadyside House Cleaning","latitude":40.46018,"longitude":-79.9335244,"address":"325 Stratford Ave, Ste 3","city":"Pittsburgh","state":"PA","stars":3.5,"review_count":16,"is_open":1},{"business_id":"7pViUKSh20vALKvhH94rnQ","name":"Meyers Management","latitude":40.452713,"longitude":-79.9428609,"address":"5 Bayard Rd, Fl 1","city":"Pittsburgh","state":"PA","stars":3.0,"review_count":9,"is_open":1},{"business_id":"8BtaQdOa0cwgD84tQt5Yeg","name":"Davey Plumbing","latitude":40.399799,"longitude":-80.0000598,"address":"1641 Saw Mill Run Blvd","city":"Pittsburgh","state":"PA","stars":2.0,"review_count":4,"is_open":1},{"business_id":"c8bkDTjuJWIwP5QrBEVGcA","name":"Jimmy Cohen Plumbing Heating & Mechanical","latitude":40.4271666,"longitude":-79.9355388,"address":"3971 Boulevard Dr","city":"Pittsburgh","state":"PA","stars":4.5,"review_count":10,"is_open":1},{"business_id":"ibzPEUju2WgAfTuV-Oo80A","name":"Sunseri Moving","latitude":40.4647099,"longitude":-79.9472862,"address":"120 S 15th St, Ste 203","city":"Pittsburgh","state":"PA","stars":3.5,"review_count":8,"is_open":0},{"business_id":"dWMCiIBAvNk3sHi9fWakcw","name":"Verizon","latitude":40.4403009,"longitude":-79.9986737,"address":"355 5th Ave","city":"Pittsburgh","state":"PA","stars":2.0,"review_count":5,"is_open":1},{"business_id":"1jPLv-vyjPSvtl2ntSfdgA","name":"Boehmer Heating & Cooling","latitude":40.4143744,"longitude":-80.0116457,"address":"300 Hargrove St","city":"Pittsburgh","state":"PA","stars":3.5,"review_count":26,"is_open":1},{"business_id":"cbYYw_BweMiPbDw3z4C39Q","name":"Burns & Scalo Roofing","latitude":40.4365504,"longitude":-80.0795088,"address":"22 Rutgers Rd, Ste 200","city":"Pittsburgh","state":"PA","stars":2.0,"review_count":4,"is_open":1},{"business_id":"OUseMdCVj7DHxlVz0PeIvw","name":"Trends Capital","latitude":40.3937121,"longitude":-80.0399681,"address":"1480 Dormont Ave","city":"Pittsburgh","state":"PA","stars":1.0,"review_count":3,"is_open":0},{"business_id":"sap_2HKsMLxywGImYU8sjQ","name":"Budget Blinds of Downtown Pittsburgh","latitude":40.4379259,"longitude":-79.9556424,"address":"","city":"Pittsburgh","state":"PA","stars":5.0,"review_count":5,"is_open":1},{"business_id":"bZKI_8ds1JEO-LbLpAeOAA","name":"The Ridge at Robinson by Fore Property","latitude":40.4419112,"longitude":-80.1439954,"address":"1501 Meredith Dr","city":"Pittsburgh","state":"PA","stars":3.0,"review_count":6,"is_open":0},{"business_id":"p7D-C51oNVJy-8fBolxZ1Q","name":"The Home Team","latitude":40.4475255,"longitude":-79.9933976,"address":"","city":"Pittsburgh","state":"PA","stars":3.0,"review_count":7,"is_open":1},{"business_id":"T0CSrWlAXpMS7WgFm27pDw","name":"Forbes Avenue Suites","latitude":40.438781,"longitude":-79.9613679,"address":"3401 Forbes Ave","city":"Pittsburgh","state":"PA","stars":2.0,"review_count":3,"is_open":0},{"business_id":"kpwVYo1FS1qPI9S2v50RsA","name":"Inspired Closets","latitude":40.3871256,"longitude":-80.0439732,"address":"318 Washington Rd","city":"Pittsburgh","state":"PA","stars":5.0,"review_count":6,"is_open":1},{"business_id":"jgJ49_07V74oZpTxIFtHaA","name":"Sears Carpet Cleaning & Air Duct Cleaning","latitude":40.550119,"longitude":-79.960291,"address":"3401 Felicity Ave","city":"Pittsburgh","state":"PA","stars":3.0,"review_count":17,"is_open":1},{"business_id":"JmmmVHbqqj0J5lQidaV2Gw","name":"Pair Networks","latitude":40.4293034,"longitude":-79.9724245,"address":"","city":"Pittsburgh","state":"PA","stars":2.5,"review_count":8,"is_open":1},{"business_id":"Ss3v26X6NnEdynkLOdxuyg","name":"Morrow Park City Apartments","latitude":40.4569038,"longitude":-79.9406495,"address":"5250 Liberty Ave","city":"Pittsburgh","state":"PA","stars":3.5,"review_count":14,"is_open":1},{"business_id":"Mr1-zmZULCG7B3g8jj-Nzw","name":"The Clark Building","latitude":40.4427705,"longitude":-79.9992898,"address":"717 Liberty Ave","city":"Pittsburgh","state":"PA","stars":4.0,"review_count":3,"is_open":1},{"business_id":"ZnLDvdtZS8FKELxwClmGIQ","name":"Precision Pointing & Restoration","latitude":40.4838822,"longitude":-79.7340943,"address":"309 Thornwood Dr","city":"Pittsburgh","state":"PA","stars":2.0,"review_count":3,"is_open":1},{"business_id":"8s-miHHDXEBgNm63JvF5BA","name":"Federated Mortgage Corp","latitude":40.4382283,"longitude":-80.0198502,"address":"1301 Grandview Ave, Ste 100","city":"Pittsburgh","state":"PA","stars":5.0,"review_count":3,"is_open":1},{"business_id":"HPusHUfbk5hwmFDYN5ipyw","name":"Citywide Home Inspections","latitude":40.4406248,"longitude":-79.9958864,"address":"","city":"Pittsburgh","state":"PA","stars":5.0,"review_count":5,"is_open":1},{"business_id":"uMGAQmMimhqddhO6lJUZlw","name":"Inspectioneering","latitude":40.5310335,"longitude":-80.01095,"address":"4981 Mcknight Rd, Box 15321","city":"Pittsburgh","state":"PA","stars":4.5,"review_count":10,"is_open":1},{"business_id":"uo3WTvu2_EKkyFpHRKjlqw","name":"Kalanish Plastering and Drywall","latitude":40.4083044,"longitude":-79.9919995,"address":"","city":"Pittsburgh","state":"PA","stars":2.5,"review_count":3,"is_open":1},{"business_id":"2wFoMN7J0_X42dUG3Qa3iw","name":"PNC Bank","latitude":40.4378019519,"longitude":-79.9223332107,"address":"5810 Forbes Ave","city":"Pittsburgh","state":"PA","stars":2.5,"review_count":18,"is_open":1},{"business_id":"4x2zSNZ4482tbaiJ5Q2P1Q","name":"Acri Community Realty","latitude":40.5184410477,"longitude":-80.0260665251,"address":"290 Perry Hwy","city":"Pittsburgh","state":"PA","stars":3.0,"review_count":8,"is_open":1},{"business_id":"vaYmOrzaYE0-Bd297Cf5-A","name":"Rockler Woodworking & Hardware","latitude":40.5407097876,"longitude":-80.0119434035,"address":"7402 Mcknight Rd","city":"Pittsburgh","state":"PA","stars":4.0,"review_count":4,"is_open":1},{"business_id":"wxJzc_-HJ4CdrV741y-1ZA","name":"A&M's Painting and Remodeling","latitude":40.3721199466,"longitude":-79.9931398407,"address":"","city":"Pittsburgh","state":"PA","stars":3.0,"review_count":4,"is_open":1},{"business_id":"4abebltNgtm_-nN4NksJTA","name":"GE Logistic Solutions","latitude":40.5029699,"longitude":-79.9500477,"address":"","city":"Pittsburgh","state":"PA","stars":4.5,"review_count":24,"is_open":1},{"business_id":"bpvv9BpcTlkLeMbYSQZDsw","name":"Steam Masters","latitude":40.5006447,"longitude":-80.0121147,"address":"4535 Mcknight Rd","city":"Pittsburgh","state":"PA","stars":4.0,"review_count":6,"is_open":1},{"business_id":"f08jJyCh8G1yEUAms4Ewwg","name":"Peoples","latitude":40.445804,"longitude":-80.011325,"address":"375 N Shore Dr","city":"Pittsburgh","state":"PA","stars":1.5,"review_count":6,"is_open":1},{"business_id":"sY4E0kW27Ng9YsmKMbPt9g","name":"Alan Kells School of Real Estate","latitude":40.4962041,"longitude":-79.8697267,"address":"119 Gamma Dr","city":"Pittsburgh","state":"PA","stars":3.0,"review_count":5,"is_open":1},{"business_id":"ML5kSqrC1iOzL1YlJ0JB1Q","name":"Noftz Sheet Metal","latitude":40.456824,"longitude":-79.9762368,"address":"2737 Penn Ave","city":"Pittsburgh","state":"PA","stars":2.5,"review_count":3,"is_open":1},{"business_id":"XrPESuWKDCSq55F9NBQVbg","name":"Simon Electric","latitude":40.4152899,"longitude":-80.0477331,"address":"1027 Norsis Dr","city":"Pittsburgh","state":"PA","stars":5.0,"review_count":4,"is_open":1},{"business_id":"tixO3aKYU99KCFaRKm7Cjw","name":"Stout Flooring","latitude":40.3721992,"longitude":-80.0337833,"address":"490 Castle Shannon Blvd","city":"Pittsburgh","state":"PA","stars":2.0,"review_count":5,"is_open":1},{"business_id":"yYUbDH6rn_iwOB0p05zaGA","name":"VBInspect","latitude":40.407059,"longitude":-80.049061,"address":"220 E Elmhurst Rd","city":"Pittsburgh","state":"PA","stars":5.0,"review_count":3,"is_open":1},{"business_id":"jMDzL4No3fDiZ4rYg8jdDA","name":"Quality Home Inspections","latitude":40.356772,"longitude":-80.009101,"address":"5333 Spring Valley Dr","city":"Pittsburgh","state":"PA","stars":5.0,"review_count":4,"is_open":1},{"business_id":"tZ_hFWnpX52z4tnRmkqfIA","name":"Highland Park Club Apartments","latitude":40.4753626531,"longitude":-79.9248815937,"address":"1001 N Negley Ave","city":"Pittsburgh","state":"PA","stars":3.0,"review_count":6,"is_open":1},{"business_id":"7fKgwB6v6MeQeEi8LVUFCg","name":"Triangle Realty","latitude":40.4285786,"longitude":-80.0559153,"address":"1869 Chessland St, Ste 15","city":"Pittsburgh","state":"PA","stars":1.0,"review_count":3,"is_open":1},{"business_id":"xuWtWgisNiUQJ3j0juvUoQ","name":"Perfect Flooring","latitude":40.4259713,"longitude":-79.9406678,"address":"549 Greenfield Ave","city":"Pittsburgh","state":"PA","stars":2.0,"review_count":16,"is_open":1},{"business_id":"4R6NJhiq_t91E3W72ou7YA","name":"Friendship Suites","latitude":40.460781,"longitude":-79.933116,"address":"301 Stratford Ave","city":"Pittsburgh","state":"PA","stars":4.0,"review_count":3,"is_open":1},{"business_id":"8gqrbWS0Adj81CeJBcSNCA","name":"Brookline Plumber","latitude":40.3955026,"longitude":-80.0218525,"address":"613 Brookline Blvd","city":"Pittsburgh","state":"PA","stars":3.5,"review_count":3,"is_open":1},{"business_id":"Ff2RxHIYv1-9kXoAS4TSvw","name":"Edwards Bros Locksmith","latitude":40.4088514,"longitude":-80.1149414,"address":"","city":"Pittsburgh","state":"PA","stars":4.0,"review_count":6,"is_open":1},{"business_id":"4VmS5lJ_ooj9IqMNL1HwdQ","name":"Conservation Consultants","latitude":40.4277592,"longitude":-79.9841441,"address":"64 S 14th St","city":"Pittsburgh","state":"PA","stars":4.5,"review_count":3,"is_open":1},{"business_id":"J3yx4QZ6pmLqQvT9J8Fdmw","name":"3 Rivers Locksmith","latitude":40.5006746,"longitude":-80.0124324,"address":"4529 McKnight Rd","city":"Pittsburgh","state":"PA","stars":4.0,"review_count":5,"is_open":1},{"business_id":"LzF-P-Tjb8XU8FmAY2W7mw","name":"Rickjohn","latitude":40.4781325959,"longitude":-79.9578986467,"address":"4920 Harrison St","city":"Pittsburgh","state":"PA","stars":1.0,"review_count":4,"is_open":1},{"business_id":"5ZE-thfwrinDHWFBfoZIvQ","name":"Pittsburgh Rug Company","latitude":40.458313,"longitude":-79.9758053,"address":"2835 Smallman St","city":"Pittsburgh","state":"PA","stars":5.0,"review_count":5,"is_open":1},{"business_id":"EzB40zduHHO_S-F-AjaBAg","name":"Verizon","latitude":40.4565115965,"longitude":-79.9151934173,"address":"122 Bakery Square Blvd","city":"Pittsburgh","state":"PA","stars":2.5,"review_count":6,"is_open":1},{"business_id":"NOTGBsH5QK0X4iSaKcyLLg","name":"Flaherty Tree Service","latitude":40.468347,"longitude":-80.032514,"address":"1425 Woodland Ave","city":"Pittsburgh","state":"PA","stars":4.5,"review_count":18,"is_open":1},{"business_id":"cyhVmHksXAafxc7OJFHzug","name":"Roomful Express Furniture","latitude":40.4439054,"longitude":-80.082652,"address":"2250 Roswell Dr","city":"Pittsburgh","state":"PA","stars":1.5,"review_count":3,"is_open":0},{"business_id":"kDkiFkPVc-fWDN3nzn8Pew","name":"Rothman Awning","latitude":40.4070865,"longitude":-79.9450031,"address":"44 W Elizabeth St","city":"Pittsburgh","state":"PA","stars":2.0,"review_count":4,"is_open":1},{"business_id":"CZPwDxPvj5T3YIELkOelsw","name":"Culmer Moving","latitude":40.4550064,"longitude":-79.9093657,"address":"6730 McPherson Blvd, Ste 1","city":"Pittsburgh","state":"PA","stars":4.0,"review_count":45,"is_open":1},{"business_id":"Xqu75Zj2v7ZGdyTNA7NG3Q","name":"Eco King","latitude":40.4974532,"longitude":-80.0603445,"address":"","city":"Pittsburgh","state":"PA","stars":5.0,"review_count":90,"is_open":1},{"business_id":"m4Gfo0RorFfgS_xRQZ8PaQ","name":"Sachs Management","latitude":40.437752,"longitude":-79.921744,"address":"5828 Forbes Ave","city":"Pittsburgh","state":"PA","stars":1.0,"review_count":3,"is_open":1},{"business_id":"92rpAUG_KI8lndU5obe1Uw","name":"JJ Land Company","latitude":40.4586668,"longitude":-79.9323835,"address":"5738 Baum Blvd","city":"Pittsburgh","state":"PA","stars":2.0,"review_count":28,"is_open":1},{"business_id":"GN8IQJLtDdnGu1S5EerCMw","name":"Welte Roofing","latitude":40.383038,"longitude":-80.018996,"address":"535 McNeilly Rd","city":"Pittsburgh","state":"PA","stars":3.0,"review_count":4,"is_open":1},{"business_id":"KkXAhraUj4IRen2JRl8z-w","name":"Comprehensive Labor Services","latitude":40.4828051,"longitude":-80.0367259,"address":"","city":"Pittsburgh","state":"PA","stars":3.5,"review_count":3,"is_open":0},{"business_id":"Obb2jsDdDROIABk0YWn_fg","name":"Buerkle Plumbing","latitude":40.4642846,"longitude":-79.9642104,"address":"3519 Penn Ave","city":"Pittsburgh","state":"PA","stars":3.0,"review_count":3,"is_open":0},{"business_id":"SmUV5yc0pPKXdguf3LspsA","name":"Oak Hill Apartments","latitude":40.4427854,"longitude":-79.9708642,"address":"475 Garner Ct, Ste 215","city":"Pittsburgh","state":"PA","stars":2.0,"review_count":9,"is_open":1},{"business_id":"b43P_2Rwlw_3f_VNQ8Rh6Q","name":"Champion Windows & Home Exteriors of Pittsburgh","latitude":40.43153,"longitude":-80.13553,"address":"","city":"Pittsburgh","state":"PA","stars":1.0,"review_count":6,"is_open":1},{"business_id":"vJopFgS-LlPm0myPmw4Meg","name":"Kerb\u2122 Pittsburgh Movers","latitude":40.467202,"longitude":-79.9444526,"address":"","city":"Pittsburgh","state":"PA","stars":4.0,"review_count":66,"is_open":1},{"business_id":"b6yJpxLZ9amUHhnAg2glDQ","name":"Johnston Woodworking","latitude":40.3929691,"longitude":-80.0479039,"address":"","city":"Pittsburgh","state":"PA","stars":2.5,"review_count":3,"is_open":1},{"business_id":"QmoEAklpnjNEJKyM9Bj7gQ","name":"Groovy Maid","latitude":40.3906014,"longitude":-80.0208079,"address":"924 Bay Ridge Ave","city":"Pittsburgh","state":"PA","stars":3.5,"review_count":39,"is_open":1},{"business_id":"nQVbJcn7HcsYHlx8k2NVuw","name":"Ference Electric","latitude":40.49716,"longitude":-80.06389,"address":"934 McKinley Trce, Ste 212","city":"Pittsburgh","state":"PA","stars":5.0,"review_count":5,"is_open":1},{"business_id":"mndfvTs1HppOSgaAlSkwZA","name":"Loom Exquisite Textiles","latitude":40.4520298,"longitude":-79.982287,"address":"2124 Penn Ave","city":"Pittsburgh","state":"PA","stars":4.5,"review_count":11,"is_open":1},{"business_id":"T6qMxypoF9rrI4XG2enlWA","name":"Franklin West","latitude":40.4572371,"longitude":-79.9225927,"address":"272 Shady Ave","city":"Pittsburgh","state":"PA","stars":2.0,"review_count":16,"is_open":1},{"business_id":"ulrgfZGSenjZ1LwjKPMJiw","name":"Deaktor Development North L P","latitude":40.5468851,"longitude":-80.0124887,"address":"1000 Johnanna Dr","city":"Pittsburgh","state":"PA","stars":1.0,"review_count":4,"is_open":1},{"business_id":"kVEMdShYp-uIGruY5tLiTw","name":"A&A Estate Sales","latitude":40.3509675,"longitude":-79.9136731,"address":"","city":"Pittsburgh","state":"PA","stars":5.0,"review_count":3,"is_open":1},{"business_id":"F2b94rrPSnoOlJtGyCH4oQ","name":"Safe Streets USA - ADT Authorized Dealer","latitude":40.4586216,"longitude":-79.8184684,"address":"","city":"Pittsburgh","state":"PA","stars":3.5,"review_count":3,"is_open":1},{"business_id":"Nrt_UkJQKg4iwk4KsgztWA","name":"The Docks Apartments- Saratoga Crossing","latitude":40.4854322,"longitude":-79.8752544,"address":"501 Riverfront Dr","city":"Pittsburgh","state":"PA","stars":3.5,"review_count":6,"is_open":1},{"business_id":"pJa07L31CWZP84Oqq33f-w","name":"Pittsburgh Mirror & Glass","latitude":40.4574688,"longitude":-79.9926684,"address":"1000 Vinial St","city":"Pittsburgh","state":"PA","stars":3.0,"review_count":4,"is_open":1},{"business_id":"THuPefnNy0v5C8dR4c-gbQ","name":"Heartland Homes","latitude":40.4276798,"longitude":-80.123919,"address":"1 Penn Ctr W, Ste 300","city":"Pittsburgh","state":"PA","stars":2.5,"review_count":3,"is_open":1},{"business_id":"8lnl8njSVxg5XivvKcGMxA","name":"Guardian Protection","latitude":40.440368,"longitude":-79.9945971281,"address":"","city":"Pittsburgh","state":"PA","stars":1.5,"review_count":61,"is_open":1},{"business_id":"rsoj_tfOu3H7L1nQ3QYhkQ","name":"Coldwell Banker Real Estate Services","latitude":40.4382747,"longitude":-79.9198168,"address":"5887 Forbes Ave","city":"Pittsburgh","state":"PA","stars":4.0,"review_count":10,"is_open":1},{"business_id":"lJqXFy85dCmKmlW6Z34Reg","name":"Craft Heating","latitude":40.432214,"longitude":-80.0675196,"address":"31 Noble Ave","city":"Pittsburgh","state":"PA","stars":5.0,"review_count":5,"is_open":1},{"business_id":"Z_EAa59DcJy4dI7dDf8jBQ","name":"The Club at North Hills","latitude":40.5672119,"longitude":-80.0165956,"address":"700 Duncan Ave","city":"Pittsburgh","state":"PA","stars":2.0,"review_count":5,"is_open":1},{"business_id":"aHCP6LxCAkB3KJFDTO4YGw","name":"Dirt Doctors Cleaning Services","latitude":40.484825,"longitude":-80.035417,"address":"1272 Benton Ave","city":"Pittsburgh","state":"PA","stars":5.0,"review_count":3,"is_open":1},{"business_id":"7zwOZEDbFkqCe3j-y5hkBQ","name":"Molyneaux Tile Carpet Wood","latitude":40.447847,"longitude":-79.71342,"address":"1812 Rt 286","city":"Pittsburgh","state":"PA","stars":4.0,"review_count":5,"is_open":1},{"business_id":"iVtZcsxEdkSzOg0QXFvRDg","name":"Dawn Bierker RE\/MAX 360 Realty","latitude":40.5365260167,"longitude":-80.0085623183,"address":"105 McKnight Park Dr","city":"Pittsburgh","state":"PA","stars":5.0,"review_count":9,"is_open":1},{"business_id":"LwRD_u8TFVtVzFzzoC2C-Q","name":"Matt Mertz Plumbing","latitude":40.5061031,"longitude":-79.9917811,"address":"4693 Peoples Rd","city":"Pittsburgh","state":"PA","stars":3.5,"review_count":69,"is_open":1},{"business_id":"RpXf_faiCER75WP9V35WYw","name":"Castle Ridge","latitude":40.3652374,"longitude":-80.033366,"address":"850 Baldwin St","city":"Pittsburgh","state":"PA","stars":3.5,"review_count":3,"is_open":1},{"business_id":"6X5ST9vjcW3wXei8WgnD5w","name":"Edge 1909","latitude":40.4524748,"longitude":-79.9856929,"address":"1909 Waterfront Pl","city":"Pittsburgh","state":"PA","stars":4.0,"review_count":5,"is_open":1},{"business_id":"X5NQD21OiCNs_hUsXBMMVw","name":"Pittsburgh Green Clean","latitude":40.4654987,"longitude":-79.9422765,"address":"5110 Dearborn St","city":"Pittsburgh","state":"PA","stars":3.5,"review_count":4,"is_open":1},{"business_id":"sAlAxiVvi3RXd4tYO951WQ","name":"Desirable Kitchens & Refacing","latitude":40.4222843,"longitude":-80.0367259,"address":"","city":"Pittsburgh","state":"PA","stars":5.0,"review_count":3,"is_open":1},{"business_id":"5m5Xt6N-uzSHBbQvNj26XA","name":"North Hills Lock & Safe","latitude":40.5368375,"longitude":-80.024634,"address":"962 Perry Hwy","city":"Pittsburgh","state":"PA","stars":4.0,"review_count":4,"is_open":1},{"business_id":"6Qpv7Fjy9OzpTQ_qatWiDw","name":"Plumbers Equipment - North Hills","latitude":40.5102373,"longitude":-79.9920214,"address":"2134 Babcock Blvd","city":"Pittsburgh","state":"PA","stars":2.0,"review_count":3,"is_open":1},{"business_id":"VbBwp1MOOWP3pEGQ4Y824g","name":"DreamMaker Bath & Kitchen","latitude":40.3739695,"longitude":-79.9819266,"address":"3401 Saw Mill Run Blvd","city":"Pittsburgh","state":"PA","stars":1.0,"review_count":3,"is_open":1},{"business_id":"YQnRNfqNarkwZvn_ESQ8dg","name":"City Locksmith Pittsburgh","latitude":40.4591209,"longitude":-79.9267998,"address":"5932 Penn Cir S","city":"Pittsburgh","state":"PA","stars":2.5,"review_count":3,"is_open":0},{"business_id":"_JGeI3DVDVZHAg6Y7zTaGQ","name":"Reliable Homeworks","latitude":40.4462102,"longitude":-80.0081631,"address":"225 North Shore Dr","city":"Pittsburgh","state":"PA","stars":1.0,"review_count":3,"is_open":1},{"business_id":"POnGmJy4yNDziwma_-qIpA","name":"PNC Bank","latitude":40.461312,"longitude":-79.9478166,"address":"4761 Liberty Ave","city":"Pittsburgh","state":"PA","stars":4.0,"review_count":4,"is_open":1},{"business_id":"YHO111PiwAcBcgLzP_SzPA","name":"Horhut Tree Experts","latitude":40.3760655,"longitude":-79.9696277,"address":"","city":"Pittsburgh","state":"PA","stars":3.5,"review_count":6,"is_open":1},{"business_id":"Kot0deqA1WAbZ7YXY5fQ5w","name":"The Home Depot","latitude":40.465204,"longitude":-79.9221284,"address":"400 N Highland Ave","city":"Pittsburgh","state":"PA","stars":2.5,"review_count":49,"is_open":1},{"business_id":"8EJKlOsaYT4VFTALPLMYrg","name":"Batteries Plus Bulbs","latitude":40.449995,"longitude":-80.182748,"address":"402 Home Dr","city":"Pittsburgh","state":"PA","stars":2.5,"review_count":8,"is_open":1},{"business_id":"eg3p5oEfogbNiY0-bH2BdQ","name":"Dun Rite Window & Door","latitude":40.494645,"longitude":-79.9346166,"address":"718 Main St","city":"Pittsburgh","state":"PA","stars":5.0,"review_count":3,"is_open":1},{"business_id":"Wr3D01mKFT_3_PmyPPitSQ","name":"Duds'n Suds","latitude":40.4559614,"longitude":-79.9373825,"address":"5430 Centre Ave","city":"Pittsburgh","state":"PA","stars":4.0,"review_count":11,"is_open":1},{"business_id":"1BHU-BFB48nIbWjAzq-Xag","name":"Carriage Park Apartments","latitude":40.402777,"longitude":-80.0585435,"address":"300 Chatham Park Dr","city":"Pittsburgh","state":"PA","stars":1.5,"review_count":4,"is_open":1},{"business_id":"3kwigsDDg6DjYtKiqMr7mw","name":"Rick Hartman Plumbing","latitude":40.5537,"longitude":-80.0417,"address":"315 Birch Ave","city":"Pittsburgh","state":"PA","stars":3.5,"review_count":3,"is_open":1},{"business_id":"GQNAAzuOCvXF0tgda3UDow","name":"Upper St Clair Community Recreation Center","latitude":40.335928,"longitude":-80.111489,"address":"1551 Mayview Rd","city":"Pittsburgh","state":"PA","stars":3.5,"review_count":16,"is_open":1},{"business_id":"EjUAJTdvHl32jpAmV9s3Tg","name":"Coldwell Banker Real Estate","latitude":40.5818827,"longitude":-80.0371985,"address":"9600 Perry Hgwy, Ste 100","city":"Pittsburgh","state":"PA","stars":1.0,"review_count":3,"is_open":1},{"business_id":"eDY9g4_uMX_uMuUzWAFqfg","name":"Today's Tiffany Home Decor And More","latitude":40.3569591,"longitude":-80.0518073,"address":"1500 Washington Rd, Ste 2802","city":"Pittsburgh","state":"PA","stars":1.5,"review_count":3,"is_open":1},{"business_id":"BpAYcm-3IQI6E05LEdW4dw","name":"Allegheny Millwork & Lumber","latitude":40.430775,"longitude":-79.988065,"address":"1001 Muriel St","city":"Pittsburgh","state":"PA","stars":4.0,"review_count":6,"is_open":1},{"business_id":"TyE14Mmzc_5H-BF-pE0iWw","name":"Blystone & Boden Tree Service","latitude":40.4339264,"longitude":-80.0562209,"address":"1443 Hyde St","city":"Pittsburgh","state":"PA","stars":3.0,"review_count":6,"is_open":1},{"business_id":"lb6T9Od3Yubd8URg6jfpIw","name":"ADT Security Services, Inc.","latitude":40.4045575,"longitude":-80.0398906,"address":"2858 Banksville Rd","city":"Pittsburgh","state":"PA","stars":1.0,"review_count":4,"is_open":0},{"business_id":"G4vtKvJXVJvSzCfZfMKllg","name":"Maids In Red","latitude":40.4286737,"longitude":-79.8113226,"address":"201 Penn Center Blvd","city":"Pittsburgh","state":"PA","stars":2.5,"review_count":4,"is_open":1},{"business_id":"69CmeOIoEr0J4LceK1xXZQ","name":"Alcoma On the Green","latitude":40.483874,"longitude":-79.800262,"address":"225 Alcoma Blvd","city":"Pittsburgh","state":"PA","stars":2.5,"review_count":3,"is_open":1},{"business_id":"FZOAOISQFBKGgMJwVOjcEg","name":"DAP Sewer and Drain","latitude":40.4752701135,"longitude":-79.9896499515,"address":"","city":"Pittsburgh","state":"PA","stars":2.0,"review_count":4,"is_open":1},{"business_id":"IEfpthg9F0FVsvjS-7Ty6w","name":"Gramar Granite & Marble","latitude":40.4280448,"longitude":-80.0523171,"address":"1258 Poplar St","city":"Pittsburgh","state":"PA","stars":2.5,"review_count":3,"is_open":0},{"business_id":"CQBj7kgdrIkqYf7fQq0LwA","name":"American Buyers Discount Window","latitude":40.4382677,"longitude":-79.9284958,"address":"5545 Forbes Avenue, Apt D","city":"Pittsburgh","state":"PA","stars":5.0,"review_count":3,"is_open":1},{"business_id":"2YjWX5CghdcXiA6iMxRLlg","name":"Bartolomeo Plumbing Contractors","latitude":40.4829177856,"longitude":-79.7081832886,"address":"188 Paree Dr","city":"Pittsburgh","state":"PA","stars":3.0,"review_count":4,"is_open":1},{"business_id":"J7r1lw3Yv9PnXC5EHH4CUQ","name":"Budget Dumpster Rental","latitude":40.4222843,"longitude":-80.0367259,"address":"","city":"Pittsburgh","state":"PA","stars":3.5,"review_count":9,"is_open":1},{"business_id":"Pqm_kJnK69FCvbfO9fVZwg","name":"Roxanne Sugar","latitude":40.4034179,"longitude":-79.9360593,"address":"","city":"Pittsburgh","state":"PA","stars":5.0,"review_count":3,"is_open":1},{"business_id":"O9Z8CoMM2zL1DL5wq2fTUg","name":"Bobby West - Coldwell Banker Real Estate Services","latitude":40.4382747,"longitude":-79.9198168,"address":"5887 Forbes Ave","city":"Pittsburgh","state":"PA","stars":5.0,"review_count":23,"is_open":1},{"business_id":"16koSe1h5_DmyQpJpaR9VQ","name":"Kevin's Computer & Photo","latitude":40.4261201095,"longitude":-79.9404427558,"address":"555 Greenfield Ave","city":"Pittsburgh","state":"PA","stars":5.0,"review_count":9,"is_open":1},{"business_id":"RRTjCxD_rImEnYT3cXzmoQ","name":"Stahl Plumbing and Drain","latitude":40.3783531,"longitude":-80.0816692,"address":"1419 Cardinal Dr","city":"Pittsburgh","state":"PA","stars":5.0,"review_count":3,"is_open":1},{"business_id":"fpoohm-3kIQ-U-ER7OqKfQ","name":"South Side Carpet Cleaning","latitude":40.383145,"longitude":-80.019216,"address":"545 McNeilly Rd","city":"Pittsburgh","state":"PA","stars":3.5,"review_count":4,"is_open":1},{"business_id":"sKj6YZekA6CCCrNWSlq--Q","name":"Morgan at North Shore","latitude":40.4483913,"longitude":-79.9998535,"address":"100 Anderson St","city":"Pittsburgh","state":"PA","stars":3.0,"review_count":5,"is_open":1},{"business_id":"NDS2SswfkdJvwmuFDhKy_g","name":"HD Cleaning","latitude":40.397609,"longitude":-80.0283449,"address":"W Liberty Ave","city":"Pittsburgh","state":"PA","stars":5.0,"review_count":4,"is_open":1},{"business_id":"bYw7m6CfpaeSzOlWeF27uw","name":"Herbert Halsband Properties","latitude":40.4550232,"longitude":-79.9217122,"address":"431 Shady Ave","city":"Pittsburgh","state":"PA","stars":3.5,"review_count":10,"is_open":1},{"business_id":"pyyQr3rD86DiMelgnvpeJQ","name":"Taggart Plumbing","latitude":40.538325,"longitude":-80.028537,"address":"191 Longvue Dr","city":"Pittsburgh","state":"PA","stars":2.5,"review_count":3,"is_open":1},{"business_id":"aq-pbNQsoTR7lpXMkj57Ug","name":"Priority Realty","latitude":40.3769692,"longitude":-80.0046923,"address":"2840 Library Rd, Ste 2","city":"Pittsburgh","state":"PA","stars":2.5,"review_count":3,"is_open":1},{"business_id":"T-HObwAoesLAwiyR4Lvfmg","name":"CP Development","latitude":40.438571,"longitude":-79.8925497,"address":"706 S Trenton Ave","city":"Pittsburgh","state":"PA","stars":2.0,"review_count":28,"is_open":1},{"business_id":"eXKvq91jz2JgKHvGUR4uig","name":"Floor Designs Unlimited","latitude":40.369406,"longitude":-80.012021,"address":"3330 Library Rd","city":"Pittsburgh","state":"PA","stars":2.0,"review_count":3,"is_open":1},{"business_id":"90sD2roTmcg1kb0TzO03qA","name":"American Window Industries","latitude":40.4141856,"longitude":-79.8485591,"address":"106 Rockwood Ave","city":"Pittsburgh","state":"PA","stars":1.0,"review_count":3,"is_open":1},{"business_id":"5bnkMGRshFiHxAAeEuK4NQ","name":"Extra Space Storage","latitude":40.4162068615,"longitude":-80.0315570552,"address":"1005 E Entry Dr","city":"Pittsburgh","state":"PA","stars":5.0,"review_count":3,"is_open":1},{"business_id":"MxaZTse9M5oEGUEsT2CdaQ","name":"Best Feeds Garden Centers","latitude":40.50783,"longitude":-79.9908199,"address":"2105 Babcock Blvd","city":"Pittsburgh","state":"PA","stars":4.0,"review_count":15,"is_open":1},{"business_id":"sppyGbw73063HoLeDIFE2A","name":"Bryn Mawr Apartments","latitude":40.433894,"longitude":-79.86527,"address":"100 Bryn Mawr Ct","city":"Pittsburgh","state":"PA","stars":4.0,"review_count":4,"is_open":1},{"business_id":"4_5glUz5QBI0hqCKe760rQ","name":"My Computer Wiz","latitude":40.4412917,"longitude":-79.9978704,"address":"535 Smithfield St, Ste 620","city":"Pittsburgh","state":"PA","stars":4.5,"review_count":3,"is_open":1},{"business_id":"uk02t8IVKw4LXdXKQVXq4Q","name":"Old Allegheny Shoppe","latitude":40.3525616,"longitude":-79.9774498,"address":"4755 Clairton Blvd","city":"Pittsburgh","state":"PA","stars":4.0,"review_count":4,"is_open":1},{"business_id":"L7JT43rhr5PdSzYfLaHsIw","name":"Samuel Bales","latitude":40.3747044,"longitude":-80.0702555,"address":"","city":"Pittsburgh","state":"PA","stars":5.0,"review_count":4,"is_open":1},{"business_id":"OclTznv5Eox0SyO5MoB-Rg","name":"RPI Rentals","latitude":40.4825267,"longitude":-79.9737557,"address":"409 North Ave","city":"Pittsburgh","state":"PA","stars":2.0,"review_count":4,"is_open":1},{"business_id":"JI8MZ_igT-zwVBcuivTlDQ","name":"Prudential Realty","latitude":40.4187613,"longitude":-79.9555328,"address":"3700 S Water St, Ste 100","city":"Pittsburgh","state":"PA","stars":2.0,"review_count":4,"is_open":1},{"business_id":"rWAzMylvCypS3ieJe-aYxA","name":"InTown Suites","latitude":40.5052146,"longitude":-80.0096045,"address":"4595 McKnight Rd","city":"Pittsburgh","state":"PA","stars":2.0,"review_count":8,"is_open":1},{"business_id":"yfYmLtWX6W4767sMxFpjKg","name":"Super Duper Carpet and Duct Cleaning","latitude":40.3637836,"longitude":-80.0847679,"address":"2074 Borland Rd","city":"Pittsburgh","state":"PA","stars":2.0,"review_count":36,"is_open":1},{"business_id":"xZxnV0PpsO4X5ssSV26sYQ","name":"Patio Enclosures by Great Day Improvements","latitude":40.417739,"longitude":-80.01477,"address":"1200 Saw Mill Run Blvd","city":"Pittsburgh","state":"PA","stars":1.0,"review_count":3,"is_open":1},{"business_id":"DUFHhr3YROpDIK70a93mlQ","name":"The Window and Kitchen Specialists","latitude":40.3406578,"longitude":-79.9645708,"address":"2B Old Clairton Rd","city":"Pittsburgh","state":"PA","stars":3.0,"review_count":4,"is_open":1},{"business_id":"KirjgsehrcOzACQRWM_WuQ","name":"Gupta Permold","latitude":40.4656825,"longitude":-79.7882884,"address":"234 Lott Rd","city":"Pittsburgh","state":"PA","stars":4.5,"review_count":3,"is_open":1},{"business_id":"7p6tHUA1Pknh0DVWqz86lA","name":"Little Green Maid Services","latitude":40.3447707,"longitude":-79.9726146,"address":"5111 Clairton Blvd","city":"Pittsburgh","state":"PA","stars":2.5,"review_count":9,"is_open":1},{"business_id":"s_pM6-tdhwmNE7SdirW48A","name":"Al's HVAC Services","latitude":40.5031131674,"longitude":-80.0808842853,"address":"6927 Ohio River Blvd","city":"Pittsburgh","state":"PA","stars":3.5,"review_count":6,"is_open":1},{"business_id":"W_cXWFPkBhtLRZLeNcgHHg","name":"Window Installation Specialists","latitude":40.442988,"longitude":-79.95525,"address":"3945 Forbes Ave, Ste 462","city":"Pittsburgh","state":"PA","stars":3.0,"review_count":4,"is_open":1},{"business_id":"_hnBejvrFsa3Xa65CrexCQ","name":"Bostedo Appraisal Services","latitude":40.3400434,"longitude":-79.9651563,"address":"10 Old Clairton Rd, Ste 12a","city":"Pittsburgh","state":"PA","stars":2.5,"review_count":3,"is_open":1},{"business_id":"5aX40vEZx2zegvRe_6xVOg","name":"Phillips Heating & Ac Company","latitude":40.4219381,"longitude":-79.9863826,"address":"1100 E Warrington Ave","city":"Pittsburgh","state":"PA","stars":3.5,"review_count":5,"is_open":1},{"business_id":"CWkBmvB7l4VmP8KYzFee8A","name":"Cosmopolitan","latitude":40.5373567,"longitude":-80.0077699,"address":"3001 McKnight East Dr","city":"Pittsburgh","state":"PA","stars":2.5,"review_count":3,"is_open":1},{"business_id":"82gUcpp_Z04hJaIjjnH4xA","name":"A 1 Garage Door Repair Service","latitude":40.43406,"longitude":-79.922454,"address":"5904 Nicholson St","city":"Pittsburgh","state":"PA","stars":5.0,"review_count":13,"is_open":1},{"business_id":"IJmdmMocPjUncD7_P7zFeQ","name":"Three Rivers Inspection","latitude":40.5300371,"longitude":-80.0096644,"address":"4885-A Mcknight Rd, Ste 292","city":"Pittsburgh","state":"PA","stars":5.0,"review_count":4,"is_open":1},{"business_id":"XFM9rIlQdC4xAs3-0wLi1g","name":"Chuck Willis Heating & Air Conditioning","latitude":40.3338608,"longitude":-79.9854677,"address":"5566 Brownsville Rd","city":"Pittsburgh","state":"PA","stars":3.0,"review_count":4,"is_open":1},{"business_id":"eOLfiaG_MZcayR2j4kwSjQ","name":"Mr Maid Residential and Commercial Cleaning","latitude":40.457865,"longitude":-80.049573,"address":"2945 Brunot Ave","city":"Pittsburgh","state":"PA","stars":2.5,"review_count":8,"is_open":1},{"business_id":"tlH2CjTTiEJGg4A_72poUw","name":"College Movers","latitude":40.440658204,"longitude":-79.9920200195,"address":"","city":"Pittsburgh","state":"PA","stars":2.0,"review_count":9,"is_open":1},{"business_id":"cX7kicx9DXngqHaSCdEW9Q","name":"Allied Remediation Technical Services","latitude":40.3509675,"longitude":-79.9136731,"address":"","city":"Pittsburgh","state":"PA","stars":3.5,"review_count":5,"is_open":1},{"business_id":"ffGcwWPIEP4-Wg4u5VDFBQ","name":"Jelly's Garage Doors","latitude":40.3387475,"longitude":-79.957345,"address":"168 Clairton Blvd","city":"Pittsburgh","state":"PA","stars":5.0,"review_count":5,"is_open":1},{"business_id":"hh_Ix0t9xIkHLp0nKsyiAQ","name":"Allstar Arbor Tree Service","latitude":40.4417703,"longitude":-80.0870155,"address":"","city":"Pittsburgh","state":"PA","stars":5.0,"review_count":5,"is_open":1},{"business_id":"NphpwdYWWEy9aUH7vSoZSw","name":"PNC Bank","latitude":40.421825649,"longitude":-79.9286001921,"address":"4301 Murray Ave","city":"Pittsburgh","state":"PA","stars":2.0,"review_count":4,"is_open":1},{"business_id":"qXItwbCy10dwcrPNPEIGxw","name":"South Hills Electric Heating Cooling","latitude":40.382363,"longitude":-80.043744,"address":"615 Washington Rd, Ste 403","city":"Pittsburgh","state":"PA","stars":4.0,"review_count":3,"is_open":0},{"business_id":"W2CsjgycWpYFsLz3bPoJ5A","name":"Heinz Lofts by Amore Management","latitude":40.4539752,"longitude":-79.9910858,"address":"300 Heinz St","city":"Pittsburgh","state":"PA","stars":4.0,"review_count":17,"is_open":0},{"business_id":"NepC5a0mrRAAMkcplX7y4Q","name":"Casey Insulation","latitude":40.545118,"longitude":-80.068441,"address":"2032 Karen Dr","city":"Pittsburgh","state":"PA","stars":5.0,"review_count":5,"is_open":1},{"business_id":"Q-HphDiGP561Iw2AzsPB5A","name":"Ross Park Mall","latitude":40.5439917,"longitude":-80.0074183,"address":"1000 Ross Park Mall Dr","city":"Pittsburgh","state":"PA","stars":4.0,"review_count":115,"is_open":1},{"business_id":"uNh_TojmqWj5kbS3bb8h4A","name":"Duquesne Light","latitude":40.4428627,"longitude":-79.996412,"address":"411 7th Ave","city":"Pittsburgh","state":"PA","stars":1.0,"review_count":40,"is_open":1},{"business_id":"XJAIHrMdKWoBgAe5QAfxqQ","name":"Novel Coworking Golden Triangle","latitude":40.4417988,"longitude":-80.0013922,"address":"606 Liberty Ave","city":"Pittsburgh","state":"PA","stars":5.0,"review_count":4,"is_open":1},{"business_id":"HMja0LgKco-PcSAdWhyRPA","name":"The Fireplace and Patioplace","latitude":40.394803,"longitude":-80.046847,"address":"1651 McFarland Rd","city":"Pittsburgh","state":"PA","stars":3.0,"review_count":5,"is_open":1},{"business_id":"Ap0XfTMHy8oqVkhle6lzOQ","name":"Perfect Carpet Cleaning","latitude":40.4327086,"longitude":-79.9248669,"address":"","city":"Pittsburgh","state":"PA","stars":3.0,"review_count":5,"is_open":0},{"business_id":"klSntv3tI6P6NrhLdFATHg","name":"Listen Hear","latitude":40.4503833284,"longitude":-79.9358352669,"address":"818 S Aiken Ave","city":"Pittsburgh","state":"PA","stars":4.0,"review_count":3,"is_open":1},{"business_id":"oz8eHU_NLu9Q9D3lRjuI3g","name":"Ethan Allen","latitude":40.350296,"longitude":-80.0518452,"address":"1680 Washington Rd","city":"Pittsburgh","state":"PA","stars":2.5,"review_count":4,"is_open":1},{"business_id":"Eigs9pOqJYIlnQxC_LfdYQ","name":"Bauer Plumbing","latitude":40.5011912,"longitude":-80.0403043,"address":"400 Jacks Run Rd","city":"Pittsburgh","state":"PA","stars":1.5,"review_count":3,"is_open":1},{"business_id":"TH00_IqhT0bx_ujIcjtZ3w","name":"Fred's Tree & Lawn Service","latitude":40.3962069,"longitude":-79.983969,"address":"213 E Agnew Ave","city":"Pittsburgh","state":"PA","stars":2.5,"review_count":3,"is_open":1},{"business_id":"KZH0ceYeLm_NLj6ZrbfEcQ","name":"J A Sauer Heating & Air Conditioning","latitude":40.503598,"longitude":-80.000303,"address":"4559 Peoples Rd","city":"Pittsburgh","state":"PA","stars":3.5,"review_count":13,"is_open":1},{"business_id":"Sk-LwKRjGpaxNikkbNMOmw","name":"Witt Pest Management","latitude":40.4564865,"longitude":-79.9645292,"address":"3351 Bigelow Blvd","city":"Pittsburgh","state":"PA","stars":2.5,"review_count":3,"is_open":1},{"business_id":"DIGDwku2YcTyAZxyw7N9cg","name":"Comcast Service Center","latitude":40.343211,"longitude":-79.984457,"address":"5211 Brownsville Rd","city":"Pittsburgh","state":"PA","stars":1.0,"review_count":3,"is_open":0},{"business_id":"FYR3nVpNvY2X6dBu1Yp-8A","name":"A Party Place Rentals","latitude":40.5139867,"longitude":-80.0021259,"address":"2326 Babcock Blvd","city":"Pittsburgh","state":"PA","stars":5.0,"review_count":4,"is_open":1},{"business_id":"NQeskbyRmQEh6isnrIKgTQ","name":"Prime Moving Center","latitude":40.4222843,"longitude":-80.0367259,"address":"","city":"Pittsburgh","state":"PA","stars":4.0,"review_count":30,"is_open":1},{"business_id":"2Znd74abOdrWyXQfwbT0rg","name":"Inks Installations","latitude":40.2658153,"longitude":-80.0390512,"address":"1100 Wilhelm Ave","city":"Pittsburgh","state":"PA","stars":3.0,"review_count":6,"is_open":1},{"business_id":"pNe7X3xLJmoLRD49vDiNxw","name":"Heinz Lofts","latitude":40.4543792,"longitude":-79.9902906,"address":"300 Heinz St","city":"Pittsburgh","state":"PA","stars":3.0,"review_count":5,"is_open":1},{"business_id":"Qp5tybVVvGqD4cxv4l5S7g","name":"Square View Apartments","latitude":40.463659,"longitude":-79.966869,"address":"3433 Butler St","city":"Pittsburgh","state":"PA","stars":2.5,"review_count":3,"is_open":1},{"business_id":"VUz0N7gX7EcS_CfxNyawQQ","name":"U-Pack Moving","latitude":40.451916,"longitude":-80.087311,"address":"770 Beechnut, Chartiers Ind Park","city":"Pittsburgh","state":"PA","stars":3.0,"review_count":11,"is_open":1},{"business_id":"1-sDd7CzBGG47ElyIWTq_Q","name":"1-800-GOT-JUNK? Pittsburgh City","latitude":40.4681173,"longitude":-79.9661753,"address":"3739 Foster St","city":"Pittsburgh","state":"PA","stars":4.5,"review_count":28,"is_open":1},{"business_id":"v8biQgKhr30QtRf6VnGeew","name":"World of Rugs","latitude":40.4531199,"longitude":-80.1654014,"address":"1955 Park Manor Blvd","city":"Pittsburgh","state":"PA","stars":3.5,"review_count":3,"is_open":1},{"business_id":"Q1AEXqXg5aGsF2bQuVr-bg","name":"Bolster-DeHart","latitude":40.530507,"longitude":-80.04258,"address":"333 Rochester Rd","city":"Pittsburgh","state":"PA","stars":4.0,"review_count":6,"is_open":1},{"business_id":"5ECSyjTywswbyqwpeZR-mg","name":"Gene Sanes","latitude":40.4495829,"longitude":-79.986713,"address":"1645 Penn Ave","city":"Pittsburgh","state":"PA","stars":3.5,"review_count":7,"is_open":1},{"business_id":"scdpdm4oBujXQsyGjxcXTA","name":"E&J Management","latitude":40.4328392631,"longitude":-79.9251243921,"address":"","city":"Pittsburgh","state":"PA","stars":2.0,"review_count":10,"is_open":1},{"business_id":"EJxh6Zkd3JOTrBTEzK0OSw","name":"Michael Hoban - Coldwell Banker Real Estate Services","latitude":40.4382747,"longitude":-79.9198168,"address":"5887 Forbes Ave","city":"Pittsburgh","state":"PA","stars":3.5,"review_count":3,"is_open":1},{"business_id":"NzIj9xMNpAFkzCaklFSu7Q","name":"Crescent Baths and Kitchens","latitude":40.4892859,"longitude":-79.9367723,"address":"6301 Butler St","city":"Pittsburgh","state":"PA","stars":2.5,"review_count":3,"is_open":1},{"business_id":"Hp7aJpZw4PLjWkb9VB2Zlg","name":"Equity Real Estate","latitude":40.4338771,"longitude":-79.9227206,"address":"2029 Murray Ave","city":"Pittsburgh","state":"PA","stars":1.5,"review_count":15,"is_open":1},{"business_id":"2MQLD5la1kE6n0-DcIVu7g","name":"The Home Depot","latitude":40.429268,"longitude":-79.805365,"address":"3550 William Penn Hwy","city":"Pittsburgh","state":"PA","stars":2.5,"review_count":19,"is_open":1},{"business_id":"dimzfXYAXpeYKGWiuQqyAA","name":"Vince Marino Plumbing","latitude":40.4333,"longitude":-79.9532,"address":"3324 Dawson St","city":"Pittsburgh","state":"PA","stars":4.0,"review_count":8,"is_open":1},{"business_id":"CQbxcD7b6SjBwk7EOA0PcQ","name":"Extended Stay America - Pittsburgh - Airport","latitude":40.4502324,"longitude":-80.1843244,"address":"200 Chauvet Dr.","city":"Pittsburgh","state":"PA","stars":2.0,"review_count":15,"is_open":1},{"business_id":"vDy8SAJ5TyoCmgHSybLY_A","name":"Metropolitan Window Company","latitude":40.3551547,"longitude":-79.9796264,"address":"4672 Clairton Blvd","city":"Pittsburgh","state":"PA","stars":5.0,"review_count":5,"is_open":1},{"business_id":"qoYm3Imr-Pxb2bzS1PK7aw","name":"Tyler Mountain Water","latitude":40.4660024,"longitude":-79.7693513,"address":"1 Commerce Dr","city":"Pittsburgh","state":"PA","stars":2.5,"review_count":6,"is_open":1},{"business_id":"BGkpUKqCNPGPHvhQ2J9mwQ","name":"South Hills Plumbing & Heating","latitude":40.3845997,"longitude":-80.0157241,"address":"3049 Sussex Ave","city":"Pittsburgh","state":"PA","stars":3.5,"review_count":5,"is_open":1},{"business_id":"aphuHjFYn3Jat89QzPkuvQ","name":"Cavacini Landscaping & Garden Center","latitude":40.4788496,"longitude":-79.9574353,"address":"100 50th St","city":"Pittsburgh","state":"PA","stars":4.0,"review_count":9,"is_open":1},{"business_id":"HU9EJJo9QvY4uVUXXx6aHA","name":"Citywide Garage Door","latitude":40.3950911,"longitude":-79.986411,"address":"2001 Brownsville Rd","city":"Pittsburgh","state":"PA","stars":5.0,"review_count":5,"is_open":1},{"business_id":"J2qb5umFFehZl86L8ebtpQ","name":"Grandview Pointe","latitude":40.4385948,"longitude":-80.0212938,"address":"1411 Grandview Ave","city":"Pittsburgh","state":"PA","stars":3.5,"review_count":3,"is_open":1},{"business_id":"7kTvKdjVCrpFarLOj8rOxQ","name":"Always Open Locksmith","latitude":40.411701,"longitude":-80.020371,"address":"1514 Rockland Ave","city":"Pittsburgh","state":"PA","stars":4.0,"review_count":7,"is_open":1},{"business_id":"4RMeoTag14FKnLlMJBA5fA","name":"Verizon","latitude":40.3307929,"longitude":-79.9439282,"address":"639C Clairton Blvd","city":"Pittsburgh","state":"PA","stars":4.0,"review_count":3,"is_open":1},{"business_id":"0V18DVA3-zq9B0FWxe2unA","name":"Five Star Roofing of Pittsburgh","latitude":40.398151,"longitude":-80.0356543,"address":"2838 Broadway Ave, Ste 9","city":"Pittsburgh","state":"PA","stars":3.0,"review_count":4,"is_open":1},{"business_id":"1jMtot685bxNT7oeSTNCaA","name":"Construction Junction","latitude":40.4496169181,"longitude":-79.8988556098,"address":"214 N Lexington St","city":"Pittsburgh","state":"PA","stars":4.5,"review_count":51,"is_open":1},{"business_id":"9oyuuZrqjMivcwm5ludtag","name":"PNC Bank","latitude":40.4297196,"longitude":-80.0075079,"address":"236 Shiloh St","city":"Pittsburgh","state":"PA","stars":2.5,"review_count":3,"is_open":1},{"business_id":"PBGKvoyw6TKyT0viNfPNag","name":"Sauer Brothers Heating & Cooling","latitude":40.5029639,"longitude":-79.9475036,"address":"637 Butler St","city":"Pittsburgh","state":"PA","stars":2.0,"review_count":4,"is_open":1},{"business_id":"uf_tGNDLES2s1eD2pPCwJw","name":"Comcast Service Center","latitude":40.462915,"longitude":-79.827233,"address":"30 Federal Dr","city":"Pittsburgh","state":"PA","stars":2.0,"review_count":6,"is_open":1},{"business_id":"YUwEcCcpID71w6Rc0ICo1A","name":"Windo Van Go Window Treatments Pittsburgh","latitude":40.451096,"longitude":-79.9332613,"address":"","city":"Pittsburgh","state":"PA","stars":4.0,"review_count":4,"is_open":1},{"business_id":"swylOJU_WL71xWPDhEiQDQ","name":"Batteries Plus Bulbs","latitude":40.524993,"longitude":-80.005025,"address":"4808 McKnight Rd","city":"Pittsburgh","state":"PA","stars":3.0,"review_count":7,"is_open":1},{"business_id":"70lt1osGzOT5NI16On-jtw","name":"Smuts Brothers Debris Removal","latitude":40.4034179,"longitude":-79.9360593,"address":"","city":"Pittsburgh","state":"PA","stars":5.0,"review_count":4,"is_open":1},{"business_id":"h3bpqZuXylfkbFNhZxQ2Vw","name":"Kefalos & Associates Real Estate","latitude":40.4382854038,"longitude":-79.8921579323,"address":"717 S Trenton Ave","city":"Pittsburgh","state":"PA","stars":4.0,"review_count":12,"is_open":1},{"business_id":"3iqQtmadrOBqCRAZPLNmzA","name":"Keystone Building Inspections","latitude":40.453109,"longitude":-80.165413,"address":"1936 Park Manor Blvd","city":"Pittsburgh","state":"PA","stars":3.5,"review_count":3,"is_open":1},{"business_id":"-EDuHuPmOSh-1iWUbYDJUw","name":"R&G Remodeling & Construction","latitude":40.363582,"longitude":-80.012127,"address":"134 Grove Rd","city":"Pittsburgh","state":"PA","stars":2.5,"review_count":3,"is_open":1},{"business_id":"9bHene6vJBZLrZ4eZRI_Rw","name":"G & J Waterproofing","latitude":40.4974532,"longitude":-80.0603445,"address":"","city":"Pittsburgh","state":"PA","stars":2.0,"review_count":5,"is_open":1},{"business_id":"0Sdfg6VQqWUAtP3dSIQcpw","name":"BabyBird Electric","latitude":40.4263832,"longitude":-80.1138508,"address":"4250 Campbells Run Rd","city":"Pittsburgh","state":"PA","stars":3.5,"review_count":3,"is_open":1},{"business_id":"3dw_54iPoIhKRk95xczvLA","name":"Pittsburgh Drain Guys","latitude":40.4123647,"longitude":-79.9864013,"address":"119 Ormsby Ave","city":"Pittsburgh","state":"PA","stars":4.5,"review_count":4,"is_open":1},{"business_id":"A3WrONkRVTCNuVP9NtM4VQ","name":"Cost A F & Sons","latitude":40.4189807,"longitude":-79.845277,"address":"314 Lenox Ave","city":"Pittsburgh","state":"PA","stars":2.5,"review_count":11,"is_open":1},{"business_id":"L32nZnv2lnW1ydbg_7fOXA","name":"Kelly John C R Realty","latitude":40.4347808,"longitude":-79.9547123,"address":"3535 Blvd of the Allies","city":"Pittsburgh","state":"PA","stars":2.0,"review_count":23,"is_open":1},{"business_id":"k2yn9y-14zFOwc3eaTqFDg","name":"Pittsburgh Pet Fence","latitude":40.3747044,"longitude":-80.0702555,"address":"","city":"Pittsburgh","state":"PA","stars":5.0,"review_count":5,"is_open":1},{"business_id":"UA9YbIJRQE9QEHVb7bYIxg","name":"Dollar Bank","latitude":40.3668,"longitude":-79.981359,"address":"700 Towne Square Way","city":"Pittsburgh","state":"PA","stars":2.0,"review_count":8,"is_open":1},{"business_id":"xYWaZbm000UvTrI2Icb5eQ","name":"Compass Self Storage","latitude":40.4579438,"longitude":-79.9089503,"address":"6921 5th Ave","city":"Pittsburgh","state":"PA","stars":3.5,"review_count":7,"is_open":1},{"business_id":"fBqqQk2gYptrNEtxOGrfog","name":"Mark J. Puharic Plumbing & Heating","latitude":40.4630012,"longitude":-80.0198033,"address":"2137 N Charles St","city":"Pittsburgh","state":"PA","stars":3.0,"review_count":4,"is_open":1},{"business_id":"rVNbAHFsrm1kCdZsf8CLQw","name":"McVAY PLUMBING COMPANY","latitude":40.484171,"longitude":-79.8094629,"address":"6421 Saltsburg Rd","city":"Pittsburgh","state":"PA","stars":3.0,"review_count":10,"is_open":1},{"business_id":"pbMDTNu5pgggGPnyrlNaxA","name":"J R's Lawn & Tree","latitude":40.5610745,"longitude":-80.0394123,"address":"","city":"Pittsburgh","state":"PA","stars":3.5,"review_count":5,"is_open":1},{"business_id":"DytnPzye-7b4V73A7NiiUA","name":"E Properties and Development","latitude":40.4750848,"longitude":-79.9579218,"address":"4735 Butler St","city":"Pittsburgh","state":"PA","stars":2.5,"review_count":6,"is_open":1},{"business_id":"Nl0CqSkr-X2R4CMrTIEPWg","name":"Christy Plumbing & Heating","latitude":40.535121,"longitude":-80.0196396,"address":"3350 Babcock Blvd","city":"Pittsburgh","state":"PA","stars":1.0,"review_count":3,"is_open":1},{"business_id":"hzoyB26xKWFsAJiC9f54Fg","name":"Pittsburgh Movers","latitude":40.4389346,"longitude":-80.0006236,"address":"320 4th Ave","city":"Pittsburgh","state":"PA","stars":1.5,"review_count":5,"is_open":1},{"business_id":"F0xCac4hgz_hq10dhYGoOA","name":"Day & Night Heating & Air Conditioning","latitude":40.4173054,"longitude":-79.972867,"address":"2400 Arlington Ave","city":"Pittsburgh","state":"PA","stars":3.0,"review_count":4,"is_open":1},{"business_id":"iSgaX_zTLIjNYJJHK3_wNg","name":"G.I.Haul","latitude":40.4484504,"longitude":-79.9468225,"address":"4716 Ellsworth Ave","city":"Pittsburgh","state":"PA","stars":5.0,"review_count":8,"is_open":1},{"business_id":"lJSDU3MMviGVQphgp4Fa6g","name":"Omega Radon Measurement And Mitigation","latitude":40.4034179,"longitude":-79.9360593,"address":"","city":"Pittsburgh","state":"PA","stars":1.5,"review_count":3,"is_open":1},{"business_id":"jCTP36Pg2jYMdLgQM_Jt2Q","name":"Woehler Landscaping","latitude":40.4523598,"longitude":-79.8571907,"address":"1527 Hollywood Dr","city":"Pittsburgh","state":"PA","stars":4.0,"review_count":4,"is_open":1},{"business_id":"fobyia7GtBCuftFKXhTfow","name":"Rockwel Realty","latitude":40.4855836,"longitude":-79.9264442,"address":"1748 Jancey St","city":"Pittsburgh","state":"PA","stars":4.0,"review_count":11,"is_open":1},{"business_id":"QKVCm-Cv-fFVVNAq2vwaDg","name":"Little Bear Construction","latitude":40.3747044,"longitude":-80.0702555,"address":"","city":"Pittsburgh","state":"PA","stars":3.5,"review_count":5,"is_open":1},{"business_id":"LX7C6KDWXIUL2Wxoe3_lnA","name":"Another Mother","latitude":40.4335879,"longitude":-79.9228498,"address":"2101 Murray Ave","city":"Pittsburgh","state":"PA","stars":5.0,"review_count":3,"is_open":1},{"business_id":"OpoA5j5ohq8UqXpsyAXxpw","name":"Governors Ridge","latitude":40.5164044,"longitude":-80.0027231,"address":"112 Hilands Pl","city":"Pittsburgh","state":"PA","stars":1.5,"review_count":7,"is_open":1},{"business_id":"VKro05LNiOkRCbYwxpKwtQ","name":"Berkshire Hathaway HomeServices The Preferred Realty","latitude":40.352326,"longitude":-80.050116,"address":"1679 Washington Rd","city":"Pittsburgh","state":"PA","stars":3.5,"review_count":6,"is_open":1},{"business_id":"3PgS9eImntIoFvou61jdrg","name":"Appliance Service Center","latitude":40.4149513,"longitude":-79.9879186,"address":"238 Brownsville Rd","city":"Pittsburgh","state":"PA","stars":2.0,"review_count":8,"is_open":1},{"business_id":"L_LGo8Fc3pPfm0BT-b0QXw","name":"South Side Plumbing & Heating","latitude":40.4279915,"longitude":-79.9775811,"address":"95 S 20th St","city":"Pittsburgh","state":"PA","stars":2.0,"review_count":13,"is_open":1},{"business_id":"IapQwLdAwztQYN99pQui3w","name":"The Cork Factory","latitude":40.4544251,"longitude":-79.9830472,"address":"2349 Railroad St","city":"Pittsburgh","state":"PA","stars":3.5,"review_count":18,"is_open":1},{"business_id":"YHHgaonemE54NWuZigDHvw","name":"Realty Counseling","latitude":40.42847,"longitude":-79.9879909,"address":"1012 E Carson St","city":"Pittsburgh","state":"PA","stars":2.0,"review_count":6,"is_open":1},{"business_id":"oEqvC02g0ObZgQnvif9mUw","name":"XFINITY","latitude":40.4475255,"longitude":-79.9933976,"address":"","city":"Pittsburgh","state":"PA","stars":1.5,"review_count":37,"is_open":1},{"business_id":"m84EbSrhieB8oNlNN6kGUg","name":"SamSon Heating & Cooling","latitude":40.488639,"longitude":-80.039423,"address":"3910 Shoreham St","city":"Pittsburgh","state":"PA","stars":3.5,"review_count":5,"is_open":1},{"business_id":"tlNezzMIyVosTA00t5oVtQ","name":"John Hancock Contracting","latitude":40.4833839,"longitude":-80.0030522,"address":"33 Colby Ter","city":"Pittsburgh","state":"PA","stars":1.5,"review_count":6,"is_open":1},{"business_id":"mrKS7K6ljEOwOFdnhPawCA","name":"Hot Haute Hot","latitude":40.4520298,"longitude":-79.982287,"address":"2124 Penn Ave","city":"Pittsburgh","state":"PA","stars":4.0,"review_count":23,"is_open":1},{"business_id":"sMi5Yhlvffn0LU-r6TvU8Q","name":"Young Brothers Flooring","latitude":40.5573755,"longitude":-80.0391057,"address":"8232 Perry Hwy","city":"Pittsburgh","state":"PA","stars":4.0,"review_count":3,"is_open":1},{"business_id":"9sKLopAUoaIyKN-qZlfPhw","name":"Associated Electric","latitude":40.4835075,"longitude":-79.9505327,"address":"5427 Butler St","city":"Pittsburgh","state":"PA","stars":2.0,"review_count":10,"is_open":1},{"business_id":"WnTuXsL1ztWA8ylOzEHu_w","name":"Tile and Designs","latitude":40.4581938,"longitude":-79.927053,"address":"229 Spahr St","city":"Pittsburgh","state":"PA","stars":3.5,"review_count":9,"is_open":1},{"business_id":"bGYC-VmRdjWiEEQPW3RtuA","name":"Naturally Clean","latitude":40.3891239,"longitude":-80.0421291,"address":"5124 Penn Ave","city":"Pittsburgh","state":"PA","stars":2.0,"review_count":12,"is_open":1},{"business_id":"hw16uLWSEms7Jp0MnJSohg","name":"PNC Bank","latitude":40.4389206613,"longitude":-79.9972325563,"address":"437 Grant St","city":"Pittsburgh","state":"PA","stars":1.5,"review_count":3,"is_open":1},{"business_id":"LyFv6E91u8JK2IA8CmzqWg","name":"COIT Cleaning and Restoration of Pittsburgh","latitude":40.4650652,"longitude":-79.8296838,"address":"11563 Frankstown Rd","city":"Pittsburgh","state":"PA","stars":2.0,"review_count":6,"is_open":1},{"business_id":"9I9tJRp1pfgkrHESCrHRbA","name":"Busy Beaver","latitude":40.3753075,"longitude":-80.0059324,"address":"2940 Library Rd","city":"Pittsburgh","state":"PA","stars":3.5,"review_count":6,"is_open":1},{"business_id":"r-Ey-JnNr2AI_mPJs80Eeg","name":"Wylie Holdings","latitude":40.4801664,"longitude":-79.9543855,"address":"5170 Butler St","city":"Pittsburgh","state":"PA","stars":3.0,"review_count":8,"is_open":1},{"business_id":"JWVileXZR8qs_BbXW5yPKg","name":"Dell'Aquila Plastering","latitude":40.4586216,"longitude":-79.8184684,"address":"","city":"Pittsburgh","state":"PA","stars":5.0,"review_count":7,"is_open":1},{"business_id":"wCZz0T3CIoWhWly0-yDzGg","name":"Everlast Aluminum Products","latitude":40.3849249,"longitude":-80.0158879,"address":"3025 Sussex Ave","city":"Pittsburgh","state":"PA","stars":5.0,"review_count":4,"is_open":1},{"business_id":"mMAVfWncjqX8FVj_c50hJw","name":"Two Men and a Truck Pittsburgh","latitude":40.3527409,"longitude":-80.0230571,"address":"3555 Valley Dr","city":"Pittsburgh","state":"PA","stars":3.5,"review_count":22,"is_open":1},{"business_id":"1NLPMOuZsYzIDoxSOv4uyg","name":"Voyager Vanlines","latitude":40.420335,"longitude":-80.030114,"address":"1150 Banksville Rd","city":"Pittsburgh","state":"PA","stars":2.0,"review_count":4,"is_open":1},{"business_id":"TF0_MWJuoeDEQBEvWe_4OQ","name":"Lawn Love Lawn Care","latitude":40.4383265,"longitude":-79.9990769,"address":"301 Grant St, Ste 4300B, 1 Oxford Centre","city":"Pittsburgh","state":"PA","stars":1.0,"review_count":3,"is_open":1},{"business_id":"08tyANPXsgIyylzcesVidA","name":"Complete Home Services","latitude":40.4475255,"longitude":-79.9933976,"address":"","city":"Pittsburgh","state":"PA","stars":1.5,"review_count":20,"is_open":1},{"business_id":"lUFf339te1hWQAI-g-26gQ","name":"Staab & Sons, Inc.","latitude":40.3935679,"longitude":-79.9971302,"address":"1921 Saw Mill Run Blvd","city":"Pittsburgh","state":"PA","stars":2.0,"review_count":4,"is_open":1},{"business_id":"2dNjePYVp2AVei4ZoSDaaA","name":"The Goldmark","latitude":40.472757,"longitude":-79.9592404,"address":"4517 Butler St","city":"Pittsburgh","state":"PA","stars":3.5,"review_count":26,"is_open":1},{"business_id":"OjhObYA85vYm8F-QOnb_Hg","name":"Kamin Realty","latitude":40.4549935,"longitude":-79.9211066,"address":"401 Shady Ave, Ste A101","city":"Pittsburgh","state":"PA","stars":2.0,"review_count":5,"is_open":1},{"business_id":"wQLG7dbGhYSXZRBDT9kvcA","name":"Poremski Stephen R Plumbing","latitude":40.316787,"longitude":-80.0694916,"address":"3480 Myrna Dr","city":"Pittsburgh","state":"PA","stars":4.5,"review_count":3,"is_open":1},{"business_id":"EzXPaZRoe3IYcsBCZwy7Vg","name":"Flats on Fifth","latitude":40.4386444,"longitude":-79.9828243,"address":"1655 5th Ave","city":"Pittsburgh","state":"PA","stars":3.0,"review_count":3,"is_open":1},{"business_id":"rdusmw5BzRHBgKglyGvUVg","name":"Verizon","latitude":40.4543802775,"longitude":-80.1690629277,"address":"1970 Park Manor Blvd","city":"Pittsburgh","state":"PA","stars":3.0,"review_count":7,"is_open":1},{"business_id":"njiMMsP4PB5NHsVID-cLXA","name":"Lachina Drapery & Blind Factory","latitude":40.4586499,"longitude":-79.9317508,"address":"5750 Baum Blvd","city":"Pittsburgh","state":"PA","stars":3.0,"review_count":5,"is_open":1},{"business_id":"wEnXviT8XCjdC7MyixnOfw","name":"We DO Property Management","latitude":40.4436012,"longitude":-79.9965209,"address":"945 Liberty Ave","city":"Pittsburgh","state":"PA","stars":1.0,"review_count":3,"is_open":1},{"business_id":"JUO2m0_daRrDq9kdZ0j1Nw","name":"Cuccaro Plumbing","latitude":40.4566527695,"longitude":-79.9013499687,"address":"7007 Kelly St","city":"Pittsburgh","state":"PA","stars":2.0,"review_count":3,"is_open":1},{"business_id":"RZ0P-uT6PkRraGvGDFQe8A","name":"Valinsky Realty","latitude":40.4327086,"longitude":-79.9248669,"address":"","city":"Pittsburgh","state":"PA","stars":5.0,"review_count":4,"is_open":1},{"business_id":"BXA-j343pinYPFVQ2n8S5Q","name":"Cathedral Mansions Apartments","latitude":40.4483713,"longitude":-79.9466819,"address":"4716 Ellsworth Ave","city":"Pittsburgh","state":"PA","stars":3.0,"review_count":4,"is_open":1},{"business_id":"6IKgKHZci-8mUtnvGh4S2g","name":"The Cascades Townhomes and Apartments","latitude":40.506585,"longitude":-80.021165,"address":"100 E West Dr","city":"Pittsburgh","state":"PA","stars":1.0,"review_count":8,"is_open":1},{"business_id":"Zq93ytOMX9sGDyTHYzcZNQ","name":"Batteries Plus Bulbs","latitude":40.430756,"longitude":-79.810004,"address":"3467 William Penn Hwy","city":"Pittsburgh","state":"PA","stars":2.5,"review_count":3,"is_open":1},{"business_id":"uwLkwrde1EYzLVV227VUIw","name":"Rex Glass & Mirror Company","latitude":40.4503687,"longitude":-80.1048408,"address":"108 Kisow Dr","city":"Pittsburgh","state":"PA","stars":4.5,"review_count":5,"is_open":1},{"business_id":"LcOMXdqCtQY-2e2YzNTr3w","name":"PNC Bank","latitude":40.441073,"longitude":-79.9947542,"address":"600 Grant St","city":"Pittsburgh","state":"PA","stars":2.0,"review_count":9,"is_open":1},{"business_id":"Ms2-0vZ0rkjqhpML0Tow1Q","name":"Maid With Care","latitude":40.320046,"longitude":-80.111235,"address":"1121 Boyce Rd, Ste 1700-B, Sainte Claire Plaza","city":"Pittsburgh","state":"PA","stars":3.0,"review_count":6,"is_open":1},{"business_id":"v_BoT7GFDSKJ0IF5d9g_SA","name":"Lowe's","latitude":40.450455,"longitude":-80.171593,"address":"400 Davis Blvd","city":"Pittsburgh","state":"PA","stars":3.0,"review_count":15,"is_open":1},{"business_id":"Y26jNIMNRSCRX3wCvHByUg","name":"White Heating","latitude":40.541809,"longitude":-80.027543,"address":"3467 Babcock Blvd","city":"Pittsburgh","state":"PA","stars":5.0,"review_count":8,"is_open":1},{"business_id":"Ta5co4lXtJqSgtj8RYFkIg","name":"T&Y Flooring","latitude":40.4286503,"longitude":-79.9229685,"address":"5845 Alderson St","city":"Pittsburgh","state":"PA","stars":5.0,"review_count":3,"is_open":1},{"business_id":"e09MhZdYv04pFxAcCfZ-GQ","name":"Pittsburgh Furniture Leasing & Sales","latitude":40.4528849768,"longitude":-80.0279123141,"address":"1200 Chateau St","city":"Pittsburgh","state":"PA","stars":5.0,"review_count":5,"is_open":1},{"business_id":"L1Mb8BRkj69o74YEryCHNA","name":"Hallmark Cleaners","latitude":40.540547,"longitude":-80.025597,"address":"3461 Babcock Blvd","city":"Pittsburgh","state":"PA","stars":3.0,"review_count":19,"is_open":1},{"business_id":"nIBwnhQC-dKxVU5yD6g1pQ","name":"Industrious Pittsburgh","latitude":40.439802,"longitude":-80.003201,"address":"One PPG Pl, 31st Fl","city":"Pittsburgh","state":"PA","stars":5.0,"review_count":17,"is_open":1},{"business_id":"J_ujz5IES-UVM5nZbC6CJw","name":"Keith Kartman Construction","latitude":40.3961657,"longitude":-80.0308578,"address":"2764 Amman St","city":"Pittsburgh","state":"PA","stars":2.5,"review_count":3,"is_open":1},{"business_id":"YaUpqDbMFzZl6YunzqVz6A","name":"Window Nation","latitude":40.4708258,"longitude":-80.2170831,"address":"400 Industry Dr, Ste 210","city":"Pittsburgh","state":"PA","stars":1.5,"review_count":7,"is_open":1},{"business_id":"KcgQpAEgcf3OyWP1hYozHw","name":"Lighting by Erik","latitude":40.3908978,"longitude":-80.0391074,"address":"3109 W Liberty Ave","city":"Pittsburgh","state":"PA","stars":2.5,"review_count":10,"is_open":1},{"business_id":"1YT9OtoDUXeNUFDF07k35A","name":"Verizon Authorized Retailer - Wireless Zone","latitude":40.5689551179,"longitude":-80.0248359293,"address":"9028 St Simon Way","city":"Pittsburgh","state":"PA","stars":3.5,"review_count":3,"is_open":1},{"business_id":"oSP0kvZuKJAS-lG4-gAesg","name":"Poillucci Plumbing","latitude":40.4798721,"longitude":-79.9549444,"address":"5155 Butler St","city":"Pittsburgh","state":"PA","stars":3.0,"review_count":7,"is_open":1},{"business_id":"mvV9C_gb55jviux9z_651w","name":"Take Over Lease","latitude":40.4402101,"longitude":-79.9863197,"address":"1420 Centre Ave","city":"Pittsburgh","state":"PA","stars":4.0,"review_count":23,"is_open":1},{"business_id":"9xJCIKk6BGPMu-iiQTMpNg","name":"Market Real Estate","latitude":40.4403826,"longitude":-80.0023469,"address":"6 Market Square","city":"Pittsburgh","state":"PA","stars":3.5,"review_count":3,"is_open":1},{"business_id":"u63Pms8h9LCtW4FmqUAouA","name":"Steel City Landscape","latitude":40.5319601,"longitude":-80.0461402,"address":"383 Rochester Rd","city":"Pittsburgh","state":"PA","stars":1.0,"review_count":3,"is_open":1},{"business_id":"To7hLxGbJ319OcQC0v2_fQ","name":"RE 360","latitude":40.4211893,"longitude":-79.9928296,"address":"829 Industry St","city":"Pittsburgh","state":"PA","stars":2.5,"review_count":21,"is_open":1},{"business_id":"OhP1Yy821c6itrUG9oiXbQ","name":"Alphonso and Son","latitude":40.439631073,"longitude":-80.1071548462,"address":"2905 Idlewild Rd","city":"Pittsburgh","state":"PA","stars":3.5,"review_count":3,"is_open":1},{"business_id":"xQ2akzTUVO5m4FmbR8FzKg","name":"Perkins Tree Service","latitude":40.518742,"longitude":-80.0520347804,"address":"552 Union Ave","city":"Pittsburgh","state":"PA","stars":5.0,"review_count":3,"is_open":1},{"business_id":"XDEoW3CfiDgFKnrTEFTQJQ","name":"Penn Bridge Land & Abstract Company","latitude":40.535617,"longitude":-80.006537,"address":"700 McKnight Park Dr","city":"Pittsburgh","state":"PA","stars":2.5,"review_count":3,"is_open":1},{"business_id":"XH6BGTLcQPx1YPMpU98w1w","name":"Reliance First Capital","latitude":40.4214702,"longitude":-80.0628347,"address":"681 Andersen Dr, Ste 500","city":"Pittsburgh","state":"PA","stars":3.0,"review_count":4,"is_open":1},{"business_id":"mia3GfhTD-6ZES_cCXIHtA","name":"Master Remodelers","latitude":40.3665792,"longitude":-80.0194976,"address":"3630 Elm Ave","city":"Pittsburgh","state":"PA","stars":4.0,"review_count":5,"is_open":1},{"business_id":"vIKhXVBZZc0IwiHNBXK7Mg","name":"The Pennsylvanian Apartments","latitude":40.444228,"longitude":-79.9922328,"address":"1100 Liberty Ave","city":"Pittsburgh","state":"PA","stars":2.5,"review_count":16,"is_open":1},{"business_id":"0BMxAxQsmC5DOufWo-IFTQ","name":"Jane Bloch - Coldwell Banker","latitude":40.58147,"longitude":-80.037017,"address":"9600 Perry Hwy, Ste 100","city":"Pittsburgh","state":"PA","stars":5.0,"review_count":3,"is_open":1},{"business_id":"oVSsRjZlXHtOxRE6VsFSOw","name":"PNC Bank","latitude":40.4519130666,"longitude":-79.9319717288,"address":"5601 Walnut St","city":"Pittsburgh","state":"PA","stars":3.5,"review_count":7,"is_open":1},{"business_id":"dGjXaHDqwihzOCNXBesSZA","name":"The Home Depot","latitude":40.4530866481,"longitude":-80.1829969883,"address":"440 Home Dr","city":"Pittsburgh","state":"PA","stars":2.0,"review_count":13,"is_open":1},{"business_id":"MKcMkLKOXszOBrUnHuhcAA","name":"Holiday Park Apartments","latitude":40.4632962,"longitude":-79.7042546,"address":"80 Sandune Dr, Ste A","city":"Pittsburgh","state":"PA","stars":2.5,"review_count":3,"is_open":1},{"business_id":"6jYxrACFy7R65nhTi37dZg","name":"KD's Klean Ups","latitude":40.442168,"longitude":-79.9949422,"address":"","city":"Pittsburgh","state":"PA","stars":2.0,"review_count":4,"is_open":1},{"business_id":"xi8D-CjJlH7ge1CgMfkdTg","name":"Residences of South Hills - Greystar","latitude":40.3410465,"longitude":-79.9792161,"address":"5492 Youngridge","city":"Pittsburgh","state":"PA","stars":1.0,"review_count":8,"is_open":0},{"business_id":"YD6o9PtV8jrdG8cgdt7BxA","name":"Dollar Bank","latitude":43.6824667278,"longitude":-79.4751869996,"address":"5822 Forbes Ave","city":"Pittsburgh","state":"PA","stars":1.5,"review_count":3,"is_open":1},{"business_id":"9W8y42tU_QdZCpb7U_o_ug","name":"Wizard Roofing & Asphalt","latitude":40.4293034,"longitude":-79.9724245,"address":"","city":"Pittsburgh","state":"PA","stars":2.5,"review_count":7,"is_open":1},{"business_id":"tL3WjA2lbXaMaXNF-PHwiA","name":"Weidner Heating & Air Conditioning","latitude":40.5151562,"longitude":-80.0298057,"address":"185 Perry Hwy","city":"Pittsburgh","state":"PA","stars":3.5,"review_count":3,"is_open":1},{"business_id":"rWbM8lnQbYrUlcENo1VDug","name":"US Film Crew","latitude":40.4429299,"longitude":-79.797669,"address":"4090 Old William Penn Hwy","city":"Pittsburgh","state":"PA","stars":4.0,"review_count":5,"is_open":1},{"business_id":"HQfBujqWw-bkZ_QqBm8-mw","name":"Choice Granite & Marble","latitude":40.493829,"longitude":-79.994578,"address":"803 Geyer Rd","city":"Pittsburgh","state":"PA","stars":2.5,"review_count":3,"is_open":1},{"business_id":"GZXO6dQTJkQQLTZWWmiupg","name":"Brittany Apartments","latitude":40.4441430654,"longitude":-79.8657495419,"address":"1717 Penn Ave","city":"Pittsburgh","state":"PA","stars":3.5,"review_count":3,"is_open":1},{"business_id":"1xExbYcT2SnnjyPXV5D0xQ","name":"Create-A-Frame Handworks Gallery","latitude":40.3824016,"longitude":-80.0437371,"address":"615 Washington Rd","city":"Pittsburgh","state":"PA","stars":4.0,"review_count":6,"is_open":1},{"business_id":"QordE0U6wC5dpx0NM4SYBQ","name":"Studio One Kitchen & Bath Specialists","latitude":40.4409244,"longitude":-79.9255561,"address":"5666 Northumberland St","city":"Pittsburgh","state":"PA","stars":3.5,"review_count":3,"is_open":1},{"business_id":"mWQiQjplvz6AdT97geSyng","name":"Hadad Services","latitude":40.4440053,"longitude":-79.8658752,"address":"1717 Penn Ave, Ste 320","city":"Pittsburgh","state":"PA","stars":5.0,"review_count":3,"is_open":1},{"business_id":"hUhosD725C6nbw9DfiRAxQ","name":"Auto Addictions","latitude":40.3739069,"longitude":-79.9825733,"address":"3350 Saw Mill Run Blvd","city":"Pittsburgh","state":"PA","stars":4.5,"review_count":7,"is_open":1},{"business_id":"P3LisOj7DktgGa7C5FYpnA","name":"Benjamin Franklin Plumbing","latitude":40.5345228,"longitude":-80.051088,"address":"451 Rochester Rd","city":"Pittsburgh","state":"PA","stars":3.0,"review_count":16,"is_open":1},{"business_id":"5a4yZKxvMsoD81h4kAXP_w","name":"Ace Lock","latitude":40.460455,"longitude":-79.925615,"address":"5964 Baum Blvd","city":"Pittsburgh","state":"PA","stars":4.5,"review_count":18,"is_open":1},{"business_id":"yp7d8CucDPP1L_yI-mTh1w","name":"Arnheim & Neely","latitude":40.4552885,"longitude":-79.954474,"address":"425 N Craig St, Ste 100","city":"Pittsburgh","state":"PA","stars":1.0,"review_count":3,"is_open":1},{"business_id":"tV2BohahmidJfGhEtPsxwg","name":"PNC Bank","latitude":40.4412560093,"longitude":-80.0010198355,"address":"225 5th Ave","city":"Pittsburgh","state":"PA","stars":2.0,"review_count":11,"is_open":1},{"business_id":"uxC9OVoio_IFDvs63MjcIg","name":"Mont Surfaces by Mont Granite","latitude":40.438933,"longitude":-80.0819965,"address":"302 W Steuben St","city":"Pittsburgh","state":"PA","stars":3.0,"review_count":4,"is_open":1},{"business_id":"XtnmIgn7uWXRA3RC-GLANA","name":"Affordable Fence & Railing","latitude":40.5179428,"longitude":-80.0931469,"address":"309 Camp Horne Rd","city":"Pittsburgh","state":"PA","stars":3.5,"review_count":3,"is_open":1},{"business_id":"otlK1lbYKNxmZLCZJmVzcg","name":"The Brix at 26","latitude":40.4267097,"longitude":-79.9684478,"address":"75 S 26th St","city":"Pittsburgh","state":"PA","stars":5.0,"review_count":12,"is_open":1},{"business_id":"VbnhrTziSx5PxWvzczcceg","name":"J Francis Company","latitude":40.4623115,"longitude":-79.987904,"address":"1410 High St","city":"Pittsburgh","state":"PA","stars":5.0,"review_count":4,"is_open":1},{"business_id":"PKSslavO2Bbgpl3dlTypgA","name":"Pittsburgh Moving Company","latitude":40.4242539,"longitude":-79.9997247,"address":"426 Iberia St","city":"Pittsburgh","state":"PA","stars":5.0,"review_count":7,"is_open":1},{"business_id":"6WItftahZ9lNFJxfDPSJ0Q","name":"Western PA Estate Liquidators","latitude":40.5682293,"longitude":-80.0422412,"address":"303 Pontiac Ave","city":"Pittsburgh","state":"PA","stars":2.5,"review_count":9,"is_open":0},{"business_id":"KMampeS8WUqSIJ5BFXy6LQ","name":"Wallflower Frames","latitude":40.4183513515,"longitude":-79.8488324596,"address":"2145 Ardmore Blvd","city":"Pittsburgh","state":"PA","stars":5.0,"review_count":3,"is_open":1},{"business_id":"E3BDs6Hvcxo5Z4YmWo0MNw","name":"Verizon","latitude":40.5348211674,"longitude":-80.0115367922,"address":"7209 Mcknight Rd","city":"Pittsburgh","state":"PA","stars":3.0,"review_count":12,"is_open":1},{"business_id":"cJljJTEXVp88GMxCRuJQ5Q","name":"Stahl Plumbing Heating & Air Conditioning","latitude":40.4218373,"longitude":-79.8883951,"address":"1924 McCague St","city":"Pittsburgh","state":"PA","stars":2.0,"review_count":27,"is_open":1},{"business_id":"dgfexUEV0_Cfsr4x5Y-zUw","name":"Greater Pittsburgh Tree Service","latitude":40.3778084,"longitude":-79.9884825,"address":"2828 Saw Mill Run Blvd","city":"Pittsburgh","state":"PA","stars":1.5,"review_count":8,"is_open":1},{"business_id":"6EbUsMCc-lJxFzf2fw0EMw","name":"Zen Windows - Pittsburgh","latitude":40.4511937,"longitude":-80.0047559,"address":"100 S Commons","city":"Pittsburgh","state":"PA","stars":5.0,"review_count":3,"is_open":1},{"business_id":"qCPPPZf_Q8oLXUILSF4vUA","name":"Jay Villella - RE\/MAX Select Realty","latitude":40.4625531,"longitude":-79.9275345,"address":"5807 Penn Ave","city":"Pittsburgh","state":"PA","stars":5.0,"review_count":5,"is_open":1},{"business_id":"W61iaHqX4RECgY4mJmXk_A","name":"Paul's Clock Repair","latitude":40.4499479,"longitude":-80.057519,"address":"1234 Straka St","city":"Pittsburgh","state":"PA","stars":5.0,"review_count":6,"is_open":1},{"business_id":"EFaTWneLBxdljhr0oW8hSg","name":"TruGreen Lawn Care","latitude":40.4499439,"longitude":-80.0986233,"address":"240 Bilmar Dr","city":"Pittsburgh","state":"PA","stars":2.5,"review_count":18,"is_open":1},{"business_id":"POpoUlUqzKQb-X0QUPlrFw","name":"NextHome PPM Realty","latitude":40.3888358,"longitude":-80.0417772,"address":"1308 Peermont Ave","city":"Pittsburgh","state":"PA","stars":4.0,"review_count":11,"is_open":1},{"business_id":"sTl6ZAzZYdhuhVl7uB3jCQ","name":"Washington's Landing Marina","latitude":40.4636255111,"longitude":-79.9779903889,"address":"100 Waterfront Dr","city":"Pittsburgh","state":"PA","stars":3.0,"review_count":3,"is_open":1},{"business_id":"VhcHbNAfYDoxefwGnK_Vyg","name":"King Electric Service","latitude":40.5102226,"longitude":-80.028314,"address":"5300 Perrysville Rd","city":"Pittsburgh","state":"PA","stars":4.5,"review_count":7,"is_open":1},{"business_id":"pOuzECEMlP-RLSbyrfM0Nw","name":"Thiry Tree Service","latitude":40.416079,"longitude":-79.936429,"address":"538 Frayne St","city":"Pittsburgh","state":"PA","stars":5.0,"review_count":3,"is_open":1},{"business_id":"VhHuM9NPyRyDQuc3elBx3w","name":"AllGood Home Improvements","latitude":40.438355,"longitude":-80.001983,"address":"","city":"Pittsburgh","state":"PA","stars":3.0,"review_count":6,"is_open":1},{"business_id":"qG9-_ypdkaRPNo-ZOo4R9w","name":"Pittsburgh Window & Door Co.","latitude":40.4792176,"longitude":-79.9673244,"address":"100 Evergreen Ave","city":"Pittsburgh","state":"PA","stars":4.5,"review_count":6,"is_open":1},{"business_id":"AHK7ECeiUzPm5lvll8osnQ","name":"1-800-Haul-Out","latitude":40.437535,"longitude":-79.979807,"address":"1850 Forbes Ave","city":"Pittsburgh","state":"PA","stars":3.5,"review_count":23,"is_open":1},{"business_id":"Bi8p2JS1Om4PKpf6lRNWVg","name":"PNC Bank","latitude":40.4466500673,"longitude":-79.948669821,"address":"4600 5th Ave","city":"Pittsburgh","state":"PA","stars":3.0,"review_count":7,"is_open":1},{"business_id":"C2fz2wURk6SnDEuxhb4__g","name":"DIRECTV","latitude":40.5053428,"longitude":-80.1079608,"address":"","city":"Pittsburgh","state":"PA","stars":1.0,"review_count":9,"is_open":1},{"business_id":"bRat7UMZ3vvwq9DhzzqvSQ","name":"Walnut Capital Management","latitude":40.4509831,"longitude":-79.9335455,"address":"5500 Walnut St","city":"Pittsburgh","state":"PA","stars":2.5,"review_count":20,"is_open":1},{"business_id":"5lTcS8XNX5oGvtCToJgPDg","name":"Victorian Finance","latitude":40.3199991,"longitude":-80.1148467,"address":"2570 Boyce Plaza Rd","city":"Pittsburgh","state":"PA","stars":2.5,"review_count":11,"is_open":1},{"business_id":"JfDSUVbyveJ-UL7CbFtwWw","name":"Gillece Plumbing Heating Cooling & Electrical","latitude":40.4293034,"longitude":-79.9724245,"address":"","city":"Pittsburgh","state":"PA","stars":1.0,"review_count":22,"is_open":1},{"business_id":"Y96flKxYppmkLrVvFkyKgQ","name":"Arendosh Heating and Cooling","latitude":40.4623085,"longitude":-79.7673673,"address":"501 Old Frankstown Rd","city":"Pittsburgh","state":"PA","stars":3.5,"review_count":3,"is_open":1},{"business_id":"nYnPm1ICo2FV9UVxoK3m9Q","name":"Atch-Mont Real Estate","latitude":40.4541994,"longitude":-80.0005841,"address":"728 James St","city":"Pittsburgh","state":"PA","stars":2.0,"review_count":3,"is_open":1},{"business_id":"nZ1iFJukz7PFYB6TYeycjA","name":"Monroeville Glass Block","latitude":40.4685016,"longitude":-79.8600247,"address":"4356 Verona Rd","city":"Pittsburgh","state":"PA","stars":5.0,"review_count":4,"is_open":1},{"business_id":"J94VRMZKdyOXhHUgEqM6Dg","name":"Avila Construction","latitude":40.4586216,"longitude":-79.8184684,"address":"","city":"Pittsburgh","state":"PA","stars":3.5,"review_count":3,"is_open":1},{"business_id":"Rj7ph5EHlpIbRrSNXDy87w","name":"Residence Inn by Marriott Pittsburgh University\/Medical Center","latitude":40.453928,"longitude":-79.955019,"address":"3896 Bigelow Blvd","city":"Pittsburgh","state":"PA","stars":3.0,"review_count":61,"is_open":1},{"business_id":"WNeT0hB41jUt-sbmJmGKtw","name":"Floor Coverings International Pittsburgh","latitude":40.5551235,"longitude":-80.0384579,"address":"8122 Perry Hwy","city":"Pittsburgh","state":"PA","stars":4.0,"review_count":4,"is_open":1},{"business_id":"1pZP5-Y_q2LXSc-cq7pF2w","name":"Golden Estate Sales","latitude":40.4414537,"longitude":-79.9946091,"address":"630 Grant St","city":"Pittsburgh","state":"PA","stars":1.5,"review_count":7,"is_open":1},{"business_id":"iqFOKmdSkWBx3lH_Obya3A","name":"Climatech Inc","latitude":40.4489157,"longitude":-80.099496,"address":"200 Bilmar Dr","city":"Pittsburgh","state":"PA","stars":3.0,"review_count":3,"is_open":1},{"business_id":"UW7693gZ_Ff_VRGgqLRm1w","name":"Professional Plumbing & Heating","latitude":40.3760655,"longitude":-79.9696277,"address":"2728 Lachman Way","city":"Pittsburgh","state":"PA","stars":3.0,"review_count":6,"is_open":1},{"business_id":"jRyCx7aYwXytPMrmT2Fdlg","name":"Eastwood Hardware","latitude":40.465401,"longitude":-79.825645,"address":"11681 Penn Hills Dr","city":"Pittsburgh","state":"PA","stars":3.5,"review_count":3,"is_open":1},{"business_id":"c446txzKwRIU4l3R9Pa20A","name":"McGann & Chester","latitude":40.4144565,"longitude":-80.0129455,"address":"700 Hargrove St","city":"Pittsburgh","state":"PA","stars":1.5,"review_count":14,"is_open":1},{"business_id":"BlLF2Y36XWSlcK7XNPRBhw","name":"Metro Heating & Cooling","latitude":40.4215161,"longitude":-80.0302933,"address":"972 Banksville Ave","city":"Pittsburgh","state":"PA","stars":3.0,"review_count":6,"is_open":1},{"business_id":"ME160oE7W3cH44qsuUeTyQ","name":"PNC Bank","latitude":40.4285290124,"longitude":-79.9806924909,"address":"1736 E Carson St","city":"Pittsburgh","state":"PA","stars":3.0,"review_count":5,"is_open":1},{"business_id":"XunlQbHVTTcgR2qgk9Canw","name":"Fetter Landscaping","latitude":40.3735557729,"longitude":-80.0288437,"address":"","city":"Pittsburgh","state":"PA","stars":5.0,"review_count":3,"is_open":1},{"business_id":"jhsO90XqFHSLA7gKkGnP6Q","name":"Bakery Living","latitude":40.4561388553,"longitude":-79.9163665232,"address":"6480 Living Pl","city":"Pittsburgh","state":"PA","stars":4.0,"review_count":4,"is_open":1},{"business_id":"8pEpRRd_cFdLaOZK-ecD-g","name":"Ridge at Robinson","latitude":40.442237,"longitude":-80.143557,"address":"1501 Meredith Dr","city":"Pittsburgh","state":"PA","stars":2.0,"review_count":3,"is_open":1},{"business_id":"k0TS3_ZJvm1E5zPMjvC0uA","name":"Kwiatkowski Plumbing","latitude":40.3523024,"longitude":-79.9583795,"address":"1338 Streets Run Rd","city":"Pittsburgh","state":"PA","stars":1.0,"review_count":5,"is_open":1},{"business_id":"ql6gLdpqKdn8tGs2PTWOhg","name":"E & A Moving","latitude":40.3900597,"longitude":-80.0143656,"address":"","city":"Pittsburgh","state":"PA","stars":4.0,"review_count":9,"is_open":1},{"business_id":"A9tLzTY3_CR62os8bTOebA","name":"Woodhawk Club Apartments","latitude":40.546574,"longitude":-80.014872,"address":"1000 Johnanna Dr","city":"Pittsburgh","state":"PA","stars":2.0,"review_count":14,"is_open":1},{"business_id":"LSWEB4ru-PaahVAXUSKicQ","name":"Motheral","latitude":40.4501543,"longitude":-79.9142197,"address":"400 Hastings St","city":"Pittsburgh","state":"PA","stars":3.0,"review_count":5,"is_open":1},{"business_id":"c9Gf8ArS4UxS_Kpkl3SsuA","name":"Empire Today","latitude":40.4427615,"longitude":-79.9941937,"address":"","city":"Pittsburgh","state":"PA","stars":1.5,"review_count":33,"is_open":1},{"business_id":"AUAWtJLE63qRU-CSdaP2XA","name":"Blawnox Upholstery","latitude":40.4944212,"longitude":-79.8594387,"address":"388 Freeport Rd","city":"Pittsburgh","state":"PA","stars":5.0,"review_count":7,"is_open":1},{"business_id":"fdN8m9lIWt-C5hSxdnXmeg","name":"Parkway Service Station","latitude":40.426682,"longitude":-80.022033,"address":"918 W Saw Mill Run Blvd","city":"Pittsburgh","state":"PA","stars":3.5,"review_count":3,"is_open":1},{"business_id":"raKAzezhFskqmtgeJO1lig","name":"Northside Carpets & Oriental Rugs","latitude":40.4329535,"longitude":-79.9229482,"address":"2127 Murray Ave","city":"Pittsburgh","state":"PA","stars":4.5,"review_count":3,"is_open":1},{"business_id":"VgPcDv76JpaXxq40MNNYGw","name":"Kerpec Management","latitude":40.438781,"longitude":-79.9613679,"address":"3401 Forbes Ave","city":"Pittsburgh","state":"PA","stars":1.5,"review_count":9,"is_open":1},{"business_id":"dqDEseo3YYLbf34EwbxK6w","name":"Edward Construction","latitude":40.4192817,"longitude":-79.9396221,"address":"4369 Winterburn Ave","city":"Pittsburgh","state":"PA","stars":3.5,"review_count":3,"is_open":1},{"business_id":"7W1qDH2R_PtTk7_HfdVFOA","name":"Sears Appliance Repair","latitude":40.545,"longitude":-80.006,"address":"1008 Ross Park Mall Dr","city":"Pittsburgh","state":"PA","stars":1.0,"review_count":7,"is_open":1},{"business_id":"9gVMS32J04Jl6Wfb3oC3MQ","name":"Clean Interiors","latitude":40.5379856,"longitude":-80.0858116,"address":"136 Kensington Dr","city":"Pittsburgh","state":"PA","stars":5.0,"review_count":16,"is_open":1},{"business_id":"q2pekSJgbWFZZ_PXpgohyQ","name":"Hustle Man Movers","latitude":40.4088514,"longitude":-80.1149414,"address":"","city":"Pittsburgh","state":"PA","stars":3.5,"review_count":7,"is_open":1},{"business_id":"h8uPVhBCns0paCSLOGMyIw","name":"Pittsburgh Kettlebell & Performance","latitude":40.41734,"longitude":-80.045607,"address":"1002 Greentree Rd, Ste 200","city":"Pittsburgh","state":"PA","stars":4.5,"review_count":10,"is_open":1},{"business_id":"mWYk4aQN9vxZfQBrTA_aDg","name":"Cleaning Innovations Carpet Cleaning","latitude":40.342615,"longitude":-79.954438,"address":"500 Regis Ave, Ste 18174","city":"Pittsburgh","state":"PA","stars":4.5,"review_count":9,"is_open":1},{"business_id":"trgFCBEXId_7HpJMqpIq2w","name":"Erie Construction","latitude":40.4473639,"longitude":-79.7114983,"address":"605 Plum Industrial Ct","city":"Pittsburgh","state":"PA","stars":1.5,"review_count":11,"is_open":1},{"business_id":"EE_2nfwPt6QY7sWrnT11ow","name":"Colebrook Management","latitude":40.4525162,"longitude":-79.9211432,"address":"6230 5th Ave","city":"Pittsburgh","state":"PA","stars":2.5,"review_count":3,"is_open":1},{"business_id":"CNYbps1yPML3lOswzAfZCA","name":"Amberson Apartments","latitude":40.4530515,"longitude":-79.942092,"address":"3 Bayard Rd","city":"Pittsburgh","state":"PA","stars":4.0,"review_count":4,"is_open":1},{"business_id":"zCFjEXyV7kSxQEV54SySmw","name":"Lobos Management","latitude":40.4578589,"longitude":-79.9270906,"address":"233 Spahr St","city":"Pittsburgh","state":"PA","stars":1.5,"review_count":82,"is_open":1},{"business_id":"OQ-d7NRbLVSeNitG3WZQQQ","name":"Steiner Realty, Inc","latitude":40.4322504,"longitude":-79.8844357,"address":"121 Edgewood Ave","city":"Pittsburgh","state":"PA","stars":3.5,"review_count":12,"is_open":1},{"business_id":"t3fvuCmGVmKUzjoNmgfrAg","name":"Regent Square Concrete Man","latitude":40.4368825,"longitude":-79.8576828,"address":"","city":"Pittsburgh","state":"PA","stars":4.5,"review_count":6,"is_open":1},{"business_id":"h9G_iZR1PSx-yVd3SMQzeQ","name":"Morrowfield Apartments","latitude":40.4283796,"longitude":-79.9242828,"address":"2715 Murray Ave","city":"Pittsburgh","state":"PA","stars":3.5,"review_count":4,"is_open":1},{"business_id":"d-ekMONMo4K9ZCD4BmAMYg","name":"AAA East Central","latitude":40.5243406,"longitude":-80.0050617,"address":"4790 McKnight Road","city":"Pittsburgh","state":"PA","stars":2.5,"review_count":5,"is_open":1},{"business_id":"2RAJP_PuMkV-7UAC4Cqeuw","name":"Dollar Bank","latitude":40.4413951,"longitude":-79.9980846,"address":"537 Smithfield St","city":"Pittsburgh","state":"PA","stars":2.0,"review_count":3,"is_open":1},{"business_id":"RqW8hZBBOs3j4BK8aX7-lQ","name":"Comcast Service Center","latitude":40.451297,"longitude":-80.045848,"address":"300 Corliss St","city":"Pittsburgh","state":"PA","stars":1.5,"review_count":16,"is_open":0},{"business_id":"CKKtV3NsnaPA0H55llo_Jw","name":"Romano Carpet Service","latitude":40.4909423,"longitude":-79.7287703,"address":"","city":"Pittsburgh","state":"PA","stars":3.5,"review_count":6,"is_open":1},{"business_id":"lCVhB058iDjMAmL26oNCgg","name":"Rich Vargo - Coldwell Banker Residential Real Estate","latitude":40.43817,"longitude":-79.919848,"address":"5887 Forbes Ave","city":"Pittsburgh","state":"PA","stars":4.5,"review_count":7,"is_open":1},{"business_id":"7-jFOo4_Gnw6NU146pU54w","name":"Terry's Plumbing","latitude":40.5251077,"longitude":-80.0165931,"address":"3227 Babcock Blvd","city":"Pittsburgh","state":"PA","stars":3.0,"review_count":6,"is_open":1},{"business_id":"SIcEuGSPHsvplLr5t_a0tw","name":"Tint World","latitude":40.467214,"longitude":-79.825401,"address":"11730 Frankstown Rd","city":"Pittsburgh","state":"PA","stars":4.0,"review_count":14,"is_open":1},{"business_id":"o_uhdsY4wmvbvel9fhlXlg","name":"J. Reisner Notary","latitude":40.430071,"longitude":-79.92797,"address":"2232 Wightman St","city":"Pittsburgh","state":"PA","stars":4.0,"review_count":16,"is_open":0},{"business_id":"i3RL98uA6pCUAnvvkWtRcg","name":"Stewart Electric","latitude":40.517893,"longitude":-79.957285,"address":"113 E Genessee Ave","city":"Pittsburgh","state":"PA","stars":4.0,"review_count":5,"is_open":1},{"business_id":"P9CGDS0O7qiDmByFOukfQw","name":"Carriage Park Apartments","latitude":40.402777,"longitude":-80.0585435,"address":"300 Chatham Park Dr","city":"Pittsburgh","state":"PA","stars":2.0,"review_count":7,"is_open":1},{"business_id":"ynhFb5FIy1RhB5C6THiedA","name":"Sierra Experts","latitude":40.448871,"longitude":-80.164575,"address":"2 Robinson Plz, Ste 300","city":"Pittsburgh","state":"PA","stars":3.5,"review_count":3,"is_open":1},{"business_id":"8BAWsFbOxEtTl8Vj54S9wA","name":"Origins Granite","latitude":40.3508398,"longitude":-80.052852,"address":"1759 N Highland Rd","city":"Pittsburgh","state":"PA","stars":2.0,"review_count":4,"is_open":0},{"business_id":"R5md_FioPpezEH4R8SBPNg","name":"ikos holdings","latitude":40.4380959,"longitude":-80.0001329,"address":"213 Smithfield St","city":"Pittsburgh","state":"PA","stars":2.0,"review_count":8,"is_open":1},{"business_id":"RXqGX-t3caRPtQKxZU8Hsg","name":"Family 1st Home Inspection Services","latitude":40.3320549,"longitude":-79.9494128,"address":"481 Nantucket Dr","city":"Pittsburgh","state":"PA","stars":1.0,"review_count":3,"is_open":1},{"business_id":"kclHYzeJLiC5R0ByCpBtNg","name":"Bellotti Cleaning","latitude":40.5610745,"longitude":-80.0394123,"address":"","city":"Pittsburgh","state":"PA","stars":2.0,"review_count":4,"is_open":1},{"business_id":"rrbqgO_atoJ_mYaOOxWjkg","name":"Comprehensive Labor Solutions","latitude":40.4824705246,"longitude":-80.066986084,"address":"812 Cedar Ave","city":"Pittsburgh","state":"PA","stars":3.0,"review_count":3,"is_open":0},{"business_id":"2NxLR_ZahRGJzI9UjG_J-Q","name":"Crawford Square","latitude":40.4420514542,"longitude":-79.9851619,"address":"510 Protectory Pl","city":"Pittsburgh","state":"PA","stars":2.5,"review_count":4,"is_open":1},{"business_id":"V0b4-AyGT1ZCXJSRF52_1g","name":"Heavenly Scent Pro Cleaning Services","latitude":40.438355,"longitude":-80.001983,"address":"","city":"Pittsburgh","state":"PA","stars":3.5,"review_count":8,"is_open":1},{"business_id":"rLVrrkfZJL8yfJqlpg9GkA","name":"Kelly M J Realty","latitude":40.418119,"longitude":-79.848483,"address":"2147 Ardmore Blvd","city":"Pittsburgh","state":"PA","stars":1.5,"review_count":8,"is_open":1},{"business_id":"p0CxaLewOG9UJk2PVUCtEg","name":"Emerald Gardens","latitude":40.4490475,"longitude":-80.0766205,"address":"2400 Village Rd","city":"Pittsburgh","state":"PA","stars":2.5,"review_count":7,"is_open":1},{"business_id":"bZANarPu5Cl2CHoFd4Ot-g","name":"A&N Lawn Service","latitude":40.557623,"longitude":-80.074163,"address":"2130 Reis Run Rd","city":"Pittsburgh","state":"PA","stars":3.5,"review_count":5,"is_open":1},{"business_id":"slzkYe05OmOUiAc-P2fhlw","name":"Forbes Management","latitude":40.4524927,"longitude":-79.920888,"address":"6236 5th Ave, Ste 105C","city":"Pittsburgh","state":"PA","stars":3.0,"review_count":22,"is_open":1},{"business_id":"G_BQKzi728rQp0YnSmdwhA","name":"U-Haul Moving & Storage of Pittsburgh","latitude":40.4581653193,"longitude":-79.9720576911,"address":"3000 Liberty Ave","city":"Pittsburgh","state":"PA","stars":4.0,"review_count":7,"is_open":1},{"business_id":"_CaDSAHTx6_7NecybwyzBw","name":"Verizon","latitude":40.4407375038,"longitude":-80.1501721144,"address":"250 Settlers Ridge Center Dr","city":"Pittsburgh","state":"PA","stars":2.0,"review_count":4,"is_open":1},{"business_id":"pzK_QvFj734swtpFyR2qhg","name":"Howard Hanna Insurance","latitude":40.4987893,"longitude":-79.8661852,"address":"1000 Gamma Dr, Fl 4","city":"Pittsburgh","state":"PA","stars":3.5,"review_count":7,"is_open":1},{"business_id":"zuVd_9tIwTEYGouc8jGrjA","name":"Premier Painting","latitude":40.3555371,"longitude":-79.9905352,"address":"4677 Brownsville Rd","city":"Pittsburgh","state":"PA","stars":4.5,"review_count":7,"is_open":1},{"business_id":"tFXtHPDJ9hVJEb266mpnqA","name":"William Penn Tavern","latitude":40.4514452209,"longitude":-79.9337325513,"address":"739 Bellefonte St","city":"Pittsburgh","state":"PA","stars":3.5,"review_count":109,"is_open":1},{"business_id":"xL27JoSVSmIWojnSkNMKTQ","name":"Three Rivers Gutters","latitude":40.5610745,"longitude":-80.0394123,"address":"","city":"Pittsburgh","state":"PA","stars":3.5,"review_count":3,"is_open":1},{"business_id":"cFi7o039_xwe7s53yKPdAg","name":"Admiral Heating & Cooling","latitude":40.3687422,"longitude":-80.0114701,"address":"3333 Library Rd","city":"Pittsburgh","state":"PA","stars":3.5,"review_count":9,"is_open":1},{"business_id":"CXq3wYcY0b1o60SI8qJkWA","name":"PNC Bank","latitude":40.3460356,"longitude":-80.0547716,"address":"285 Fort Couch Rd","city":"Pittsburgh","state":"PA","stars":3.0,"review_count":10,"is_open":1},{"business_id":"Iq_2mhpeEsW37JmWj0F2hQ","name":"New Horizons Home Exteriors & Window","latitude":40.3654332,"longitude":-80.0177962,"address":"3606 Library Rd","city":"Pittsburgh","state":"PA","stars":3.5,"review_count":3,"is_open":1},{"business_id":"axWOW3vBur59iNKmJj9gFw","name":"Busy Little Mes","latitude":40.5610745,"longitude":-80.0394123,"address":"","city":"Pittsburgh","state":"PA","stars":3.5,"review_count":3,"is_open":1},{"business_id":"GHElEcq_HF03CGR7yA3LQA","name":"Gutter Helmet","latitude":40.4488444,"longitude":-79.7105903,"address":"401 Plum Industrial Park","city":"Pittsburgh","state":"PA","stars":2.0,"review_count":8,"is_open":1},{"business_id":"csdZolWIWvkIHIqsCmV6sg","name":"City Vista","latitude":40.4263863165,"longitude":-80.037872133,"address":"325 Elizabeth Dr","city":"Pittsburgh","state":"PA","stars":3.0,"review_count":10,"is_open":1},{"business_id":"s1zpHlAq5oigPL6vHlOR2Q","name":"Don Farr Moving & Storage","latitude":40.3576578,"longitude":-79.9103185,"address":"4920 Buttermilk Hollow Rd","city":"Pittsburgh","state":"PA","stars":2.5,"review_count":96,"is_open":1},{"business_id":"CKzjMQPmoS_bgh_sK3xbBA","name":"Aquaguard Systems","latitude":40.418887,"longitude":-79.841215,"address":"4240 Greensburg Pike, Ste 101","city":"Pittsburgh","state":"PA","stars":3.5,"review_count":5,"is_open":1},{"business_id":"GR4A2K5tylTK99-AsOtZng","name":"Total Handy Services","latitude":40.4297042,"longitude":-79.9291407,"address":"5542 Pocusset St","city":"Pittsburgh","state":"PA","stars":3.0,"review_count":23,"is_open":1},{"business_id":"FcpNYvZkBjt930vSQL57tw","name":"High speed entertainment at  Verizon Fios","latitude":40.4446289,"longitude":-79.9488838,"address":"424 S Craig St","city":"Pittsburgh","state":"PA","stars":1.0,"review_count":4,"is_open":1},{"business_id":"XE2XgyfWUDEM8Ol4quz9qw","name":"Restano Plumbing Heating & Cooling","latitude":40.4853104,"longitude":-79.7701849,"address":"130 Anderson Ln","city":"Pittsburgh","state":"PA","stars":3.0,"review_count":8,"is_open":1},{"business_id":"VFHLE5JrE9shcHHzAieG4Q","name":"Patrick E Chase Plumbing & Heating","latitude":40.4055856,"longitude":-80.0276209,"address":"2102 Pauline Ave","city":"Pittsburgh","state":"PA","stars":4.0,"review_count":19,"is_open":1},{"business_id":"q3WM390QvPS-ncZkj2oQlQ","name":"Bob Tusky's Best Applicance","latitude":40.4586216,"longitude":-79.8184684,"address":"","city":"Pittsburgh","state":"PA","stars":2.5,"review_count":9,"is_open":1},{"business_id":"GOIXvr3ffmmPLKIwVnILeg","name":"South Hills Electric Heating And Cooling","latitude":40.3747535,"longitude":-80.0072797,"address":"930 Glass Run Rd","city":"Pittsburgh","state":"PA","stars":3.0,"review_count":9,"is_open":1},{"business_id":"bnx1q7aqsPkVgUO7dsuCMA","name":"Tall Timber Tree Experts","latitude":40.5438501,"longitude":-80.0527851,"address":"702 Rochester Rd","city":"Pittsburgh","state":"PA","stars":4.0,"review_count":4,"is_open":1},{"business_id":"1-OIcU6sjb2jL5Rx8N9EOA","name":"CW Electrical Services","latitude":40.5393969,"longitude":-80.0239238,"address":"3424 Babcock Blvd","city":"Pittsburgh","state":"PA","stars":2.5,"review_count":7,"is_open":1},{"business_id":"wEe5dM3zXpMh9B9ns0Bp8w","name":"Frontpoint Home Security","latitude":40.4083044,"longitude":-79.9919995,"address":"","city":"Pittsburgh","state":"PA","stars":4.0,"review_count":3,"is_open":1},{"business_id":"kjHKA6Oo2pbygzc_Bye_Ng","name":"City View Apartments","latitude":40.4403121,"longitude":-79.9865727,"address":"1420 Centre Ave","city":"Pittsburgh","state":"PA","stars":2.0,"review_count":15,"is_open":1},{"business_id":"2VBH_rY5NPI9yupj82Y9sQ","name":"Charles J. Greve & Company","latitude":40.4349312,"longitude":-79.9224332,"address":"5801 Beacon St","city":"Pittsburgh","state":"PA","stars":2.5,"review_count":3,"is_open":1},{"business_id":"MYbzh_Dq8JMqWQ-P7N-TGw","name":"McQuarters Realty Company Inc","latitude":40.4576924,"longitude":-79.9335078,"address":"5701 Centre Ave","city":"Pittsburgh","state":"PA","stars":3.0,"review_count":13,"is_open":1},{"business_id":"F0xDG6OkLSpXAm9RVkWeCA","name":"Dependable Remodeling","latitude":40.4276089,"longitude":-80.102945,"address":"626 Carriage Cir","city":"Pittsburgh","state":"PA","stars":1.0,"review_count":4,"is_open":1},{"business_id":"7MsajDJu9sx5OpnAn0OzAw","name":"Ron\u2019s Partybus","latitude":40.4475255,"longitude":-79.9933976,"address":"","city":"Pittsburgh","state":"PA","stars":4.0,"review_count":3,"is_open":1},{"business_id":"E_73YjCxiqv4FHCTsmm5FA","name":"Xtreme Autoglass Pros","latitude":40.4289929,"longitude":-79.9808362,"address":"1735 Carson St","city":"Pittsburgh","state":"PA","stars":5.0,"review_count":13,"is_open":1},{"business_id":"qYR-DFreqWrXTbVtCtAHhw","name":"PNC Bank","latitude":40.4472448,"longitude":-80.0042584,"address":"107 Federal St","city":"Pittsburgh","state":"PA","stars":2.5,"review_count":6,"is_open":1},{"business_id":"9JEEcsd-6I2g95Kvf7QQrw","name":"Candlewood Suites Pittsburgh-Airport","latitude":40.4489555,"longitude":-80.1831038,"address":"100 Chauvet Dr","city":"Pittsburgh","state":"PA","stars":3.5,"review_count":28,"is_open":1},{"business_id":"Kd2e0VcU1QQlGMZcaqlpHw","name":"Residence Inn Pittsburgh Airport","latitude":40.4562031726,"longitude":-80.1886403561,"address":"1500 Park Lane Dr","city":"Pittsburgh","state":"PA","stars":4.0,"review_count":24,"is_open":1},{"business_id":"aE4ktnrlt3683dL4M9Qf-g","name":"CALFO","latitude":40.3316509,"longitude":-79.9721707,"address":"91 Terence Dr","city":"Pittsburgh","state":"PA","stars":3.5,"review_count":11,"is_open":1},{"business_id":"QBxGtX_kC-AxQMfMAg50ug","name":"Stokes Moving and Storage","latitude":40.4567689,"longitude":-80.0562864,"address":"","city":"Pittsburgh","state":"PA","stars":5.0,"review_count":3,"is_open":1},{"business_id":"xiRIl7Ijjk65axOYng3YCw","name":"U-Haul Moving & Storage of Pittsburgh North Shore","latitude":40.4512394,"longitude":-80.0229098,"address":"1200 Western Ave","city":"Pittsburgh","state":"PA","stars":4.5,"review_count":3,"is_open":1},{"business_id":"0QU-EotiCzVEmkU9LUiPIw","name":"Samson Garage Doors","latitude":40.4327086,"longitude":-79.9248669,"address":"","city":"Pittsburgh","state":"PA","stars":5.0,"review_count":7,"is_open":1},{"business_id":"vhLdXweVYT2nOhBf-D2q2g","name":"Fifth Neville Apartments","latitude":40.4473375,"longitude":-79.9466014,"address":"4705 5th Ave","city":"Pittsburgh","state":"PA","stars":4.0,"review_count":4,"is_open":1},{"business_id":"UTiw4oKHYn2X4LAIevrItA","name":"Miller Plumbing Heating Cooling Electric","latitude":40.3723932,"longitude":-80.0076114,"address":"3131 Library Rd","city":"Pittsburgh","state":"PA","stars":2.0,"review_count":12,"is_open":1},{"business_id":"uyl1-jGMf9RJ6__PGkQNPA","name":"Windows Pittsburgh","latitude":40.4222843,"longitude":-80.0367259,"address":"","city":"Pittsburgh","state":"PA","stars":5.0,"review_count":3,"is_open":1},{"business_id":"CdnraUBoA5EqIoXwUXf4zw","name":"Fireborn Studios","latitude":40.4271675,"longitude":-79.9716598,"address":"2338 Sarah St","city":"Pittsburgh","state":"PA","stars":5.0,"review_count":4,"is_open":1},{"business_id":"sFDQA2NaJaAXWmvZcuANwA","name":"Legacy Remodeling","latitude":40.3919523,"longitude":-80.0387377,"address":"3090 W Liberty Ave","city":"Pittsburgh","state":"PA","stars":3.5,"review_count":7,"is_open":1},{"business_id":"EVDHJa50rxsqOCldcAkyWQ","name":"Clarity Cleaning","latitude":40.4083044,"longitude":-79.9919995,"address":"","city":"Pittsburgh","state":"PA","stars":5.0,"review_count":9,"is_open":1},{"business_id":"dbWGkzDJ-GUDID4jSYRdWQ","name":"Village In the Park","latitude":40.4767848,"longitude":-80.0164572,"address":"3001 Marshall Rd, Apt 236","city":"Pittsburgh","state":"PA","stars":4.5,"review_count":3,"is_open":1},{"business_id":"6R8rEXJ7uB5kyT_Zs20TEQ","name":"Lumber Liquidators","latitude":40.4312701028,"longitude":-80.1347119086,"address":"4700 Campbells Run Rd","city":"Pittsburgh","state":"PA","stars":2.5,"review_count":4,"is_open":1},{"business_id":"hlcaQ7flGbkkoHCU9R13vg","name":"Allegheny Fence Construction Co Inc","latitude":40.4185389,"longitude":-79.9477966,"address":"4301 Irvine St","city":"Pittsburgh","state":"PA","stars":4.0,"review_count":4,"is_open":1},{"business_id":"b6fhU1taXJdiTldEYixbUQ","name":"Steel City Movers","latitude":40.443674,"longitude":-79.8920467,"address":"315 S Trenton Ave","city":"Pittsburgh","state":"PA","stars":3.5,"review_count":31,"is_open":1},{"business_id":"Qg2mWI3jvOcd0tlM27kAjg","name":"Union Real Estate","latitude":40.4381749,"longitude":-79.9988541,"address":"301 Grant St, Ste 1250","city":"Pittsburgh","state":"PA","stars":2.5,"review_count":17,"is_open":1},{"business_id":"usRK5LVnpJG9WwTSqYJJbw","name":"Supertint","latitude":40.367244,"longitude":-79.980469,"address":"4034 Brownsville Rd","city":"Pittsburgh","state":"PA","stars":5.0,"review_count":4,"is_open":1},{"business_id":"b1UvPlDmVtN0ATBVfe6wBw","name":"Ed Lampl Environmental and Home Inspections","latitude":40.438591,"longitude":-79.8893274,"address":"462 Biddle Ave","city":"Pittsburgh","state":"PA","stars":4.5,"review_count":47,"is_open":1},{"business_id":"HYdCcjd1WWi6tSnya_It8A","name":"HelloTech","latitude":40.4737114,"longitude":-79.9612368,"address":"","city":"Pittsburgh","state":"PA","stars":4.0,"review_count":4,"is_open":1},{"business_id":"_ckIfgAAVNRgsf_Z5f4QUQ","name":"Fifth Avenue School Lofts","latitude":40.4377284594,"longitude":-79.9807369709,"address":"1800 5th Ave","city":"Pittsburgh","state":"PA","stars":3.0,"review_count":3,"is_open":1},{"business_id":"hFecFlLXRbdoCR3E-Eogeg","name":"Krupp Whitney Plumbing","latitude":40.4441076,"longitude":-80.0663924,"address":"24 Ingram Ave","city":"Pittsburgh","state":"PA","stars":4.0,"review_count":16,"is_open":1},{"business_id":"CdUV88tSeOQjofZNYx_aPQ","name":"Cardillo Rich Electric","latitude":40.418432,"longitude":-80.012462,"address":"802 Boggs Ave","city":"Pittsburgh","state":"PA","stars":1.5,"review_count":3,"is_open":1},{"business_id":"8uQETzUsn8lLdV5D_2v36w","name":"Pittsburgh Patios","latitude":40.490944,"longitude":-80.0143656,"address":"","city":"Pittsburgh","state":"PA","stars":5.0,"review_count":3,"is_open":1},{"business_id":"_F1GhbDwQhIwy2dB9DQ2FQ","name":"The Home Depot","latitude":40.520956183,"longitude":-80.0729191303,"address":"112 Ben Avon Heights Rd","city":"Pittsburgh","state":"PA","stars":3.0,"review_count":13,"is_open":1},{"business_id":"MNAJkmEuUGi9Xm2aABEc2g","name":"Moving N'at","latitude":40.4814882,"longitude":-79.7968624,"address":"7 Hallmark Dr","city":"Pittsburgh","state":"PA","stars":2.0,"review_count":4,"is_open":1},{"business_id":"7V85IW7xNzTIlukR0mvJgQ","name":"Eagle Furniture Restoration","latitude":40.4143361,"longitude":-79.8707868,"address":"132 Lilmont Dr","city":"Pittsburgh","state":"PA","stars":4.0,"review_count":5,"is_open":1},{"business_id":"9zv2FXCenecdCJnk6TAWHQ","name":"Painting by Vee","latitude":40.4475255,"longitude":-79.9933976,"address":"","city":"Pittsburgh","state":"PA","stars":5.0,"review_count":3,"is_open":1},{"business_id":"XEagWL9r7p9Tn6x3urOZTA","name":"Fox Chapel Executive Suites","latitude":40.5046421,"longitude":-79.8696859,"address":"634 Alpha Dr","city":"Pittsburgh","state":"PA","stars":5.0,"review_count":3,"is_open":1},{"business_id":"sXjZWfsSHOFi7LMj1waJjw","name":"Coldwell Banker Real Estate","latitude":40.4574246,"longitude":-79.9288868,"address":"5857 Ellsworth Ave","city":"Pittsburgh","state":"PA","stars":2.0,"review_count":3,"is_open":0},{"business_id":"a-8MXRucrhLFATKv3IgeGw","name":"AA Locksmith","latitude":40.440745,"longitude":-79.996401,"address":"","city":"Pittsburgh","state":"PA","stars":5.0,"review_count":6,"is_open":1},{"business_id":"yy_1cAzZf5ihG9fAHW7MTA","name":"PNC Bank","latitude":40.4697452,"longitude":-79.9613679,"address":"4101 Butler St","city":"Pittsburgh","state":"PA","stars":2.0,"review_count":6,"is_open":1},{"business_id":"OJxGMW7M18cLDLp9UMOWSg","name":"The Bridge On Forbes","latitude":40.439058,"longitude":-79.9608435,"address":"3423 Forbes Ave","city":"Pittsburgh","state":"PA","stars":2.5,"review_count":3,"is_open":1},{"business_id":"mqY5l06RIa99rg9_IEagVg","name":"Now Where Moving","latitude":40.4737114,"longitude":-79.9612368,"address":"","city":"Pittsburgh","state":"PA","stars":4.5,"review_count":3,"is_open":1},{"business_id":"7Em6WVp31Fpg4450JHYwqw","name":"Jgg Electronics & Appliances","latitude":40.4671042,"longitude":-79.8933051,"address":"7211 Lemington Ave","city":"Pittsburgh","state":"PA","stars":1.0,"review_count":3,"is_open":1},{"business_id":"ca-4Jan1gI9Zlh8Vo91mNA","name":"Schoolhouse","latitude":40.463712,"longitude":-79.926895,"address":"5811 Broad St","city":"Pittsburgh","state":"PA","stars":4.5,"review_count":3,"is_open":1},{"business_id":"cpy1TaCpp_E5aLMcYgzDHw","name":"Levin Furniture","latitude":40.449422,"longitude":-80.184912,"address":"400 Chauvet Dr","city":"Pittsburgh","state":"PA","stars":1.5,"review_count":48,"is_open":1},{"business_id":"lcFGb8c8XTo7TPpm-TI5dw","name":"Big Movers","latitude":40.4567689,"longitude":-80.0562864,"address":"","city":"Pittsburgh","state":"PA","stars":3.0,"review_count":7,"is_open":1},{"business_id":"otuUqJLBN5L4HrCmP4_ZKg","name":"La-Z-Boy Furniture Galleries","latitude":40.4471464,"longitude":-80.1799215,"address":"100 Quinn Dr","city":"Pittsburgh","state":"PA","stars":5.0,"review_count":6,"is_open":1},{"business_id":"PABInwDj9BaT-2dAmuH1wg","name":"3 Rivers Brick Pointing & Cleaning","latitude":40.5068453,"longitude":-79.9080757,"address":"","city":"Pittsburgh","state":"PA","stars":3.5,"review_count":3,"is_open":1},{"business_id":"HONqkmgeJGKo8p5elo397g","name":"Graham House","latitude":40.4582669,"longitude":-79.9366494,"address":"439 S Graham St, Ste 445","city":"Pittsburgh","state":"PA","stars":1.0,"review_count":3,"is_open":1},{"business_id":"C_fhN4MkRbRCJKTfXprmjQ","name":"Exceptional Exteriors & Renovations","latitude":40.4220672,"longitude":-79.8976823,"address":"7103 Harrison Ave","city":"Pittsburgh","state":"PA","stars":4.0,"review_count":4,"is_open":1},{"business_id":"IW_RFg5RE_e_8I5fIN3UGw","name":"Coverall Pittsburgh","latitude":40.4958089887,"longitude":-79.9248507764,"address":"1601 Mary's Ave","city":"Pittsburgh","state":"PA","stars":1.0,"review_count":3,"is_open":1},{"business_id":"9y7fhfHP8ClcYXJ4YPg7Yw","name":"Stumpf Moving & Storage","latitude":40.4451709,"longitude":-79.8303967,"address":"199 Purity Rd","city":"Pittsburgh","state":"PA","stars":3.5,"review_count":10,"is_open":1},{"business_id":"5ibArVDuhcaumtxa37eUFg","name":"Quality Granite Outlet","latitude":40.4075654,"longitude":-80.0047996,"address":"1044 Saw Mill Run Blvd","city":"Pittsburgh","state":"PA","stars":4.0,"review_count":12,"is_open":1},{"business_id":"UCMj9sYkPyl2iele1-iRhg","name":"Stone Connection Granite & Cabinetry","latitude":40.5045286179,"longitude":-80.102854664,"address":"2951 Grand Ave","city":"Pittsburgh","state":"PA","stars":4.0,"review_count":4,"is_open":1},{"business_id":"6YnkCO_yejP9WFpXXAIe4Q","name":"American Dreamers Renovations","latitude":40.3720948,"longitude":-79.9115413,"address":"1321 Leaside Dr","city":"Pittsburgh","state":"PA","stars":5.0,"review_count":4,"is_open":1},{"business_id":"WUPEnedS_8si30yy4lwcAQ","name":"Nexus Real Estate","latitude":40.398169,"longitude":-80.025863,"address":"2535 W Liberty Ave","city":"Pittsburgh","state":"PA","stars":2.0,"review_count":56,"is_open":1},{"business_id":"AMVwIpZXcoAORIMgZIbIwg","name":"The Dustin Nulf Team - Keller Williams Realty","latitude":40.4574323,"longitude":-79.937417,"address":"5425 Baum Blvd","city":"Pittsburgh","state":"PA","stars":5.0,"review_count":4,"is_open":1},{"business_id":"fRFnNK4e8f9ggNA_HDaQ4A","name":"Molyneaux Tile Carpet Wood","latitude":40.4461244,"longitude":-80.1780905,"address":"170 Quinn Dr","city":"Pittsburgh","state":"PA","stars":4.0,"review_count":16,"is_open":1},{"business_id":"HXuZ-UcDDxhr1EWBwkpUdQ","name":"Kaufmann's Grand on Fifth Avenue","latitude":40.4395075,"longitude":-79.9983186,"address":"400 Fifth Ave","city":"Pittsburgh","state":"PA","stars":1.0,"review_count":6,"is_open":1},{"business_id":"s0aJmZ1rPpuki9GPbSJ2GQ","name":"Heinz at 950 North Shore","latitude":40.4538812,"longitude":-79.9921316,"address":"950 Progress St","city":"Pittsburgh","state":"PA","stars":3.5,"review_count":6,"is_open":1},{"business_id":"_TarLgdgcg241o8lbKn5-A","name":"Stanley Steemer","latitude":40.4471849204,"longitude":-80.0982572379,"address":"206 Bilmar Dr","city":"Pittsburgh","state":"PA","stars":3.5,"review_count":11,"is_open":1},{"business_id":"tjSajNY1iVGktBUbkvycpw","name":"Sterling Land Company","latitude":40.450336,"longitude":-79.950038,"address":"4611 Bayard St","city":"Pittsburgh","state":"PA","stars":2.5,"review_count":27,"is_open":1},{"business_id":"-KaqHl6f2dXmfFu-Ror36A","name":"Python Plumbing","latitude":40.4828051,"longitude":-80.0367259,"address":"","city":"Pittsburgh","state":"PA","stars":3.5,"review_count":3,"is_open":1},{"business_id":"hoqk23DhcxTBWub8GXjmnA","name":"Todd Peterson Heating & Cooling Inc.","latitude":40.4492306,"longitude":-79.7117324,"address":"745 Plum Industrial Park","city":"Pittsburgh","state":"PA","stars":3.5,"review_count":3,"is_open":1},{"business_id":"rcrzCjDFEJYXlGtCME8cGw","name":"A.R Building","latitude":40.4759386,"longitude":-79.9211066,"address":"5700 Bryant St","city":"Pittsburgh","state":"PA","stars":1.0,"review_count":3,"is_open":1},{"business_id":"dhDb11RNs8J4R5XzBkUyaA","name":"Alloy 26","latitude":40.4511937,"longitude":-80.0047559,"address":"100 S Commons","city":"Pittsburgh","state":"PA","stars":5.0,"review_count":3,"is_open":1},{"business_id":"4ePDKNbN5KQh05Klp7SeOA","name":"Perlora","latitude":40.4280422,"longitude":-79.9737792,"address":"2220 E Carson St","city":"Pittsburgh","state":"PA","stars":4.5,"review_count":3,"is_open":1},{"business_id":"I8_IT1qNKwu9RNftlk-ufw","name":"Pioneer Realty Consultants","latitude":40.4289929,"longitude":-79.9808362,"address":"1735 E Carson St","city":"Pittsburgh","state":"PA","stars":4.0,"review_count":4,"is_open":1},{"business_id":"n2SBZB072HMnJ37J1Szjig","name":"Verizon","latitude":40.34462,"longitude":-80.058421,"address":"301 S Hills Vlg","city":"Pittsburgh","state":"PA","stars":2.0,"review_count":8,"is_open":1},{"business_id":"gEXjlzGE_-OIX4rFWGB4CA","name":"Roto-Rooter Plumbing & Water Cleanup","latitude":40.4084518,"longitude":-79.9915039,"address":"756 Brownsville Rd","city":"Pittsburgh","state":"PA","stars":4.0,"review_count":42,"is_open":1},{"business_id":"3iM7t_5rTGFxR2b4KI5tOA","name":"Dr Dry","latitude":40.3851752,"longitude":-79.9951669,"address":"2400 Saw Mill Run Blvd","city":"Pittsburgh","state":"PA","stars":5.0,"review_count":3,"is_open":1},{"business_id":"ixsnT9ZrrvXX4p2-ig5qGw","name":"A-Comfort Service","latitude":40.5613618,"longitude":-80.0390402,"address":"8600 Perry Hwy","city":"Pittsburgh","state":"PA","stars":3.0,"review_count":8,"is_open":1},{"business_id":"uKpVcOgdJ5fAjp-wA43XLA","name":"Eastside Bond Apartments","latitude":40.4597801,"longitude":-79.9234125,"address":"6105 Spirit St","city":"Pittsburgh","state":"PA","stars":4.0,"review_count":14,"is_open":1},{"business_id":"qig44-mykivTA2eCIj-bjg","name":"Rusch's Garage Doors","latitude":40.4794989,"longitude":-79.7313776,"address":"9227 Saltsburg Rd","city":"Pittsburgh","state":"PA","stars":2.5,"review_count":3,"is_open":1},{"business_id":"Fe_5iHrEU2w1M6L4MvFWnA","name":"T & M Hardware","latitude":40.5377872,"longitude":-80.0366843,"address":"975 Perry Hwy","city":"Pittsburgh","state":"PA","stars":4.5,"review_count":7,"is_open":1},{"business_id":"M6YCS3843vyegD39tevDTQ","name":"Pittsburgh Trophy Co.","latitude":40.4614216,"longitude":-79.9694682,"address":"3225 Penn Ave","city":"Pittsburgh","state":"PA","stars":5.0,"review_count":4,"is_open":1},{"business_id":"SW2IeSudmaezD_XUeVhQcA","name":"Keller Williams Realty-Mt Lebanon","latitude":40.3832743,"longitude":-80.0521559,"address":"455 Cochran Rd","city":"Pittsburgh","state":"PA","stars":2.0,"review_count":4,"is_open":1},{"business_id":"TRDQg2Hvf7lqv86YQrF_-g","name":"Barak Plumbing","latitude":40.4580472,"longitude":-79.9182465,"address":"6390 Penn Ave","city":"Pittsburgh","state":"PA","stars":3.0,"review_count":4,"is_open":0},{"business_id":"qdF96sZaEj-myXoCGixztw","name":"A Pittsburgh Plumber LLC","latitude":40.380967,"longitude":-79.96287,"address":"3357 Wallace Dr","city":"Pittsburgh","state":"PA","stars":3.5,"review_count":3,"is_open":1},{"business_id":"ire4c17QmyNN5nVTjD1W-A","name":"McKee Place Apartments","latitude":40.4379057,"longitude":-79.9575845,"address":"308 McKee Pl","city":"Pittsburgh","state":"PA","stars":1.0,"review_count":5,"is_open":1},{"business_id":"sxM2B-rui8YpaU5KxanKig","name":"Mitchell Plumbing Heating & Cooling","latitude":40.3205701,"longitude":-80.0870155,"address":"","city":"Pittsburgh","state":"PA","stars":2.5,"review_count":3,"is_open":1},{"business_id":"gVMoJGU-v4yqhg47iIbHZg","name":"Bear Run Village","latitude":40.5486382,"longitude":-80.0804279,"address":"100 Bear Run Dr","city":"Pittsburgh","state":"PA","stars":1.5,"review_count":12,"is_open":1},{"business_id":"wIVgOubAJC2PSplQ2x82hw","name":"Maxon Towers","latitude":40.4384091,"longitude":-79.9187511,"address":"6315 Forbes Ave","city":"Pittsburgh","state":"PA","stars":4.0,"review_count":3,"is_open":1},{"business_id":"v4x17IDlIbdnUJZaAsb-rA","name":"Ryan Homes","latitude":40.4533339,"longitude":-80.1048809,"address":"300 Bilmar Dr, Ste 200","city":"Pittsburgh","state":"PA","stars":1.5,"review_count":3,"is_open":1},{"business_id":"cHWDSqBJhSBC3rPL7XGpjA","name":"Chestnut Ridge Apartments","latitude":40.4361014,"longitude":-80.1492825,"address":"3200 Chestnut Ridge Dr","city":"Pittsburgh","state":"PA","stars":2.5,"review_count":7,"is_open":1},{"business_id":"o1TLn68IF_RvhME1sTOMjQ","name":"Window World of Pittsburgh","latitude":40.4494037,"longitude":-80.1597343,"address":"6504 Steubenville Pike","city":"Pittsburgh","state":"PA","stars":2.0,"review_count":22,"is_open":1},{"business_id":"YmHF6fGsXLqcClyqNR_EYA","name":"Sherwin-Williams Paint Store","latitude":40.456332,"longitude":-79.937178,"address":"5434 Centre Ave","city":"Pittsburgh","state":"PA","stars":2.5,"review_count":3,"is_open":1},{"business_id":"oUaKaYklKsM-mWFRzfH_ig","name":"American Mold Remediation","latitude":40.5590994,"longitude":-80.0396652,"address":"8406 Perry Hwy","city":"Pittsburgh","state":"PA","stars":3.5,"review_count":10,"is_open":1},{"business_id":"noLGRXHgtDCxeaHTWgIlnw","name":"Jerry Kitman Fine Furniture","latitude":40.4812342,"longitude":-79.974382,"address":"220 North Ave","city":"Pittsburgh","state":"PA","stars":2.0,"review_count":4,"is_open":1},{"business_id":"fr_MM7X-trXdXgZuX_7t-A","name":"Gary & Sons Tree Service","latitude":40.3955965,"longitude":-80.0271116,"address":"2821 Kenilworth St","city":"Pittsburgh","state":"PA","stars":2.5,"review_count":3,"is_open":1},{"business_id":"9dwWYa3l8xOYxrUAAxDfyQ","name":"PMC Property Group","latitude":40.440069,"longitude":-80.0050553,"address":"201 Stanwix St","city":"Pittsburgh","state":"PA","stars":2.0,"review_count":11,"is_open":1},{"business_id":"EhA2TS4GNFwdlZZiCUWo4g","name":"Craigs Family Movers","latitude":40.3929691,"longitude":-80.0479039,"address":"","city":"Pittsburgh","state":"PA","stars":2.5,"review_count":7,"is_open":1},{"business_id":"OfAAiyRwaUXywU28NI3tVw","name":"Joseph Palmieri Construction Company","latitude":40.507231,"longitude":-79.989496,"address":"2015 Babcock Blvd","city":"Pittsburgh","state":"PA","stars":3.5,"review_count":3,"is_open":1},{"business_id":"1b7wXuoyiJwnju9FPOcrKw","name":"D.R. Sevacko Plumbing","latitude":40.4417703,"longitude":-80.0870155,"address":"435 Union Ave","city":"Pittsburgh","state":"PA","stars":2.0,"review_count":7,"is_open":1},{"business_id":"n9zan4iJOl9C178bauqHOg","name":"East End Landscaping","latitude":40.4189678,"longitude":-79.8828863,"address":"7542 Calumet St","city":"Pittsburgh","state":"PA","stars":1.5,"review_count":3,"is_open":1},{"business_id":"ryCGjy-A97MkGaWXQ_RvWg","name":"Re-Surface Pro","latitude":40.4417703,"longitude":-80.0870155,"address":"","city":"Pittsburgh","state":"PA","stars":5.0,"review_count":4,"is_open":1},{"business_id":"13ul-SZPweqIStSYF2cciQ","name":"Chimney Cricket","latitude":40.433697,"longitude":-80.074077,"address":"2200 Crafton Blvd","city":"Pittsburgh","state":"PA","stars":4.0,"review_count":7,"is_open":1},{"business_id":"bj3F2gQSCQ922hYMF1oXhQ","name":"Busy Beaver","latitude":40.4755579,"longitude":-79.9584834,"address":"4743 Plummer St","city":"Pittsburgh","state":"PA","stars":5.0,"review_count":8,"is_open":1},{"business_id":"P08_UUgRE7z5PVIIteSTFA","name":"ProSource of Monroeville","latitude":40.4504398,"longitude":-79.7151851,"address":"1909 New Texas Rd","city":"Pittsburgh","state":"PA","stars":5.0,"review_count":3,"is_open":1},{"business_id":"FGr4mzwFxZhUaPNV8R4zyA","name":"Swimming Pool Discounters","latitude":40.509772,"longitude":-79.9924687,"address":"2141 Babcock Blvd","city":"Pittsburgh","state":"PA","stars":2.0,"review_count":15,"is_open":1},{"business_id":"wJWTnP5u90v_kHqVVVPyWQ","name":"Batteries Plus Bulbs","latitude":40.3636949338,"longitude":-80.027091,"address":"3912 Library Rd","city":"Pittsburgh","state":"PA","stars":3.5,"review_count":7,"is_open":1},{"business_id":"Aq5ppKWt864bUBCGsHBU3g","name":"Park View Apartments","latitude":40.4518425,"longitude":-80.0069024,"address":"10 Allegheny Ctr","city":"Pittsburgh","state":"PA","stars":2.5,"review_count":28,"is_open":1},{"business_id":"eQCnk--ts5DB_lzonZZB1g","name":"Shadyside Inn All Suites Hotel","latitude":40.4486860521,"longitude":-79.9339957288,"address":"5405 5th Ave","city":"Pittsburgh","state":"PA","stars":4.0,"review_count":81,"is_open":1},{"business_id":"g1HVmKprqSqMhVU2rliiCg","name":"Sara Leitera - Berkshire Hathaway HomeServices","latitude":40.4350427,"longitude":-79.9225665,"address":"1935 Murray Ave","city":"Pittsburgh","state":"PA","stars":5.0,"review_count":4,"is_open":1},{"business_id":"7bVzCMDh1xoxu6187o2nZw","name":"Dynamic Illustrations & Caricatures","latitude":40.3833867722,"longitude":-80.0481748419,"address":"128 Shady Dr W","city":"Pittsburgh","state":"PA","stars":5.0,"review_count":4,"is_open":1},{"business_id":"ye3_3aPF-qTf2XlwSnAacQ","name":"American Wills & Estates","latitude":40.4300108,"longitude":-79.9755924,"address":"2100 Wharton St, Ste 302","city":"Pittsburgh","state":"PA","stars":4.5,"review_count":6,"is_open":1},{"business_id":"LVrjZgmLVZx7TCYSlZoghQ","name":"Scherer Bob Locksmth","latitude":40.4297154,"longitude":-79.9785991,"address":"1911 Sidney St","city":"Pittsburgh","state":"PA","stars":5.0,"review_count":3,"is_open":1},{"business_id":"SKuQJqg3NT3360EFDVb_Aw","name":"Restano Heating, Cooling & Plumbing","latitude":40.4656558,"longitude":-79.9551713,"address":"2826 Main St","city":"Pittsburgh","state":"PA","stars":4.5,"review_count":3,"is_open":1},{"business_id":"AHF4ac0TRv6gPK5Ic0QrcQ","name":"Windows R Us","latitude":40.3648170963,"longitude":-80.0243879153,"address":"1116 Castle Shannon Blvd","city":"Pittsburgh","state":"PA","stars":1.0,"review_count":3,"is_open":1},{"business_id":"TqLR5nrqAjmDXwsDtFUN6w","name":"Right On The Walls","latitude":40.4303627,"longitude":-79.9965985,"address":"33 Terminal Way, Ste 421","city":"Pittsburgh","state":"PA","stars":2.5,"review_count":9,"is_open":0},{"business_id":"OTbxVbeJj1zbJCE-TcK1tg","name":"G Tuckfelt & Associates","latitude":40.4582157,"longitude":-79.947562,"address":"616 S Millvale Ave","city":"Pittsburgh","state":"PA","stars":3.5,"review_count":3,"is_open":1},{"business_id":"m6TlFoAaIWehbeY_XWJFAQ","name":"Sembower Mikesell","latitude":40.4550371,"longitude":-79.8629771,"address":"1711 Douglas Dr","city":"Pittsburgh","state":"PA","stars":3.0,"review_count":4,"is_open":1},{"business_id":"qfhcBqmuFXGkqCo_9C1cjQ","name":"Molyneaux Tile Carpet Wood","latitude":40.3527607,"longitude":-80.049694,"address":"1665 Washington Rd","city":"Pittsburgh","state":"PA","stars":4.5,"review_count":10,"is_open":1},{"business_id":"8YMo03-o8t5GqTDwRGZcEg","name":"The Fireplace and Patioplace","latitude":40.5312936,"longitude":-80.0100009,"address":"4920 McKnight Rd","city":"Pittsburgh","state":"PA","stars":3.0,"review_count":3,"is_open":1},{"business_id":"u5WUedtZtOCWbfpBgNmMMw","name":"Bradley Michaels Furniture","latitude":40.339739,"longitude":-79.9650609,"address":"22 Old Clairton Rd","city":"Pittsburgh","state":"PA","stars":2.0,"review_count":4,"is_open":1},{"business_id":"UbvZiwLaPL8pPepLjO9_Xw","name":"Fagnelli Plumbing Company Inc","latitude":40.4354178,"longitude":-79.9633019,"address":"2852 Blvd Of The Allies","city":"Pittsburgh","state":"PA","stars":2.0,"review_count":8,"is_open":1},{"business_id":"UNEXydBQ-40A47HXtjoLMA","name":"McNeely Construction","latitude":40.3929691,"longitude":-80.0479039,"address":"","city":"Pittsburgh","state":"PA","stars":3.5,"review_count":3,"is_open":1},{"business_id":"95s7ZRceq-mYD-a7DZntnQ","name":"The Grout Medic","latitude":40.4406248,"longitude":-79.9958864,"address":"","city":"Pittsburgh","state":"PA","stars":2.0,"review_count":4,"is_open":1},{"business_id":"h1QBCIYVqwejbcGZeAjTZw","name":"Duro Cleaners","latitude":40.528334,"longitude":-80.007942,"address":"4847 McKnight Rd","city":"Pittsburgh","state":"PA","stars":2.5,"review_count":6,"is_open":1},{"business_id":"5UoASJvovfFzp-eUCiFfWQ","name":"Northwood Realty Services","latitude":40.4668581,"longitude":-79.825525,"address":"11722 Frankstown Rd","city":"Pittsburgh","state":"PA","stars":5.0,"review_count":4,"is_open":1},{"business_id":"qvKvxTEp7Lg1fDB6yDoJBg","name":"Crane Village","latitude":40.415174,"longitude":-80.034513,"address":"651 Oaklynn Ct","city":"Pittsburgh","state":"PA","stars":2.0,"review_count":5,"is_open":1},{"business_id":"9Rmuwj-13bFD7i6-TGCdKw","name":"Real Property Management Pittsburgh","latitude":40.4600328,"longitude":-79.9252566,"address":"134 S Highland Ave","city":"Pittsburgh","state":"PA","stars":3.0,"review_count":11,"is_open":1},{"business_id":"TponXUIK378LcV_a-rerHQ","name":"Lowe's Home Improvement","latitude":40.570539,"longitude":-80.025049,"address":"9051 St Simon Way","city":"Pittsburgh","state":"PA","stars":2.5,"review_count":19,"is_open":1},{"business_id":"6uC5vFCKYW8bbqXhpc1MlA","name":"Total Care Restoration","latitude":40.4828051,"longitude":-80.0367259,"address":"","city":"Pittsburgh","state":"PA","stars":4.0,"review_count":7,"is_open":1},{"business_id":"sJ5qBwy_VvnIARc7PtZztQ","name":"Security Systems Of America","latitude":40.434582,"longitude":-79.870764,"address":"500 Ardmore Blvd","city":"Pittsburgh","state":"PA","stars":4.0,"review_count":4,"is_open":1},{"business_id":"EGRAje4U15Swq-5hMlZA2A","name":"Berkshire Hathaway HomeServices The Preferred Realty North Hills","latitude":40.5769944,"longitude":-80.0265905,"address":"9401 McKnight Rd","city":"Pittsburgh","state":"PA","stars":3.5,"review_count":3,"is_open":1},{"business_id":"9sbTAqqNq1poDbHZvCshpQ","name":"Skyvue","latitude":40.4381939,"longitude":-79.9627665,"address":"3333 Forbes Ave","city":"Pittsburgh","state":"PA","stars":2.0,"review_count":11,"is_open":1},{"business_id":"AXQ0t8mHZbSXfd5EAEGacQ","name":"Steel City Garage Doors","latitude":40.4344693,"longitude":-79.9230448,"address":"2004 Murray Ave, Ste 1","city":"Pittsburgh","state":"PA","stars":4.5,"review_count":5,"is_open":1},{"business_id":"wYzjhEbdr9rRLbuihgjjOw","name":"Waters Electric","latitude":40.4828051,"longitude":-80.0367259,"address":"","city":"Pittsburgh","state":"PA","stars":4.0,"review_count":8,"is_open":0},{"business_id":"XJKrUoGS85kgGrGGvsaIgw","name":"PNC Bank","latitude":40.4437943926,"longitude":-79.9560623249,"address":"4031 Fifth Ave","city":"Pittsburgh","state":"PA","stars":3.5,"review_count":3,"is_open":1},{"business_id":"EBFFqA01zsV6vUKCYgq00Q","name":"C A Property Management","latitude":40.4748883,"longitude":-79.9188657,"address":"1125 N Highland Ave","city":"Pittsburgh","state":"PA","stars":1.0,"review_count":9,"is_open":1},{"business_id":"7NDfILBVW8lWYW8QjnOIIw","name":"Penn-Garrison","latitude":40.4439805,"longitude":-79.9976964,"address":"915 Penn Ave","city":"Pittsburgh","state":"PA","stars":3.0,"review_count":4,"is_open":1},{"business_id":"t_vpekiWx01z3biPzdDQUQ","name":"Forward Management","latitude":40.45209,"longitude":-79.93223,"address":"5440 5th Ave, Ste 63","city":"Pittsburgh","state":"PA","stars":2.0,"review_count":17,"is_open":1},{"business_id":"GqiYGtQ3veQGiyDGg16BOw","name":"RJS Painting & Remodeling","latitude":40.5165796,"longitude":-80.003307,"address":"131 Hilands Pl","city":"Pittsburgh","state":"PA","stars":5.0,"review_count":3,"is_open":1},{"business_id":"8oRCFeQfrcipyj5PghDtEg","name":"Kissel Moving & Storage","latitude":40.4688546,"longitude":-79.9953678,"address":"1121 S Side Ave","city":"Pittsburgh","state":"PA","stars":2.0,"review_count":4,"is_open":1},{"business_id":"XThWHTqpinUK8mGdXgnCcg","name":"Molyneaux Tile Carpet Wood","latitude":40.52957,"longitude":-80.0081705,"address":"4864 McKnight Rd","city":"Pittsburgh","state":"PA","stars":4.0,"review_count":19,"is_open":1},{"business_id":"pwkUlTeINgxjfU6cAnOSxA","name":"Ndc Real Estate Management","latitude":40.447309,"longitude":-79.9513939,"address":"4415 5th Ave, Ste A","city":"Pittsburgh","state":"PA","stars":2.5,"review_count":3,"is_open":1},{"business_id":"RKwVRJ9eQ-u_OI4SouKnaQ","name":"The Barn Landscape Supply","latitude":40.5145803,"longitude":-80.0066235,"address":"3004 Babcock Blvd","city":"Pittsburgh","state":"PA","stars":4.0,"review_count":3,"is_open":1},{"business_id":"4aWJLkiyxJVpTWVJePv_sg","name":"Walnut on Highland","latitude":40.4606733,"longitude":-79.9248462,"address":"121 S Highland Ave","city":"Pittsburgh","state":"PA","stars":4.5,"review_count":16,"is_open":1},{"business_id":"lW90K8kabywIII1ibBSlQQ","name":"Windows Unlimited","latitude":40.3387081,"longitude":-79.9595127,"address":"120 Clairton Blvd","city":"Pittsburgh","state":"PA","stars":1.0,"review_count":3,"is_open":1},{"business_id":"137jrU-pHsEwCwQL6Dw84g","name":"Pittsburgh Truck & Tow","latitude":40.4946928,"longitude":-79.9234481,"address":"1701 Main St","city":"Pittsburgh","state":"PA","stars":3.5,"review_count":3,"is_open":1},{"business_id":"zxgElV79Pgxq5vW8hhfnWg","name":"B & P Locksmiths Inc","latitude":40.3387494,"longitude":-79.9576857,"address":"160 Clairton Blvd","city":"Pittsburgh","state":"PA","stars":3.5,"review_count":4,"is_open":1},{"business_id":"CZ1kXH2dKd5CXYvhJamhUA","name":"Central Van & Storage","latitude":40.5088958,"longitude":-80.1241291,"address":"4801 Grand Ave, Ste A","city":"Pittsburgh","state":"PA","stars":3.5,"review_count":3,"is_open":1},{"business_id":"Pt2lSDt1_YY_F-HOYmpSCw","name":"Meredith Home Improvements","latitude":40.3651922,"longitude":-80.085283,"address":"2025 Borland Rd","city":"Pittsburgh","state":"PA","stars":3.5,"review_count":5,"is_open":1},{"business_id":"kmtjm0QL44REpcW87d_AXQ","name":"Ted Thompson Heating & Cooling","latitude":40.3928498,"longitude":-80.0326491,"address":"1245 Tennessee Ave","city":"Pittsburgh","state":"PA","stars":5.0,"review_count":3,"is_open":1},{"business_id":"pHHBq1qW8F6UJ9sEt2_5iA","name":"Top Notch Heating and Cooling","latitude":40.4129932,"longitude":-80.0200185,"address":"1403 Rockland Ave","city":"Pittsburgh","state":"PA","stars":3.5,"review_count":6,"is_open":1},{"business_id":"wOgVBqAWPb7nEO1QWcZl-Q","name":"Kramer Construction","latitude":40.427713,"longitude":-79.8807916,"address":"184 Gordon St","city":"Pittsburgh","state":"PA","stars":2.5,"review_count":3,"is_open":1},{"business_id":"C3Nj4nKpZgSIurPY8PDYVg","name":"Schultheis Bros. Heating, Cooling & Roofing","latitude":40.4874072,"longitude":-79.7786673,"address":"1001 Millers Ln","city":"Pittsburgh","state":"PA","stars":4.0,"review_count":15,"is_open":1},{"business_id":"e1F0XWF2_ww68vLAJ8r1SQ","name":"The Forget Me Not Shoppe","latitude":40.3635892,"longitude":-80.085488,"address":"1946 Painters Run Rd","city":"Pittsburgh","state":"PA","stars":2.0,"review_count":3,"is_open":1},{"business_id":"R_H8dtvC2fsBk7XZ-8L0Uw","name":"Decks Decks Decks","latitude":40.449472,"longitude":-79.881327,"address":"500 Sickles St","city":"Pittsburgh","state":"PA","stars":4.5,"review_count":3,"is_open":1},{"business_id":"CrRMp1zHU0SVh9Uc3Orb3Q","name":"Bellhops","latitude":40.439132,"longitude":-79.954355,"address":"","city":"Pittsburgh","state":"PA","stars":4.0,"review_count":70,"is_open":1},{"business_id":"zMGXE0493e6Dm6yjZmmtfg","name":"Arbor Tree Specialists","latitude":40.316144,"longitude":-79.9790228,"address":"1115 Wilson Rd","city":"Pittsburgh","state":"PA","stars":2.0,"review_count":4,"is_open":1},{"business_id":"DlOceoa64bu-PFSKNIdTAA","name":"Building Products","latitude":40.4946122,"longitude":-79.9127011,"address":"136 23rd St","city":"Pittsburgh","state":"PA","stars":3.5,"review_count":3,"is_open":1},{"business_id":"ysbj2dLsb1uEqlZ3EAQqGg","name":"Sherwin-Williams Paint Store","latitude":40.394579,"longitude":-80.066227,"address":"1900 Greentree Rd","city":"Pittsburgh","state":"PA","stars":4.5,"review_count":4,"is_open":1},{"business_id":"4Sw949z60DupwinXF14IpA","name":"The Home Pros","latitude":40.3747044,"longitude":-80.0702555,"address":"","city":"Pittsburgh","state":"PA","stars":5.0,"review_count":6,"is_open":1},{"business_id":"IDuwTJug5Pb4pQLvwOy1Vg","name":"U-Haul Moving & Storage of Oakland","latitude":40.4579192461,"longitude":-79.9564684997,"address":"3700 Bigelow Blvd","city":"Pittsburgh","state":"PA","stars":3.0,"review_count":8,"is_open":1},{"business_id":"1TS6gxscn2sTH_4WqcmXBA","name":"Center For Lice Removal","latitude":40.4176706,"longitude":-80.0450191,"address":"993 Greentree Rd, Ste 200","city":"Pittsburgh","state":"PA","stars":5.0,"review_count":5,"is_open":1},{"business_id":"S2OUblEc-GaZG8uaB5uFMA","name":"J & A South Park","latitude":40.3486632,"longitude":-80.0165495,"address":"5901 B Baptist Rd","city":"Pittsburgh","state":"PA","stars":3.0,"review_count":38,"is_open":1},{"business_id":"YXu6R_f-vHKmA62FKb-gtw","name":"Professional Plumbing Services Co","latitude":40.4742443562,"longitude":-80.0292246044,"address":"3118 Brighton Rd","city":"Pittsburgh","state":"PA","stars":1.0,"review_count":3,"is_open":1},{"business_id":"NmgskoGaQorvBex8oGUnXA","name":"Carson Street Commons","latitude":40.42784,"longitude":-79.9690995,"address":"2529 E Carson St","city":"Pittsburgh","state":"PA","stars":4.0,"review_count":8,"is_open":1},{"business_id":"tGZKYQBEyVvDapsRrmqcIQ","name":"GWC Vape Shop","latitude":40.4343795,"longitude":-79.9230379,"address":"2010 Murray Ave","city":"Pittsburgh","state":"PA","stars":4.0,"review_count":11,"is_open":1},{"business_id":"RFoh5YBjtBHPSsZjocajhw","name":"Royal York Apartments","latitude":40.4529229,"longitude":-79.9536756,"address":"3955 Bigelow Blvd","city":"Pittsburgh","state":"PA","stars":4.5,"review_count":5,"is_open":1},{"business_id":"BZXPHWSZAmRvdXqPgzKDyg","name":"Marvista Rentals","latitude":40.436348,"longitude":-79.921667,"address":"5825 Bartlett St","city":"Pittsburgh","state":"PA","stars":3.5,"review_count":6,"is_open":1},{"business_id":"By5t_SapEX5TAxT9P4G24g","name":"Handyman Matters of South Pittsburgh","latitude":40.35762,"longitude":-80.05998,"address":"","city":"Pittsburgh","state":"PA","stars":3.5,"review_count":6,"is_open":1},{"business_id":"Zh6ewryBG1z__aug1jGWxQ","name":"Grogan Brothers Moving Storage","latitude":40.457187,"longitude":-79.8942262,"address":"7253 Frankstown Ave, Ste 55","city":"Pittsburgh","state":"PA","stars":3.5,"review_count":12,"is_open":0},{"business_id":"2h3qc48Cw7IN6qWIaIVAPA","name":"Hobbs Painting","latitude":40.4889796,"longitude":-80.0541254,"address":"233 Laurel Ave","city":"Pittsburgh","state":"PA","stars":5.0,"review_count":3,"is_open":1},{"business_id":"2utAqL8JkdKVHgvhlR34eA","name":"American Home Services","latitude":40.3400434,"longitude":-79.9651563,"address":"10 Old Clairton Rd, Ste 316","city":"Pittsburgh","state":"PA","stars":1.0,"review_count":3,"is_open":1},{"business_id":"2uajme7rKQtqlfejxosBxA","name":"Squirrel Hill Locksmith","latitude":40.4327086,"longitude":-79.9248669,"address":"","city":"Pittsburgh","state":"PA","stars":4.5,"review_count":11,"is_open":0},{"business_id":"dEj6gtjF0nhCi5fdCqtnbw","name":"Allied Van Lines","latitude":40.4828051,"longitude":-80.0367259,"address":"","city":"Pittsburgh","state":"PA","stars":1.0,"review_count":3,"is_open":1},{"business_id":"dGz_n-ZE_YZP8VXmrMt3bw","name":"Murray Avenue Locksmith","latitude":40.434508,"longitude":-79.9229685,"address":"2004 Murray Ave","city":"Pittsburgh","state":"PA","stars":4.0,"review_count":35,"is_open":1},{"business_id":"VrlLRAiHrg3Fzf1mOTbQAA","name":"Established Moving & Storage - Pittsburgh","latitude":40.4222352,"longitude":-80.0607393,"address":"651 Holiday Drive Bldg 5 4th","city":"Pittsburgh","state":"PA","stars":1.5,"review_count":3,"is_open":1},{"business_id":"p88JZhTBoY7wttp24ok5sg","name":"Budget Pest Control","latitude":40.5378446,"longitude":-80.0062448,"address":"3801 Mcknight E Dr","city":"Pittsburgh","state":"PA","stars":2.5,"review_count":12,"is_open":1},{"business_id":"PteYWijlbFzFLlrYMxK3Hg","name":"The Alden","latitude":40.340808,"longitude":-79.9815221,"address":"5492 Youngridge Dr","city":"Pittsburgh","state":"PA","stars":1.5,"review_count":6,"is_open":1},{"business_id":"rV0xOiJA3AFfkP28cys8vQ","name":"Stanford Home Center","latitude":40.4541262,"longitude":-79.7123801,"address":"2001 Golden Mile Hwy","city":"Pittsburgh","state":"PA","stars":3.0,"review_count":7,"is_open":1},{"business_id":"gXGPxcJ1qU2Mgn8bwh5q2g","name":"Dan Haeck  - Coldwell Banker Real Estate Services","latitude":40.3400434,"longitude":-79.9651563,"address":"10 Old Clairton Rd, Ste 7","city":"Pittsburgh","state":"PA","stars":5.0,"review_count":5,"is_open":1},{"business_id":"k0-MzD-xoRsobWqIzPiqsg","name":"Bc Artman Real Estate","latitude":40.373563,"longitude":-79.975894,"address":"3614 Brownsville Rd","city":"Pittsburgh","state":"PA","stars":4.0,"review_count":5,"is_open":1},{"business_id":"t8ix9wrySnC0Tf4-pI12qA","name":"Xfinity Store by Comcast","latitude":40.5697478,"longitude":-80.0205068,"address":"790 Providence Blvd, Bldg C-2","city":"Pittsburgh","state":"PA","stars":2.5,"review_count":7,"is_open":1},{"business_id":"WZto5Gxk_lDAoO0oP33abw","name":"Albert Anthony Real Estate","latitude":40.4207385,"longitude":-79.9283104,"address":"4343 Murray Ave","city":"Pittsburgh","state":"PA","stars":1.5,"review_count":3,"is_open":0},{"business_id":"kSs1ZJbsz8DuXjeI74Ez4w","name":"Total Construction Services","latitude":40.4004712,"longitude":-79.9024779,"address":"","city":"Pittsburgh","state":"PA","stars":1.0,"review_count":4,"is_open":1},{"business_id":"guKFU4NvP4mal20ZDjE0kQ","name":"Precision Garage Door Service","latitude":40.4314893,"longitude":-80.1310784,"address":"603 Pkwy View Dr","city":"Pittsburgh","state":"PA","stars":4.5,"review_count":15,"is_open":1},{"business_id":"VCQadvTqxyxGyzBp21s1eA","name":"Allegheny Valley Transfer","latitude":40.34621,"longitude":-79.9554121,"address":"1512 Lebanon Church Rd","city":"Pittsburgh","state":"PA","stars":2.0,"review_count":4,"is_open":1},{"business_id":"uFUDb884TX4Hg2p5OsBWdA","name":"PNC Bank","latitude":40.553907391,"longitude":-80.0193415583,"address":"50 Mcintyre Square Dr","city":"Pittsburgh","state":"PA","stars":3.5,"review_count":4,"is_open":1},{"business_id":"NwuUcvXcGtgZkju_XXmP0w","name":"Pittsburgh Kitchenramma","latitude":40.462806,"longitude":-79.968849,"address":"3340 Smallman St","city":"Pittsburgh","state":"PA","stars":3.5,"review_count":5,"is_open":1},{"business_id":"bI635MOr8t-yQ6nm_LCC6Q","name":"The Yards At 3 Crossings","latitude":40.4572262,"longitude":-79.9799404,"address":"2645 Railroad St","city":"Pittsburgh","state":"PA","stars":3.0,"review_count":4,"is_open":1},{"business_id":"eOpQ5lxPjsPQtooSYtJIZQ","name":"Chapon's Greenhouse & Supply","latitude":40.3724042,"longitude":-79.9435346,"address":"4846 Streets Run Rd","city":"Pittsburgh","state":"PA","stars":4.5,"review_count":11,"is_open":1},{"business_id":"74vqVbTFUYqvSqrBiVj6RA","name":"Mozart Management","latitude":40.4556811,"longitude":-79.9380454,"address":"515 S Aiken Ave","city":"Pittsburgh","state":"PA","stars":2.0,"review_count":50,"is_open":1},{"business_id":"W7go7Pbyh5lVtKljO4u30g","name":"City Center Self Storage","latitude":40.4297847,"longitude":-79.9962084,"address":"20 S 4th St","city":"Pittsburgh","state":"PA","stars":5.0,"review_count":7,"is_open":1},{"business_id":"OWP_wqhgekrCdE_iR5EuLg","name":"Rezzetano Plumbing","latitude":40.554021,"longitude":-79.88876,"address":"109 Indian Dr","city":"Pittsburgh","state":"PA","stars":5.0,"review_count":8,"is_open":1},{"business_id":"OSeUewYWO1hX0bv7Xs3P9Q","name":"Kimicata Bros","latitude":40.4141391,"longitude":-79.9405304,"address":"4640 Georgekay Rd","city":"Pittsburgh","state":"PA","stars":3.5,"review_count":7,"is_open":1},{"business_id":"4dJrXJ1PvCfe_73FxVGhVg","name":"Atlas Game Exchange","latitude":40.4615342,"longitude":-79.9481858,"address":"4753 Liberty Ave","city":"Pittsburgh","state":"PA","stars":3.0,"review_count":10,"is_open":0},{"business_id":"hs89EwC4S0lwcYtm7RffmQ","name":"Holland Mortgage Advisors","latitude":40.4304649,"longitude":-80.1327164,"address":"4640 Campbells Run Rd","city":"Pittsburgh","state":"PA","stars":3.0,"review_count":4,"is_open":1},{"business_id":"OIEtivFhyEk42uPbis4LjQ","name":"Rug Lab Carpet","latitude":40.4884778,"longitude":-79.9221994,"address":"7227 Butler St","city":"Pittsburgh","state":"PA","stars":3.5,"review_count":3,"is_open":1}]