{"8ivPsz1lvHSHBOQPLNlhDw": {"name": "Griffin Inspection Services", "latitude": 40.5029699, "longitude": -79.9500477, "address": "", "city": "Pittsburgh", "state": "PA", "stars": 5.0, "review_count": 13, "is_open": 1}, "-Wdp5xVPqhbFxWZDVmqRNw": {"name": "Zerorez Pittsburgh", "latitude": 40.5331563, "longitude": -80.0594733, "address": "453 Lowries Run Rd", "city": "Pittsburgh", "state": "PA", "stars": 4.5, "review_count": 41, "is_open": 1}, "4abebltNgtm_-nN4NksJTA": {"name": "GE Logistic Solutions", "latitude": 40.5029699, "longitude": -79.9500477, "address": "", "city": "Pittsburgh", "state": "PA", "stars": 4.5, "review_count": 24, "is_open": 1}, "NOTGBsH5QK0X4iSaKcyLLg": {"name": "Flaherty Tree Service", "latitude": 40.468347, "longitude": -80.032514, "address": "1425 Woodland Ave", "city": "Pittsburgh", "state": "PA", "stars": 4.5, "review_count": 18, "is_open": 1}, "Xqu75Zj2v7ZGdyTNA7NG3Q": {"name": "Eco King", "latitude": 40.4974532, "longitude": -80.0603445, "address": "", "city": "Pittsburgh", "state": "PA", "stars": 5.0, "review_count": 90, "is_open": 1}, "O9Z8CoMM2zL1DL5wq2fTUg": {"name": "Bobby West - Coldwell Banker Real Estate Services", "latitude": 40.4382747, "longitude": -79.9198168, "address": "5887 Forbes Ave", "city": "Pittsburgh", "state": "PA", "stars": 5.0, "review_count": 23, "is_open": 1}, "82gUcpp_Z04hJaIjjnH4xA": {"name": "A 1 Garage Door Repair Service", "latitude": 40.43406, "longitude": -79.922454, "address": "5904 Nicholson St", "city": "Pittsburgh", "state": "PA", "stars": 5.0, "review_count": 13, "is_open": 1}, "1-sDd7CzBGG47ElyIWTq_Q": {"name": "1-800-GOT-JUNK? Pittsburgh City", "latitude": 40.4681173, "longitude": -79.9661753, "address": "3739 Foster St", "city": "Pittsburgh", "state": "PA", "stars": 4.5, "review_count": 28, "is_open": 1}, "1jMtot685bxNT7oeSTNCaA": {"name": "Construction Junction", "latitude": 40.4496169181, "longitude": -79.8988556098, "address": "214 N Lexington St", "city": "Pittsburgh", "state": "PA", "stars": 4.5, "review_count": 51, "is_open": 1}, "nIBwnhQC-dKxVU5yD6g1pQ": {"name": "Industrious Pittsburgh", "latitude": 40.439802, "longitude": -80.003201, "address": "One PPG Pl, 31st Fl", "city": "Pittsburgh", "state": "PA", "stars": 5.0, "review_count": 17, "is_open": 1}, "5a4yZKxvMsoD81h4kAXP_w": {"name": "Ace Lock", "latitude": 40.460455, "longitude": -79.925615, "address": "5964 Baum Blvd", "city": "Pittsburgh", "state": "PA", "stars": 4.5, "review_count": 18, "is_open": 1}, "9gVMS32J04Jl6Wfb3oC3MQ": {"name": "Clean Interiors", "latitude": 40.5379856, "longitude": -80.0858116, "address": "136 Kensington Dr", "city": "Pittsburgh", "state": "PA", "stars": 5.0, "review_count": 16, "is_open": 1}, "E_73YjCxiqv4FHCTsmm5FA": {"name": "Xtreme Autoglass Pros", "latitude": 40.4289929, "longitude": -79.9808362, "address": "1735 Carson St", "city": "Pittsburgh", "state": "PA", "stars": 5.0, "review_count": 13, "is_open": 1}, "b1UvPlDmVtN0ATBVfe6wBw": {"name": "Ed Lampl Environmental and Home Inspections", "latitude": 40.438591, "longitude": -79.8893274, "address": "462 Biddle Ave", "city": "Pittsburgh", "state": "PA", "stars": 4.5, "review_count": 47, "is_open": 1}, "4aWJLkiyxJVpTWVJePv_sg": {"name": "Walnut on Highland", "latitude": 40.4606733, "longitude": -79.9248462, "address": "121 S Highland Ave", "city": "Pittsburgh", "state": "PA", "stars": 4.5, "review_count": 16, "is_open": 1}, "guKFU4NvP4mal20ZDjE0kQ": {"name": "Precision Garage Door Service", "latitude": 40.4314893, "longitude": -80.1310784, "address": "603 Pkwy View Dr", "city": "Pittsburgh", "state": "PA", "stars": 4.5, "review_count": 15, "is_open": 1}}