[{"business_id":"sm5Sl7z9Kx1yXExrdGuZ7g","name":"Cho Buffet","latitude":40.4526444,"longitude":-80.1602414,"address":"6302 Robinson Centre Dr","city":"Pittsburgh","state":"PA","stars":1.5,"review_count":7,"is_open":0},{"business_id":"goar7zF4G0LdsQ1Y4KS3Iw","name":"Pittsburgh Barbecue Company","latitude":40.4198992597,"longitude":-80.0300516362,"address":"1000 Banksville Rd","city":"Pittsburgh","state":"PA","stars":4.0,"review_count":91,"is_open":1},{"business_id":"grZ6FnfZoj1pQWElAQve3g","name":"Wendy's","latitude":40.4002348,"longitude":-80.0241271,"address":"2410 W. Liberty","city":"Pittsburgh","state":"PA","stars":2.0,"review_count":22,"is_open":1},{"business_id":"1YC7AbQMlNb5mLUlwwaa3w","name":"Bites and Brews","latitude":40.4556962,"longitude":-79.9308834,"address":"5750 Ellsworth Ave","city":"Pittsburgh","state":"PA","stars":3.5,"review_count":85,"is_open":0},{"business_id":"y-0Twdg0sIhrh7BFJii8LA","name":"Duquesne Club","latitude":40.441961,"longitude":-79.998665,"address":"325 6th Ave","city":"Pittsburgh","state":"PA","stars":5.0,"review_count":3,"is_open":1},{"business_id":"SqoscicPMzL5mJC5JNaD0w","name":"Chaz & Odette","latitude":40.4553023,"longitude":-79.9436172,"address":"5102 Baum Blvd","city":"Pittsburgh","state":"PA","stars":3.5,"review_count":49,"is_open":0},{"business_id":"keOzwoc28Iac5mA8FD93uA","name":"Bama's Southern Kitchen","latitude":40.3951787,"longitude":-80.0225039,"address":"600 Brookline Blvd","city":"Pittsburgh","state":"PA","stars":4.5,"review_count":16,"is_open":0},{"business_id":"ijNQXC2cBhbkf6iB6D8OJw","name":"Genoa Pizza & Bar","latitude":40.4388711,"longitude":-80.0038533,"address":"111 Market St","city":"Pittsburgh","state":"PA","stars":3.0,"review_count":68,"is_open":1},{"business_id":"LTPcaw-_IqOfTSDxe8811A","name":"Duke's Pub and Pizza","latitude":40.3762608,"longitude":-80.0367425,"address":"329 Castle Shannon Blvd","city":"Pittsburgh","state":"PA","stars":3.0,"review_count":16,"is_open":0},{"business_id":"_WsGlZnbXBdPcs0qM2Qm7w","name":"Ryan's Pub","latitude":40.4393965,"longitude":-79.8971839,"address":"607 S Braddock Ave","city":"Pittsburgh","state":"PA","stars":3.0,"review_count":18,"is_open":0},{"business_id":"FAhFnSJn9owENi61iI8jwQ","name":"Leo. a public house","latitude":40.4540188664,"longitude":-80.0198856998,"address":"1207 Allegheny Ave","city":"Pittsburgh","state":"PA","stars":4.5,"review_count":16,"is_open":1},{"business_id":"xzR3J-4vpt6K4ZHr8nQLCA","name":"Archie's","latitude":40.4280498,"longitude":-79.9718346,"address":"2328 E Carson St","city":"Pittsburgh","state":"PA","stars":3.5,"review_count":57,"is_open":1},{"business_id":"lPljcKGwLlcwkLT5cl0yDg","name":"Bruegger's Bagels","latitude":40.44289,"longitude":-79.996284,"address":"411 Seventh Ave","city":"Pittsburgh","state":"PA","stars":3.0,"review_count":14,"is_open":0},{"business_id":"J5JzAUd2wzyArZ-qHT0A4A","name":"Poros","latitude":40.4402172791,"longitude":-80.0029219128,"address":"2 Ppg Pl","city":"Pittsburgh","state":"PA","stars":3.5,"review_count":143,"is_open":0},{"business_id":"cPZ5ugSrVrqnqD5ZsJhnpA","name":"Pgh Crepes","latitude":40.4439607709,"longitude":-79.9542873063,"address":"Bigelow Blvd & Forbes Ave","city":"Pittsburgh","state":"PA","stars":3.5,"review_count":26,"is_open":1},{"business_id":"Aes4MuZLnFqglFJNMZxRbw","name":"Lydiah's Coffee House","latitude":40.4371691,"longitude":-79.9981261,"address":"200 Grant St","city":"Pittsburgh","state":"PA","stars":4.5,"review_count":27,"is_open":0},{"business_id":"X2f2s37_cFKo4xpzGFqk1w","name":"Hokkaido Seafood Buffet","latitude":40.4154710864,"longitude":-79.924143279,"address":"4612 Browns Hill Rd","city":"Pittsburgh","state":"PA","stars":3.0,"review_count":243,"is_open":1},{"business_id":"H6skMpg_g-sOrfTQf_Q5LQ","name":"Thai Hana","latitude":40.4415006,"longitude":-79.958821,"address":"3608 5th Ave","city":"Pittsburgh","state":"PA","stars":3.0,"review_count":133,"is_open":0},{"business_id":"tuB82m4oIlKLyWeQjEF16g","name":"Tasty N Healthy","latitude":40.4646762,"longitude":-79.827253,"address":"11633 Penn Hills Dr","city":"Pittsburgh","state":"PA","stars":4.5,"review_count":37,"is_open":1},{"business_id":"1zl7-8t8jQ4NX29qRp8soA","name":"City Fresh Pasta","latitude":40.4335076,"longitude":-79.9228533,"address":"2107 Murray Ave","city":"Pittsburgh","state":"PA","stars":4.5,"review_count":28,"is_open":0},{"business_id":"XfgHILSTiFuoK69Z4KOcJg","name":"Newman & Marleys","latitude":40.440368,"longitude":-79.9836108,"address":"","city":"Pittsburgh","state":"PA","stars":5.0,"review_count":4,"is_open":0},{"business_id":"nF5TXLMmC6IJgQxE9CEZPw","name":"Sun Penang","latitude":40.4382561,"longitude":-79.9218667,"address":"5829 Forbes Ave","city":"Pittsburgh","state":"PA","stars":3.0,"review_count":155,"is_open":0},{"business_id":"v1G_bioP6POazUyQwHcz7Q","name":"Kiva Han","latitude":40.4406105,"longitude":-79.9586239,"address":"3533 Forbes Ave","city":"Pittsburgh","state":"PA","stars":3.5,"review_count":22,"is_open":0},{"business_id":"FKtVtuM5vg1YN3Yn5yF1tA","name":"Dairy Queen Orange Julius","latitude":40.453736,"longitude":-80.157185,"address":"100 Robinson Ctr Dr, Ste 2560","city":"Pittsburgh","state":"PA","stars":1.5,"review_count":3,"is_open":1},{"business_id":"QIXz6e0SZ4okLBFBsO79_Q","name":"Ace Hotel Pittsburgh","latitude":40.4612819,"longitude":-79.9264254,"address":"120 S Whitfield St","city":"Pittsburgh","state":"PA","stars":4.0,"review_count":98,"is_open":1},{"business_id":"QI7XeQ11U4D-A5uRcah5Iw","name":"Bea's Taqueria","latitude":40.4282646,"longitude":-79.9739887,"address":"2212 E Carson St","city":"Pittsburgh","state":"PA","stars":4.0,"review_count":11,"is_open":0},{"business_id":"CbwyXSyieSM3kO7brRlyHg","name":"Cousins Maine Lobster - Pittsburgh","latitude":40.6315486,"longitude":-79.9528451,"address":"","city":"Pittsburgh","state":"PA","stars":4.0,"review_count":78,"is_open":1},{"business_id":"HDMoo6OIY4qIIKWfvbYK_A","name":"Max & Erma's","latitude":40.3932957,"longitude":-80.0656653,"address":"1910 Cochran Rd","city":"Pittsburgh","state":"PA","stars":2.5,"review_count":19,"is_open":0},{"business_id":"t5S2YaCoMR_dyMmkMP0W2w","name":"Jim Beam Left Field Lounge and Jim Beam Porch","latitude":40.4471507,"longitude":-80.0064087,"address":"115 Federal St","city":"Pittsburgh","state":"PA","stars":2.5,"review_count":5,"is_open":1},{"business_id":"-syU1HD-Iw_GEH8P5l03_A","name":"Donut Connection","latitude":40.3867139,"longitude":-79.9822249,"address":"2414 Brownsville Rd","city":"Pittsburgh","state":"PA","stars":4.0,"review_count":12,"is_open":1},{"business_id":"jAQwIRxZNj2zndM5V9UOpw","name":"Pittsburgh Field Club","latitude":40.51334,"longitude":-79.889851,"address":"121 Field Club Rd","city":"Pittsburgh","state":"PA","stars":3.5,"review_count":5,"is_open":1},{"business_id":"dHiq1JliKgh_3z-KnTpCaA","name":"Roxanne's Catering","latitude":40.4649486,"longitude":-79.9544552,"address":"4124 Main St","city":"Pittsburgh","state":"PA","stars":4.0,"review_count":3,"is_open":1},{"business_id":"oCvxJBOs-Mbg-4oanPO7lQ","name":"Pita Pit","latitude":40.426647,"longitude":-79.965902,"address":"2763 East Carson St","city":"Pittsburgh","state":"PA","stars":3.5,"review_count":57,"is_open":1},{"business_id":"a3ZqjElMgAe924sbXZVcvA","name":"Sciulli's Pizza","latitude":40.4391344,"longitude":-79.961805,"address":"3404 5th Ave","city":"Pittsburgh","state":"PA","stars":4.5,"review_count":20,"is_open":1},{"business_id":"7ULRdJfVo2-Og5ZoGOECFg","name":"Mediterrano","latitude":40.510325,"longitude":-79.993322,"address":"2193 Babcock Blvd","city":"Pittsburgh","state":"PA","stars":3.5,"review_count":66,"is_open":0},{"business_id":"Rp8D7pO3iTcd7zYV8G93yQ","name":"Tisha's Sunny Farms","latitude":40.3951835632,"longitude":-80.0225143433,"address":"600 Brookline Blvd","city":"Pittsburgh","state":"PA","stars":4.0,"review_count":9,"is_open":0},{"business_id":"uE6hI5_i4QVq12xU99xtqA","name":"Fazio's Pizza","latitude":40.4652007,"longitude":-79.9568209,"address":"4028 Penn Ave","city":"Pittsburgh","state":"PA","stars":4.0,"review_count":77,"is_open":1},{"business_id":"xUsLyzWQId6nXwNDVq08qQ","name":"Lotus Garden","latitude":40.368626,"longitude":-79.983,"address":"3911 Saw Mill Run Blvd","city":"Pittsburgh","state":"PA","stars":4.0,"review_count":6,"is_open":0},{"business_id":"0EcCWB9_VxTOoAh_1Wr_RQ","name":"Blue Line Grille","latitude":40.4387705,"longitude":-79.9903134,"address":"1014 Fifth Ave","city":"Pittsburgh","state":"PA","stars":3.0,"review_count":83,"is_open":0},{"business_id":"-8F04F54iDT6VgWPCgybug","name":"Ineffable Ca Phe","latitude":40.464681,"longitude":-79.959312,"address":"3920 Penn Ave","city":"Pittsburgh","state":"PA","stars":4.5,"review_count":131,"is_open":1},{"business_id":"HGtJeZ5ifqRwknvsBlB8fQ","name":"Tocayo Taqueria & Tequila","latitude":40.451213,"longitude":-79.932284,"address":"810 Ivy St","city":"Pittsburgh","state":"PA","stars":4.5,"review_count":94,"is_open":1},{"business_id":"_EGWxiD27k3ahcFpmbSjQg","name":"Great Wall Chinese Food","latitude":40.4147164,"longitude":-79.9875146,"address":"243 Brownsville Rd","city":"Pittsburgh","state":"PA","stars":3.5,"review_count":4,"is_open":0},{"business_id":"3eexaenBq8HvkTiYjVl3Pg","name":"McKnight Kitchen","latitude":40.5294531223,"longitude":-80.0084148132,"address":"4860 McKnight Rd","city":"Pittsburgh","state":"PA","stars":3.5,"review_count":115,"is_open":1},{"business_id":"gbDZhohLAOL1ufdVWHMTxQ","name":"Pizza Hut","latitude":40.4538812,"longitude":-79.949570481,"address":"4710 Baum Blvd","city":"Pittsburgh","state":"PA","stars":2.0,"review_count":11,"is_open":1},{"business_id":"DUYO3j2zAjsQ94HYqbFsCA","name":"Gaby Et Jules","latitude":40.4610119,"longitude":-79.9243986,"address":"6006 Penn Ave","city":"Pittsburgh","state":"PA","stars":4.5,"review_count":5,"is_open":1},{"business_id":"3frFidAcPVYAFB2RxxkIdA","name":"Star of India","latitude":40.4448167,"longitude":-79.9489713,"address":"412 S Craig St","city":"Pittsburgh","state":"PA","stars":3.5,"review_count":19,"is_open":0},{"business_id":"Zp2vJfHciG9IiXfmtH5Wdw","name":"Beta Bites","latitude":40.4400088,"longitude":-79.9532523,"address":"338 S Bouquet St","city":"Pittsburgh","state":"PA","stars":4.0,"review_count":86,"is_open":1},{"business_id":"P7Vk5j_XzWl-9kS5qZd9aQ","name":"Fat Angelo's Pizzeria - Pittsburgh","latitude":40.4288129,"longitude":-79.994599,"address":"511 E Carson St","city":"Pittsburgh","state":"PA","stars":3.0,"review_count":20,"is_open":1},{"business_id":"P1a2WApEoMb65s14RmqV2g","name":"Buford's Kitchen","latitude":40.4387270632,"longitude":-79.9904322,"address":"1014 5th Ave","city":"Pittsburgh","state":"PA","stars":2.5,"review_count":114,"is_open":1},{"business_id":"pWJoOfYUWSkro0WNxHspFg","name":"Claudio's Pizzeria & Ristorante","latitude":40.3630141,"longitude":-80.0854621,"address":"1883 Painter's Run Rd","city":"Pittsburgh","state":"PA","stars":4.5,"review_count":37,"is_open":1},{"business_id":"_d69ooWJ_7AXYQRvVNSjmQ","name":"Pizza Hut","latitude":40.543238,"longitude":-80.01371,"address":"7520 McKnight Rd","city":"Pittsburgh","state":"PA","stars":2.0,"review_count":12,"is_open":0},{"business_id":"kGDzJFasIHxrH0EAa_oSWQ","name":"Pittsburgh Grill and Sports Bar","latitude":40.4459012,"longitude":-80.0112553,"address":"381 N Shore Dr","city":"Pittsburgh","state":"PA","stars":2.5,"review_count":22,"is_open":0},{"business_id":"995cDn3wIwi4pw4N_uLSqw","name":"Starbucks","latitude":40.542894,"longitude":-80.008204,"address":"1000 Ross Park Mall Drive, K108B","city":"Pittsburgh","state":"PA","stars":4.0,"review_count":5,"is_open":1},{"business_id":"0PVxodALQu-soL5J8bjerQ","name":"Ritter's Diner","latitude":40.4564001019,"longitude":-79.9412396,"address":"5221 Baum Blvd","city":"Pittsburgh","state":"PA","stars":3.5,"review_count":254,"is_open":1},{"business_id":"TYZIMuHwhZo_Hizenmf8Pg","name":"BZ's Bar and Grill","latitude":40.448071,"longitude":-80.0038351,"address":"140 Federal St","city":"Pittsburgh","state":"PA","stars":3.5,"review_count":82,"is_open":0},{"business_id":"3mbexLtpZcopAsgWmrJjVg","name":"Michelle's Diner","latitude":40.4217842,"longitude":-79.9942689,"address":"740 E Warrington Ave","city":"Pittsburgh","state":"PA","stars":4.5,"review_count":6,"is_open":0},{"business_id":"R7eLlAdeIYsxux_Vm0l5sg","name":"Carbonara's Restaurant","latitude":40.3679633,"longitude":-80.0370263,"address":"250 Mount Lebanon Blvd","city":"Pittsburgh","state":"PA","stars":3.5,"review_count":74,"is_open":1},{"business_id":"jItwkDeMBFquEb7mAvW-Dw","name":"Little Caesars Pizza","latitude":40.393766,"longitude":-80.0353162,"address":"2953 West Liberty Ave","city":"Pittsburgh","state":"PA","stars":1.5,"review_count":7,"is_open":0},{"business_id":"lpxj6LFir23Ds6swW8a6fg","name":"Grandview Saloon","latitude":40.4381076,"longitude":-80.0185368,"address":"1212 Grandview Ave","city":"Pittsburgh","state":"PA","stars":3.0,"review_count":172,"is_open":1},{"business_id":"-Lovf0jkQtvb6Y_WjDn-sw","name":"Sola Pizza","latitude":40.4289664,"longitude":-79.9834837,"address":"1417 E Carson St","city":"Pittsburgh","state":"PA","stars":3.5,"review_count":32,"is_open":0},{"business_id":"ATnRWnNk5iwwIbwS8VmuKg","name":"Taiwan Cafe","latitude":40.4415892334,"longitude":-79.9571999251,"address":"3725 Forbes Ave","city":"Pittsburgh","state":"PA","stars":3.5,"review_count":31,"is_open":0},{"business_id":"9veE8VGnlmErycp0_ubVeg","name":"Hummus Pittsburgh","latitude":40.4475255,"longitude":-79.9933976,"address":"","city":"Pittsburgh","state":"PA","stars":4.5,"review_count":6,"is_open":1},{"business_id":"7rO0ET3aQLT_NtFutyZC1w","name":"Selamis Turkish Kebab House","latitude":40.4567865,"longitude":-79.9363871,"address":"5501 Centre Ave","city":"Pittsburgh","state":"PA","stars":4.0,"review_count":14,"is_open":1},{"business_id":"gn8cZOxQIZNUeiHcJ0WxMQ","name":"Max & Erma's Restaurants","latitude":40.451773,"longitude":-79.9325889,"address":"5533 Walnut St","city":"Pittsburgh","state":"PA","stars":3.0,"review_count":6,"is_open":0},{"business_id":"izOvku5li7kyzY76UzLP2g","name":"Yen's Gourmet","latitude":40.4225614,"longitude":-79.9285714,"address":"4219 Murray Ave","city":"Pittsburgh","state":"PA","stars":2.0,"review_count":3,"is_open":1},{"business_id":"yU_z2d0TnLBBFEEYMYhKJA","name":"Latitude 360","latitude":40.4459019958,"longitude":-80.1778578288,"address":"200 Quinn Dr","city":"Pittsburgh","state":"PA","stars":2.5,"review_count":88,"is_open":0},{"business_id":"WXd7r6Yvjxhyo1L6R3lQMA","name":"Mario's South Side Saloon","latitude":40.4286863,"longitude":-79.9828571,"address":"1514 E Carson St","city":"Pittsburgh","state":"PA","stars":3.5,"review_count":112,"is_open":1},{"business_id":"nddXU_T8-mFH2yqJXXNAGg","name":"Pure & Simple Bistro","latitude":40.4387476,"longitude":-80.1465581,"address":"1910 Settlers Ridge Center Dr","city":"Pittsburgh","state":"PA","stars":3.5,"review_count":3,"is_open":0},{"business_id":"wjLgM9Ybe5shoUPRrGMmsQ","name":"Coca Cafe","latitude":40.4672287,"longitude":-79.9642028,"address":"3811 Butler St","city":"Pittsburgh","state":"PA","stars":3.0,"review_count":532,"is_open":1},{"business_id":"-FcuxZqsQ0FO35GEXExwjw","name":"The Map Room Grill & Bar","latitude":40.4321990555,"longitude":-79.8937211913,"address":"1126 S Braddock Ave","city":"Pittsburgh","state":"PA","stars":3.5,"review_count":34,"is_open":1},{"business_id":"ysJo5Jdo29XOBCnKrbUKWg","name":"Paris 66","latitude":40.459956,"longitude":-79.92427,"address":"6018 Centre Ave","city":"Pittsburgh","state":"PA","stars":3.5,"review_count":254,"is_open":1},{"business_id":"4MyZEzAuoh8oXPzCEhw_FA","name":"Lotsa Stone Fired Pizza","latitude":40.428983605,"longitude":-79.9808689914,"address":"1733 E Carson St","city":"Pittsburgh","state":"PA","stars":4.0,"review_count":15,"is_open":1},{"business_id":"35KvoWbA3kEsdckaWqG3OA","name":"Masala House Indian Bistro","latitude":40.4552906,"longitude":-79.9436163,"address":"5102 Baum Blvd","city":"Pittsburgh","state":"PA","stars":4.5,"review_count":106,"is_open":1},{"business_id":"Ul6JwluSTm12PVDIqnNaTg","name":"Kaya","latitude":40.4516553,"longitude":-79.9844699,"address":"2000 Smallman St","city":"Pittsburgh","state":"PA","stars":4.0,"review_count":718,"is_open":1},{"business_id":"FzvN6d00RNmLSJy2UMKuvA","name":"Pazzo Ristorante","latitude":40.3560807,"longitude":-80.0503427,"address":"1535 Washington Rd","city":"Pittsburgh","state":"PA","stars":3.0,"review_count":4,"is_open":0},{"business_id":"zpIybGTZ0RqArG8BOX0ALQ","name":"Franco's Restaurant","latitude":40.5341821,"longitude":-79.8448086,"address":"2501 Freeport Rd","city":"Pittsburgh","state":"PA","stars":3.5,"review_count":7,"is_open":0},{"business_id":"Jz4LZvTibMEzXx8nZX5Q7g","name":"Right By Nature Hometown Market","latitude":40.4535411,"longitude":-79.9824409,"address":"2305 Smallman St","city":"Pittsburgh","state":"PA","stars":3.5,"review_count":20,"is_open":0},{"business_id":"TFdLM8R_7Pf1xVeBNKl0hg","name":"Casbah","latitude":40.4581413,"longitude":-79.9248403,"address":"229 S Highland Ave","city":"Pittsburgh","state":"PA","stars":4.0,"review_count":426,"is_open":1},{"business_id":"KEaCHdsY7w7CBsZ6h2dLeQ","name":"The Green Mango Noodle Hut","latitude":40.4325714,"longitude":-79.8937279,"address":"1109 S Braddock Ave","city":"Pittsburgh","state":"PA","stars":4.0,"review_count":47,"is_open":0},{"business_id":"fiRbomFAAtfTYOTTtnDUcA","name":"Caliente Pizza & Drafthouse","latitude":40.4620358,"longitude":-79.9501025,"address":"4624 Liberty Ave","city":"Pittsburgh","state":"PA","stars":3.0,"review_count":309,"is_open":1},{"business_id":"ZfARN3QejrWsDJu3OtRdkg","name":"Blinky's Noble Grill & Bar","latitude":40.4276163,"longitude":-80.0555006,"address":"2350 Noblestown Rd","city":"Pittsburgh","state":"PA","stars":3.0,"review_count":23,"is_open":1},{"business_id":"IZ611uJBaWPAf-q0R37Nmw","name":"Perk Me Up Coffeehouse","latitude":40.471828,"longitude":-79.959863,"address":"4407 Butler St","city":"Pittsburgh","state":"PA","stars":4.0,"review_count":10,"is_open":0},{"business_id":"dAgImz1R-BKwR3sYhbPqRw","name":"Thai Touch Kitchen","latitude":40.3813039,"longitude":-80.0439306,"address":"665 Washington Rd","city":"Pittsburgh","state":"PA","stars":4.0,"review_count":68,"is_open":1},{"business_id":"nkDSE-yhvLX4ij5fSzvb5Q","name":"Tonic Bar & Grill","latitude":40.4438693,"longitude":-79.995512,"address":"971 Liberty Ave","city":"Pittsburgh","state":"PA","stars":3.5,"review_count":110,"is_open":0},{"business_id":"eva56motCJcevOwKzyQO1g","name":"Schenley Park Visitors Center","latitude":40.4375406448,"longitude":-79.9488830566,"address":"101 Panther Hollow Rd","city":"Pittsburgh","state":"PA","stars":5.0,"review_count":12,"is_open":1},{"business_id":"UPKWR2kaOne5d4AmdqdZlg","name":"Two Louie's Market","latitude":40.4464569,"longitude":-79.9917592,"address":"1233 Penn Ave","city":"Pittsburgh","state":"PA","stars":4.0,"review_count":35,"is_open":1},{"business_id":"7PRse3yCQbEprAj1DWrEQQ","name":"Dish Osteria and Bar","latitude":40.4275026,"longitude":-79.9822893,"address":"128 S 17th St","city":"Pittsburgh","state":"PA","stars":4.5,"review_count":207,"is_open":1},{"business_id":"XcBRdmFOBEKmgKbPvz5s0g","name":"Burger King","latitude":40.4512282576,"longitude":-79.7139899088,"address":"1901 Route 286","city":"Pittsburgh","state":"PA","stars":2.0,"review_count":3,"is_open":1},{"business_id":"462vn0tiPlmWRcP71yYOTQ","name":"Tsuki Japanese","latitude":40.4661866807,"longitude":-79.8269581626,"address":"11655 Frankstown Rd","city":"Pittsburgh","state":"PA","stars":4.0,"review_count":42,"is_open":0},{"business_id":"8aykSzSqGPYUpMQbO2DPdA","name":"Sukhothai Bistro","latitude":40.4381461,"longitude":-79.9223846,"address":"5813 Forbes Ave","city":"Pittsburgh","state":"PA","stars":3.5,"review_count":77,"is_open":0},{"business_id":"5oA6zlmJ4jQREDH6dNCq6w","name":"The Alcove","latitude":40.4266685097,"longitude":-80.040649866,"address":"875 Greentree Rd, Ste 106 Bldg 4","city":"Pittsburgh","state":"PA","stars":4.5,"review_count":41,"is_open":1},{"business_id":"stD-LTFFwlmBdzU-0aBntw","name":"Little Nipper's Pizza II","latitude":40.4506317353,"longitude":-79.9510331983,"address":"216 N Craig St","city":"Pittsburgh","state":"PA","stars":3.0,"review_count":49,"is_open":1},{"business_id":"F9IJ3EddoyW89O0DFikPTQ","name":"Sunseri Jimmy & Nino","latitude":40.4509544,"longitude":-79.9845939,"address":"1901 Penn Ave","city":"Pittsburgh","state":"PA","stars":4.5,"review_count":57,"is_open":1},{"business_id":"0pi1DQ3N8gC6jhdHfDWEMA","name":"MR Bulgogi","latitude":40.4720642,"longitude":-79.9136731,"address":"","city":"Pittsburgh","state":"PA","stars":4.5,"review_count":21,"is_open":1},{"business_id":"CK-Gv3vqIlWOrKP4fhT8_g","name":"D's Six Pax & Dogz","latitude":40.432083,"longitude":-79.893639,"address":"1118 S Braddock Ave","city":"Pittsburgh","state":"PA","stars":4.0,"review_count":387,"is_open":1},{"business_id":"mJ24zWo_FdE3_9v24sqFiw","name":"Vento's Pizza","latitude":40.4652748,"longitude":-79.9221357,"address":"420 N Highland Ave","city":"Pittsburgh","state":"PA","stars":3.5,"review_count":23,"is_open":1},{"business_id":"3ed7T7HvUJUnPf6jDmys9A","name":"Fun Asian Bistro","latitude":40.4662589,"longitude":-79.8270294,"address":"11655 Frankstown Rd","city":"Pittsburgh","state":"PA","stars":5.0,"review_count":56,"is_open":1},{"business_id":"QXKN5MYb5O1sg6-G2pwTzg","name":"Shaka","latitude":40.4515085,"longitude":-80.0060399,"address":"200 Children's Way","city":"Pittsburgh","state":"PA","stars":4.0,"review_count":24,"is_open":1},{"business_id":"pgK0mBQLth1C3DubvmWH3w","name":"Silky's Sports Bar & Grill","latitude":40.43709,"longitude":-79.922803,"address":"1731 Murray Ave","city":"Pittsburgh","state":"PA","stars":3.5,"review_count":47,"is_open":0},{"business_id":"u2Wvpa2pj2jfYcYSs_LETg","name":"K & T's Fish and Chicken","latitude":40.4519297,"longitude":-79.9525023,"address":"4521 Centre Ave","city":"Pittsburgh","state":"PA","stars":3.5,"review_count":26,"is_open":1},{"business_id":"sTmHeHv-4uZRRne5jBDzvA","name":"Si Senor Restaurant","latitude":40.4413557,"longitude":-79.9948492,"address":"600 Grant St","city":"Pittsburgh","state":"PA","stars":2.0,"review_count":4,"is_open":0},{"business_id":"h14GmWZ8rXum9fXF__wt3w","name":"SoHo","latitude":40.4483696873,"longitude":-80.0044366172,"address":"203 Federal St","city":"Pittsburgh","state":"PA","stars":3.0,"review_count":173,"is_open":1},{"business_id":"mqiHZYNXnMLaEK87JZOzmA","name":"Tasty Chinese Restaurant","latitude":40.458491,"longitude":-79.924781,"address":"213 S Highland Ave","city":"Pittsburgh","state":"PA","stars":3.0,"review_count":31,"is_open":0},{"business_id":"z_RTK0MaxaRHRQ99hDL2QA","name":"Benny Fierro's","latitude":40.4284235,"longitude":-79.9788262,"address":"1906 E Carson St","city":"Pittsburgh","state":"PA","stars":4.5,"review_count":130,"is_open":1},{"business_id":"t3uYS5ClpvjS-7ItPEflUQ","name":"Birdy's Restaurant","latitude":40.4539914,"longitude":-79.8955548,"address":"7302 Hamilton Ave","city":"Pittsburgh","state":"PA","stars":4.5,"review_count":3,"is_open":0},{"business_id":"hZj2HCiLae5-AxIp0im6lQ","name":"Route 28 Bar & Grille","latitude":40.5015563,"longitude":-79.8606291,"address":"180 Gamma Dr","city":"Pittsburgh","state":"PA","stars":3.0,"review_count":10,"is_open":1},{"business_id":"D2nfOrnJ2OBlX_428sKyMg","name":"Noodles & Company","latitude":40.4408965,"longitude":-80.0017402,"address":"476 McMaster Way","city":"Pittsburgh","state":"PA","stars":3.5,"review_count":95,"is_open":1},{"business_id":"NQN-ERs976mbnP6rkMwKtQ","name":"Kaibur Coffee","latitude":40.4575888305,"longitude":-79.9658611146,"address":"3138 Dobson St","city":"Pittsburgh","state":"PA","stars":4.0,"review_count":31,"is_open":1},{"business_id":"hV8LFG_UleDQFHvqzBPqPQ","name":"Subway Restaurants","latitude":40.43252,"longitude":-80.003939,"address":"101 W. Station Square Drive","city":"Pittsburgh","state":"PA","stars":3.0,"review_count":5,"is_open":1},{"business_id":"0PJQ-WR-S286xH6m2RWeQw","name":"Starbucks","latitude":40.4286404,"longitude":-79.9840259,"address":"1400 East Carson Street","city":"Pittsburgh","state":"PA","stars":3.5,"review_count":32,"is_open":1},{"business_id":"TKDL0wiztnEr_rMkX8ZomQ","name":"Primanti Bros","latitude":40.4284213,"longitude":-79.9793087,"address":"1832 E Carson St","city":"Pittsburgh","state":"PA","stars":3.5,"review_count":175,"is_open":1},{"business_id":"i-2OzvZUDtvKCMq1vcRSZg","name":"Triangle Bar & Grill","latitude":40.4175818,"longitude":-79.8879542,"address":"2122 Monongahela Ave","city":"Pittsburgh","state":"PA","stars":4.5,"review_count":121,"is_open":1},{"business_id":"qELIf4gzE_vlteu7pO7TZg","name":"Atria's Restaurant","latitude":40.4470921252,"longitude":-80.004046381,"address":"103 Federal St","city":"Pittsburgh","state":"PA","stars":3.0,"review_count":94,"is_open":0},{"business_id":"hZzwkAJG92KkszWO8PoOQA","name":"Fernando's","latitude":40.4437123888,"longitude":-79.9953632967,"address":"2 Ppg Pl Food Ct","city":"Pittsburgh","state":"PA","stars":4.0,"review_count":7,"is_open":0},{"business_id":"Es0JayHVN_XPn1q5yFtn6g","name":"Pittsburgh Rare","latitude":40.4346901,"longitude":-80.006389,"address":"300 W Station Sq Dr","city":"Pittsburgh","state":"PA","stars":2.5,"review_count":9,"is_open":0},{"business_id":"dMLGSQlmo6MhLD18grRENA","name":"Better-Maid Donut","latitude":40.441551,"longitude":-80.0478744,"address":"1178 Steuben St","city":"Pittsburgh","state":"PA","stars":4.5,"review_count":54,"is_open":1},{"business_id":"2cF-sCqhCGzVMJULhNqjBQ","name":"Dunkin'","latitude":40.420410568,"longitude":-79.8506823555,"address":"2065 Ardmore Blvd","city":"Pittsburgh","state":"PA","stars":2.0,"review_count":19,"is_open":1},{"business_id":"qFJ_kdfLdNODKFUY4t0qVg","name":"Make Your Mark","latitude":40.4503387,"longitude":-79.9145299,"address":"6736 Reynolds St","city":"Pittsburgh","state":"PA","stars":4.0,"review_count":50,"is_open":0},{"business_id":"7z2x16M7IuG8KPfMsyVrKA","name":"Morcilla","latitude":40.4645572158,"longitude":-79.9661576054,"address":"3519 Butler St","city":"Pittsburgh","state":"PA","stars":4.5,"review_count":301,"is_open":1},{"business_id":"RyZ3dMJWuFMs2S7zw2C0Zg","name":"Istanbul Grille","latitude":40.452039,"longitude":-79.952326,"address":"305 N Craig St","city":"Pittsburgh","state":"PA","stars":4.5,"review_count":6,"is_open":0},{"business_id":"YhHi-4bZfhjbS505OYi6iw","name":"7 Senses","latitude":40.4536691,"longitude":-79.8984105,"address":"531 N Homewood Ave","city":"Pittsburgh","state":"PA","stars":4.5,"review_count":3,"is_open":1},{"business_id":"gz87Wa7QUZ3gNlgE9NVPAA","name":"Chan An Restaurant","latitude":40.431507,"longitude":-79.977122,"address":"2013 Wharton St","city":"Pittsburgh","state":"PA","stars":3.0,"review_count":8,"is_open":1},{"business_id":"fKNUmyXf8iH1c2VbupIyyw","name":"Kristopher's Place","latitude":40.4220742,"longitude":-79.928603,"address":"4239 Murray Ave","city":"Pittsburgh","state":"PA","stars":3.0,"review_count":12,"is_open":0},{"business_id":"Lfauu60pCWaQ2nuGCgW_eQ","name":"Cozumel Mexican Restaurante","latitude":40.4334602,"longitude":-79.922885,"address":"2109 Murray Ave","city":"Pittsburgh","state":"PA","stars":3.0,"review_count":5,"is_open":0},{"business_id":"oRKyGtUsN5IcRReN7ScUwQ","name":"Riviera Pizza & Pasta","latitude":40.460057,"longitude":-79.991113,"address":"1213 Spring Garden Ave","city":"Pittsburgh","state":"PA","stars":3.5,"review_count":34,"is_open":1},{"business_id":"oPvYovnl06fy5W0e51zjMQ","name":"Winghart's Burger & Whiskey Bar","latitude":40.4290553,"longitude":-79.9831387,"address":"1505 E Carson St","city":"Pittsburgh","state":"PA","stars":3.5,"review_count":172,"is_open":1},{"business_id":"C3Z5nHWtpalpMJDWWqurcw","name":"Max & Erma's","latitude":40.5000494,"longitude":-79.8647594,"address":"900 Gamma Dr","city":"Pittsburgh","state":"PA","stars":3.0,"review_count":13,"is_open":0},{"business_id":"PuytdMfre748Xfby1Hx9Wg","name":"Rumerz Sports Bar & Grill","latitude":40.4765445,"longitude":-80.0305755,"address":"1216 Woods Run Ave","city":"Pittsburgh","state":"PA","stars":4.5,"review_count":8,"is_open":1},{"business_id":"szGbmw_vq3kVU4SfK1x6Sw","name":"Ruths Chris Steak House","latitude":40.439454,"longitude":-80.003658,"address":"6 PPG Pl","city":"Pittsburgh","state":"PA","stars":4.0,"review_count":146,"is_open":1},{"business_id":"KSw3FAh5d5Q3PdFO1Gevmw","name":"Steel City Diner","latitude":40.4437364,"longitude":-79.9958916,"address":"961 Liberty Ave","city":"Pittsburgh","state":"PA","stars":3.0,"review_count":5,"is_open":0},{"business_id":"4NkEWTs76FplOihc-qyBZQ","name":"Maisie's Pizza","latitude":40.5477169,"longitude":-80.0355297,"address":"1130 Perry Hwy, Ste 7","city":"Pittsburgh","state":"PA","stars":4.0,"review_count":15,"is_open":1},{"business_id":"9mYjIQ-9DKMuR8kM5M2gtw","name":"Chick-fil-A","latitude":40.4535141,"longitude":-80.157726,"address":"100 Robinson Center Dr","city":"Pittsburgh","state":"PA","stars":4.0,"review_count":11,"is_open":1},{"business_id":"zuUWG7OdMv6awFRYhEYT5Q","name":"Local Bar + Kitchen","latitude":40.4290009,"longitude":-79.9828024,"address":"1515 E Carson St","city":"Pittsburgh","state":"PA","stars":3.0,"review_count":267,"is_open":1},{"business_id":"Tz4fdGixKO3_HvOh8i81Iw","name":"Vinny's Pizza","latitude":40.3950041,"longitude":-80.0221746,"address":"618 Brookline Blvd","city":"Pittsburgh","state":"PA","stars":2.0,"review_count":33,"is_open":1},{"business_id":"1RHY4K3BD22FK7Cfftn8Mg","name":"Marathon Diner","latitude":40.4961769456,"longitude":-80.2460112364,"address":"Center Core - Food Court, Fl 3, Pittsburgh International Airport","city":"Pittsburgh","state":"PA","stars":4.0,"review_count":60,"is_open":1},{"business_id":"N9n4bj5nnuvVgt8iyT5YVg","name":"Zorba's Gyros","latitude":40.438749,"longitude":-79.999425,"address":"400 Smithfield St","city":"Pittsburgh","state":"PA","stars":3.5,"review_count":41,"is_open":1},{"business_id":"rOHLBGBcWzlxdvNI6squgQ","name":"Bea Taco Town","latitude":40.402162,"longitude":-80.0414234,"address":"2957 Banksville Rd","city":"Pittsburgh","state":"PA","stars":4.0,"review_count":81,"is_open":0},{"business_id":"tUeYSmiIQn0WG9LN-qRLKg","name":"R&B's Pizza Place","latitude":40.4375354,"longitude":-80.0006277,"address":"107 Smithfield St","city":"Pittsburgh","state":"PA","stars":2.5,"review_count":43,"is_open":0},{"business_id":"W7PF8tkkBD0K7XTiw5OW9A","name":"Himali Kitchen","latitude":40.3722991,"longitude":-79.9823247,"address":"3536 Saw Mill Run Blvd","city":"Pittsburgh","state":"PA","stars":4.5,"review_count":6,"is_open":1},{"business_id":"DQmEQkOhR4AwifvRPKqz_g","name":"Sushi & Rolls","latitude":40.4383265,"longitude":-79.9990769,"address":"301 Grant St, Ste 3","city":"Pittsburgh","state":"PA","stars":4.5,"review_count":44,"is_open":1},{"business_id":"t9BPvhkUakhvr3TWDw-mXA","name":"KFC","latitude":40.463394468,"longitude":-79.824389,"address":"210 Rodi Rd","city":"Pittsburgh","state":"PA","stars":3.0,"review_count":4,"is_open":1},{"business_id":"WTluJrwTxVxZkXovV6cnnQ","name":"Panda Express","latitude":40.536824,"longitude":-80.012042,"address":"7223 McKnight Rd","city":"Pittsburgh","state":"PA","stars":3.0,"review_count":8,"is_open":1},{"business_id":"5Oh4E8lTlAHzs4hrjsLFOA","name":"Stockmano's Pizza","latitude":40.4750106,"longitude":-79.7731708,"address":"7678 Saltsburg Rd","city":"Pittsburgh","state":"PA","stars":4.0,"review_count":8,"is_open":1},{"business_id":"t5DQeB3dORfNwx9otGUrSA","name":"Casey's Draft House","latitude":40.4289561,"longitude":-79.9799623,"address":"1811 E Carson St","city":"Pittsburgh","state":"PA","stars":3.5,"review_count":30,"is_open":0},{"business_id":"jwoEWuiXruWHUSB8DeesKA","name":"Dasonii Korean Bistro","latitude":40.4483179,"longitude":-80.1570556,"address":"6520 Steubenville Pike","city":"Pittsburgh","state":"PA","stars":4.0,"review_count":46,"is_open":0},{"business_id":"iDuwJjTE5Sw_bb3aFSTBCg","name":"Subway Restaurants","latitude":40.4422714,"longitude":-80.0027464,"address":"526 Penn Ave","city":"Pittsburgh","state":"PA","stars":3.0,"review_count":6,"is_open":1},{"business_id":"ehtDfDwcOBghAKAjgWlg4Q","name":"Shenanigans Bar & Grille","latitude":40.5137486,"longitude":-80.0005088,"address":"2310 Babcock Blvd","city":"Pittsburgh","state":"PA","stars":3.0,"review_count":27,"is_open":1},{"business_id":"TqUFwP0mQJBPFHql0tLVsQ","name":"The Original Gyro","latitude":40.3649005,"longitude":-80.017896,"address":"3611 Library Rd","city":"Pittsburgh","state":"PA","stars":4.5,"review_count":49,"is_open":1},{"business_id":"jppxrDQLXr4Nk8cV7IGlcw","name":"Casa Reyna","latitude":40.4516855,"longitude":-79.9833236,"address":"2031 Penn Ave","city":"Pittsburgh","state":"PA","stars":3.5,"review_count":269,"is_open":0},{"business_id":"c0yPNU-BqS65u0vIKP7P0w","name":"Avenue B","latitude":40.456856,"longitude":-79.936432,"address":"5501 Centre Ave","city":"Pittsburgh","state":"PA","stars":4.0,"review_count":225,"is_open":0},{"business_id":"afXMX5llxcMFzbaPaBBm6A","name":"D'Imperio's Restaurant","latitude":40.4293092,"longitude":-79.81408,"address":"3412 William Penn Hwy","city":"Pittsburgh","state":"PA","stars":3.5,"review_count":11,"is_open":0},{"business_id":"nwjIvTxJt2GpMoKzuKWIBQ","name":"McDonald's","latitude":40.3987796,"longitude":-80.026439,"address":"2518 W Liberty Rd","city":"Pittsburgh","state":"PA","stars":2.0,"review_count":29,"is_open":1},{"business_id":"aHVhlCvmlNnnPf-LgclNNA","name":"Sesame Inn Chinese Restaurant","latitude":40.4313077145,"longitude":-80.0019075326,"address":"Station Square, 125 W Station Square Dr","city":"Pittsburgh","state":"PA","stars":3.0,"review_count":28,"is_open":0},{"business_id":"SXR6JtrHX518bEWLcqWkXA","name":"Joe's Doghouse","latitude":40.441739,"longitude":-79.941576,"address":"Corner Of Tech St And Margaret Morrison St","city":"Pittsburgh","state":"PA","stars":4.5,"review_count":5,"is_open":1},{"business_id":"N7Gg7XElIaB45CJbkhDuDA","name":"Fifth Avenue Beanery","latitude":40.4387259623,"longitude":-79.9887156242,"address":"5TH Avenue Pl","city":"Pittsburgh","state":"PA","stars":3.5,"review_count":8,"is_open":1},{"business_id":"BaIRfAJzaqL0VKizwlTciw","name":"Feeney's Weenies","latitude":40.4054010662,"longitude":-80.0301221386,"address":"2102 Broadway Ave","city":"Pittsburgh","state":"PA","stars":4.5,"review_count":10,"is_open":0},{"business_id":"yt0IPg-CURvYFRcmXU1V3g","name":"Hoi Polloi: Coffeehouse and Vegetarian Cafe","latitude":40.4535048,"longitude":-80.0168923,"address":"1100 Galveston Ave","city":"Pittsburgh","state":"PA","stars":5.0,"review_count":4,"is_open":0},{"business_id":"DNKb7_EJPGBULaUwL0mq8g","name":"McDonald's","latitude":40.5391735896,"longitude":-79.8301523924,"address":"2925 Freeport Rd","city":"Pittsburgh","state":"PA","stars":2.0,"review_count":14,"is_open":1},{"business_id":"-ZaQKvtRGQA-4FoUE_1s4w","name":"That's Amore","latitude":40.4790459,"longitude":-79.9554785,"address":"5123 Butler St","city":"Pittsburgh","state":"PA","stars":4.0,"review_count":25,"is_open":1},{"business_id":"xA6L2w_TlbxHubb1xeBE8w","name":"Tamarind Savoring India","latitude":40.3905324708,"longitude":-80.0717178281,"address":"2101 Greentree Rd","city":"Pittsburgh","state":"PA","stars":4.0,"review_count":170,"is_open":1},{"business_id":"mUnCBLAKmKU56V3pIaXm-Q","name":"Subway Restaurants","latitude":40.4513302,"longitude":-80.1839102,"address":"458 Home Dr, Space D","city":"Pittsburgh","state":"PA","stars":2.5,"review_count":8,"is_open":1},{"business_id":"H5vlbkJ_8mFI1wCGHO3apg","name":"Villa Italian Kitchen","latitude":40.495896,"longitude":-80.256201,"address":"1000 Airport Blvd","city":"Pittsburgh","state":"PA","stars":3.0,"review_count":6,"is_open":0},{"business_id":"53-Y3Jw20QV6TeDkRjSyJQ","name":"Fox's Pizza Den","latitude":40.4268672,"longitude":-80.0053019,"address":"6 Bailey Ave","city":"Pittsburgh","state":"PA","stars":3.5,"review_count":16,"is_open":1},{"business_id":"qAzOcHnWerREl678su-p0A","name":"Asian Garden","latitude":40.358953,"longitude":-80.029218,"address":"4136 Library Rd","city":"Pittsburgh","state":"PA","stars":2.5,"review_count":20,"is_open":1},{"business_id":"2v3uI97JPebCDaTNy8jdwg","name":"Pizza Sola","latitude":40.4414707,"longitude":-79.9581266,"address":"114 Atwood St","city":"Pittsburgh","state":"PA","stars":4.0,"review_count":16,"is_open":0},{"business_id":"lPQGg0x8UOAWD_08wZmfgA","name":"Embury","latitude":40.4524945,"longitude":-79.9815516,"address":"2216 Penn Ave, 1st Floor","city":"Pittsburgh","state":"PA","stars":4.0,"review_count":31,"is_open":0},{"business_id":"T9uRUpoontO6YX-GoM4UvA","name":"Calabria's Italian Restaurant","latitude":40.4654547,"longitude":-79.9447111,"address":"4911 Penn Ave","city":"Pittsburgh","state":"PA","stars":2.5,"review_count":3,"is_open":0},{"business_id":"uNMQV-r1nO5dfGSGnVTFUA","name":"No 1 China House","latitude":40.4218885,"longitude":-79.992839,"address":"823 E Warrington Ave","city":"Pittsburgh","state":"PA","stars":3.0,"review_count":4,"is_open":0},{"business_id":"ajYmOIDZUd2SZjuju3lXzw","name":"Siam Thai Restaurant","latitude":40.436964,"longitude":-80.000187,"address":"410 1st Ave","city":"Pittsburgh","state":"PA","stars":4.0,"review_count":54,"is_open":1},{"business_id":"s2s7K5_x-W6gbCvuhtI6lw","name":"Gateway Clipper Cafe","latitude":40.4335540462,"longitude":-80.0044766914,"address":"224 W Station Square Dr","city":"Pittsburgh","state":"PA","stars":3.5,"review_count":7,"is_open":0},{"business_id":"6zm33qiJAMtjMSXGlfIFKA","name":"Bella Donne Pizza","latitude":40.5203048,"longitude":-80.0328622,"address":"461 Perry Hwy","city":"Pittsburgh","state":"PA","stars":2.5,"review_count":3,"is_open":0},{"business_id":"Jl-lJisnmsy8BCV0Pif4xg","name":"Christos Mediterranean Grille","latitude":40.4432466658,"longitude":-80.0022544159,"address":"130 6th St","city":"Pittsburgh","state":"PA","stars":3.5,"review_count":119,"is_open":1},{"business_id":"YYEm5MR6HMCQYI0k1wVnXA","name":"Wendy's","latitude":40.4303453194,"longitude":-79.8137648466,"address":"3410 William Penn Hwy","city":"Pittsburgh","state":"PA","stars":1.5,"review_count":10,"is_open":1},{"business_id":"p5HLsmZpzqsZpOng04I8eQ","name":"Disanto Pizza","latitude":40.4330076,"longitude":-80.0045618,"address":"125 W Station Square Dr","city":"Pittsburgh","state":"PA","stars":2.0,"review_count":9,"is_open":0},{"business_id":"ZNdV9ytExuxPTXSN8i2xhw","name":"Needle and Pin","latitude":40.3894540925,"longitude":-80.0419438716,"address":"3271 W Liberty Ave","city":"Pittsburgh","state":"PA","stars":4.0,"review_count":136,"is_open":0},{"business_id":"KTPRYqiFdLowAUEAnN7e3g","name":"Burgatory","latitude":40.4891418,"longitude":-79.8930872,"address":"932 Freeport Rd","city":"Pittsburgh","state":"PA","stars":4.0,"review_count":481,"is_open":1},{"business_id":"FKQUxOfW_W5R4OTut4G1Vw","name":"Peppi's","latitude":40.436969,"longitude":-80.0004543,"address":"12 Smithfield St","city":"Pittsburgh","state":"PA","stars":4.0,"review_count":41,"is_open":1},{"business_id":"caGXS6ubNTlv91ZZyoirjQ","name":"Primanti Bros","latitude":40.4417626,"longitude":-79.9569319,"address":"3803 Forbes Ave","city":"Pittsburgh","state":"PA","stars":3.5,"review_count":318,"is_open":1},{"business_id":"tXZxc-3HcXvj1Z-Tzs4Mkw","name":"El Campesino","latitude":40.4512448,"longitude":-80.1833764,"address":"460 Home Dr","city":"Pittsburgh","state":"PA","stars":3.0,"review_count":54,"is_open":1},{"business_id":"cNCXUYQd3kFR_AyfjTejQQ","name":"Lot 17","latitude":40.4625722,"longitude":-79.9501679,"address":"4617 Liberty Ave","city":"Pittsburgh","state":"PA","stars":4.0,"review_count":129,"is_open":1},{"business_id":"QlSpPzc4Oy05ic-PsoYH4g","name":"Streets On Carson","latitude":40.428606088,"longitude":-79.986632131,"address":"1120 E Carson St","city":"Pittsburgh","state":"PA","stars":4.5,"review_count":134,"is_open":1},{"business_id":"oeW0vIYd3rUnAPgmD4fEFg","name":"DeLuca's Diner","latitude":40.4515431,"longitude":-79.9837258,"address":"2015 Penn Ave","city":"Pittsburgh","state":"PA","stars":4.0,"review_count":616,"is_open":1},{"business_id":"bQ-sXUqPSr4-iJfB764Nzw","name":"Bill's Bar & Burger","latitude":40.444084,"longitude":-79.994558,"address":"1001 Liberty Ave","city":"Pittsburgh","state":"PA","stars":3.0,"review_count":253,"is_open":1},{"business_id":"oVuZtlCFg_zF090Nhtp0Ow","name":"Choolaah Indian BBQ","latitude":40.460266,"longitude":-79.923461,"address":"6114 Centre Ave","city":"Pittsburgh","state":"PA","stars":4.0,"review_count":302,"is_open":1},{"business_id":"8edTRAKWTzd0B_sfb8ekeQ","name":"Aladdin's Eatery","latitude":40.3818982582,"longitude":-80.0442885177,"address":"630 Washington Rd","city":"Pittsburgh","state":"PA","stars":4.0,"review_count":135,"is_open":1},{"business_id":"Q3zZTpHQBSbiPq2lLaTtgw","name":"Sichuan Palace","latitude":40.4623662678,"longitude":-79.8267316637,"address":"60 Federal Dr","city":"Pittsburgh","state":"PA","stars":4.0,"review_count":17,"is_open":1},{"business_id":"PBmMvDows5HWIqrEVvNfQQ","name":"Istanbul Sofra","latitude":40.4395831126,"longitude":-79.897459209,"address":"7600 Forbes Ave","city":"Pittsburgh","state":"PA","stars":4.5,"review_count":322,"is_open":0},{"business_id":"BMR_AsSBzTQHqW-SQabI4w","name":"California Pizza Kitchen at Ross Park","latitude":40.542813,"longitude":-80.008753,"address":"1000 Ross Park Mall Dr","city":"Pittsburgh","state":"PA","stars":3.0,"review_count":90,"is_open":1},{"business_id":"RfXfsuVm6GcA5ccgK8Hwrw","name":"Hamsah","latitude":40.4200113,"longitude":-79.928102,"address":"4371 Murray Ave","city":"Pittsburgh","state":"PA","stars":5.0,"review_count":6,"is_open":1},{"business_id":"nmBU1vK_3pkF08guLEoUjA","name":"Club Sandwich & Deli","latitude":40.4944063,"longitude":-79.9347447,"address":"713 Main St","city":"Pittsburgh","state":"PA","stars":4.5,"review_count":7,"is_open":0},{"business_id":"zMPfZdODe82SL_zxnv7asg","name":"Chipotle Mexican Grill","latitude":40.4487982663,"longitude":-80.1744529258,"address":"310 Mcholme Dr","city":"Pittsburgh","state":"PA","stars":3.0,"review_count":67,"is_open":1},{"business_id":"4hxptOMsA-c4XAlFBwl2Ww","name":"Tavern In The Hills","latitude":40.3253741,"longitude":-79.956298,"address":"611 Old Clairton Rd","city":"Pittsburgh","state":"PA","stars":2.5,"review_count":15,"is_open":1},{"business_id":"MjD_bzVtkAIviFsNFGy7Zg","name":"Dormont Dogs","latitude":40.3955087,"longitude":-80.0351502,"address":"2911 Glenmore Ave","city":"Pittsburgh","state":"PA","stars":4.5,"review_count":38,"is_open":0},{"business_id":"JZEw18_OhSzFj0IfXF6v6Q","name":"Alex's Corner Pizza Shop","latitude":40.45853,"longitude":-79.947121,"address":"4902 Cypress St","city":"Pittsburgh","state":"PA","stars":4.0,"review_count":15,"is_open":1},{"business_id":"QGPQp5VsRcP5Ma0ekCgj2Q","name":"NU Jewish Bistro","latitude":40.4375577,"longitude":-79.92282,"address":"1711 Murray Ave","city":"Pittsburgh","state":"PA","stars":4.0,"review_count":120,"is_open":1},{"business_id":"URmpCBod57A07npzwCp4bA","name":"Subway Restaurants","latitude":40.4920308,"longitude":-79.8667562,"address":"55 Alpha Dr","city":"Pittsburgh","state":"PA","stars":2.5,"review_count":4,"is_open":1},{"business_id":"c2YDEpYQ-2IqB57tN0HKbQ","name":"The Livermore","latitude":40.4604323,"longitude":-79.9252567,"address":"124 S Highland Ave","city":"Pittsburgh","state":"PA","stars":3.5,"review_count":96,"is_open":0},{"business_id":"M1SUyz8KGdVnntu0wty4lw","name":"Lezzet","latitude":40.436539,"longitude":-79.95473,"address":"416 Semple St","city":"Pittsburgh","state":"PA","stars":4.0,"review_count":3,"is_open":0},{"business_id":"FV5o9VV0yTU2Kt2bmjlHbA","name":"Bona Terra Restaurant","latitude":40.4945944,"longitude":-79.9332111,"address":"908 Main St","city":"Pittsburgh","state":"PA","stars":4.5,"review_count":28,"is_open":0},{"business_id":"wHlLjTBWPEbxHw6ZysSKIg","name":"Nicholas Coffee & Tea","latitude":40.44125,"longitude":-80.00299,"address":"23 Market Sq, Ste 1","city":"Pittsburgh","state":"PA","stars":4.0,"review_count":106,"is_open":1},{"business_id":"lvZOJWiwNymeBhOAgoy11w","name":"Fossil Fuels Caf\u00e9","latitude":40.4432988,"longitude":-79.9500527,"address":"4400 Forbes Ave","city":"Pittsburgh","state":"PA","stars":3.5,"review_count":3,"is_open":1},{"business_id":"VGxJbglGlx-a7Gdc55Q6jQ","name":"Katana","latitude":40.3899009,"longitude":-80.0406617,"address":"3229 W Liberty Ave","city":"Pittsburgh","state":"PA","stars":3.0,"review_count":149,"is_open":1},{"business_id":"hBJ0SZwpCX5fvJPyxFy83Q","name":"Thai Spoon","latitude":40.3953208923,"longitude":-80.0346221924,"address":"1409 Potomac Ave","city":"Pittsburgh","state":"PA","stars":4.0,"review_count":128,"is_open":1},{"business_id":"eU_713ec6fTGNO4BegRaww","name":"La Tavola Italiana","latitude":40.4267793,"longitude":-80.005652,"address":"1 Boggs Ave","city":"Pittsburgh","state":"PA","stars":3.5,"review_count":151,"is_open":1},{"business_id":"1MrJJ9tyNyfFrxaNZ67xFg","name":"Silk Road Gourmet Chinese","latitude":40.3591070736,"longitude":-80.0020897818,"address":"5301 Grove Rd, Ste 1","city":"Pittsburgh","state":"PA","stars":4.0,"review_count":135,"is_open":1},{"business_id":"U-2-_MrmHPawNcGRYRoDqw","name":"Champ's Sports Grill & Lounge","latitude":40.4509540842,"longitude":-79.8269182165,"address":"540 Rodi Rd","city":"Pittsburgh","state":"PA","stars":4.5,"review_count":7,"is_open":1},{"business_id":"56worzbzO-fnU-0WDuabQg","name":"Riggs Lounge & Restaurant","latitude":40.4547052,"longitude":-80.0146593,"address":"1208 Brighton Rd","city":"Pittsburgh","state":"PA","stars":4.5,"review_count":11,"is_open":1},{"business_id":"QiZCMGZEwVtg1ybOKybLhQ","name":"Kanda House","latitude":40.451222,"longitude":-79.9515915,"address":"258 N Craig St","city":"Pittsburgh","state":"PA","stars":2.0,"review_count":7,"is_open":0},{"business_id":"pHDLRIG2Xu1_1mkGAbyEmw","name":"Harris Grill","latitude":40.4559632,"longitude":-79.9313287,"address":"5747 Ellsworth Ave","city":"Pittsburgh","state":"PA","stars":3.5,"review_count":348,"is_open":0},{"business_id":"nZDIrGshkfLZf6ImQtAasQ","name":"The Saloon of Mt Lebanon","latitude":40.3820491,"longitude":-80.0444418,"address":"622 Washington Rd","city":"Pittsburgh","state":"PA","stars":3.5,"review_count":73,"is_open":1},{"business_id":"PA0UJYogQTd5MIuKMs3tfA","name":"It's Greek To Me","latitude":40.3919796,"longitude":-80.0173011,"address":"1011 Brookline Blvd","city":"Pittsburgh","state":"PA","stars":4.5,"review_count":20,"is_open":0},{"business_id":"a2qlFwIy9vUvfUb4EnQNmA","name":"Randita's Organic Vegan Cafe","latitude":40.490451,"longitude":-79.9048406,"address":"207 Commercial Ave","city":"Pittsburgh","state":"PA","stars":4.5,"review_count":41,"is_open":0},{"business_id":"jDZJsIyc3jXjcTtJk_p8ZA","name":"Orient Express","latitude":40.4446795,"longitude":-79.9481851,"address":"4609 Forbes Ave","city":"Pittsburgh","state":"PA","stars":3.0,"review_count":91,"is_open":1},{"business_id":"woXlprCuowrLJswWere3TQ","name":"t\u00e4k\u014d","latitude":40.4422285653,"longitude":-80.0019846969,"address":"214 6th St","city":"Pittsburgh","state":"PA","stars":4.5,"review_count":1466,"is_open":1},{"business_id":"zzwhN7x37nyjP0ZM8oiHmw","name":"Carmody's Grille","latitude":40.5099687,"longitude":-80.1253459,"address":"4905 Grand Ave","city":"Pittsburgh","state":"PA","stars":4.0,"review_count":75,"is_open":1},{"business_id":"PIfqmSxZyjr9AGMuAbNBbw","name":"Sawasdee Thai & Sushi","latitude":40.3518600673,"longitude":-80.0501363622,"address":"112 Abbeyville Rd","city":"Pittsburgh","state":"PA","stars":4.0,"review_count":54,"is_open":1},{"business_id":"-WVF5DKZeEWlMK8Cucto-A","name":"Savoy","latitude":40.4554975,"longitude":-79.9780389,"address":"2623 Penn Ave","city":"Pittsburgh","state":"PA","stars":3.5,"review_count":149,"is_open":1},{"business_id":"8fKTbPc5OTcahMAuJD9E1A","name":"Sweet Basil and La Filipiniana","latitude":40.482705,"longitude":-79.951942,"address":"5321 Butler St","city":"Pittsburgh","state":"PA","stars":5.0,"review_count":4,"is_open":0},{"business_id":"o7aBPJhTR-R4TccTSfu-Ng","name":"Chipotle Mexican Grill","latitude":40.4446441288,"longitude":-79.948110535,"address":"4611 Forbes Ave","city":"Pittsburgh","state":"PA","stars":2.0,"review_count":19,"is_open":1},{"business_id":"ODTI9W7fHMKNWZ3g8VcFUg","name":"Mallorca Restaurant","latitude":40.4279551,"longitude":-79.9734667,"address":"2228 E Carson St","city":"Pittsburgh","state":"PA","stars":3.5,"review_count":287,"is_open":1},{"business_id":"EHGKrUgGpxYpfs4N3paJ1w","name":"Penn City Grill","latitude":40.4441170084,"longitude":-79.9949861082,"address":"1000 Penn Ave","city":"Pittsburgh","state":"PA","stars":2.5,"review_count":9,"is_open":1},{"business_id":"_29kWahGAxn1QzMmxOCRlA","name":"Keystone Cafe","latitude":40.4337801603,"longitude":-79.9698579311,"address":"2000 Technology Dr","city":"Pittsburgh","state":"PA","stars":4.0,"review_count":4,"is_open":0},{"business_id":"vc3z-aoBWCm8R94bfzU1dA","name":"Subway Restaurants","latitude":40.4781389,"longitude":-79.7858849,"address":"7343 Saltsburg Rd, Unit A","city":"Pittsburgh","state":"PA","stars":2.0,"review_count":3,"is_open":1},{"business_id":"No7l4LinY1tu-bCL97qi1A","name":"Palazzo Ristorante","latitude":40.4428606,"longitude":-80.0025287,"address":"144 6th St","city":"Pittsburgh","state":"PA","stars":3.5,"review_count":21,"is_open":0},{"business_id":"tcnu9ivUsuQUNiz944bpOA","name":"Kouskous Express","latitude":40.3813039,"longitude":-80.0439306,"address":"665 Washington Rd","city":"Pittsburgh","state":"PA","stars":4.5,"review_count":35,"is_open":0},{"business_id":"-AtzcXIwEP6yO7rM9CM9ww","name":"Mexico City","latitude":40.4375833,"longitude":-80.000437,"address":"111 Smithfield St","city":"Pittsburgh","state":"PA","stars":4.0,"review_count":36,"is_open":0},{"business_id":"JGXkldESnG69YXlSNVAgJQ","name":"Eggheads","latitude":40.3919342,"longitude":-80.0134819,"address":"1162 Brookline Blvd","city":"Pittsburgh","state":"PA","stars":2.0,"review_count":3,"is_open":1},{"business_id":"9wUxiwtC1zCcs9VKqYsTCg","name":"Spirits & Tales","latitude":40.4451557,"longitude":-79.954844,"address":"5130 Bigelow Blvd","city":"Pittsburgh","state":"PA","stars":3.5,"review_count":50,"is_open":1},{"business_id":"ygb8qHro6-EHNWevravotQ","name":"Tan Lac Vien Express","latitude":40.4512524,"longitude":-79.9514683,"address":"256 N Craig St","city":"Pittsburgh","state":"PA","stars":4.0,"review_count":8,"is_open":0},{"business_id":"hsDkxhc-_YYsVqAeQBJJjg","name":"Big Jim's Restaurant & Bar","latitude":40.4270451,"longitude":-79.9496055,"address":"201 Saline St","city":"Pittsburgh","state":"PA","stars":4.0,"review_count":218,"is_open":1},{"business_id":"OOThzIpIiCRok8zaN0NPwQ","name":"Subway Restaurants","latitude":40.4563658,"longitude":-79.9367205,"address":"5438  1\/2  Centre Ave","city":"Pittsburgh","state":"PA","stars":3.0,"review_count":7,"is_open":1},{"business_id":"lzjnPNA1ALVpWCo_ygRatw","name":"Nathan's Famous","latitude":40.439226,"longitude":-80.0017249,"address":"305 Wood St","city":"Pittsburgh","state":"PA","stars":3.0,"review_count":5,"is_open":0},{"business_id":"B7pcNWBNTXl4WZ22Y-2x6A","name":"Coughlin's Law Kitchen and Ale House","latitude":40.4293423,"longitude":-80.0065687,"address":"10 Virginia Ave","city":"Pittsburgh","state":"PA","stars":3.5,"review_count":132,"is_open":1},{"business_id":"kNR7xEiZe8vuklrxMfKBRw","name":"Just Roll'd Up","latitude":40.4392598702,"longitude":-80.0009079112,"address":"","city":"Pittsburgh","state":"PA","stars":5.0,"review_count":4,"is_open":1},{"business_id":"aJy5lNyUJjAbdsMrJz3YCg","name":"The Elbow Room","latitude":40.4516538606,"longitude":-79.9327178369,"address":"5533 Walnut St","city":"Pittsburgh","state":"PA","stars":3.0,"review_count":85,"is_open":0},{"business_id":"Zja7ykq3icDzkN20XX6j1w","name":"Aiello's Pizza","latitude":40.4332608,"longitude":-79.9231926,"address":"2112 Murray Ave","city":"Pittsburgh","state":"PA","stars":4.0,"review_count":233,"is_open":1},{"business_id":"Fozo0B-y42EhRMomR0K5vQ","name":"Waffallonia","latitude":40.4377485,"longitude":-79.9228228,"address":"1709 Murray Ave","city":"Pittsburgh","state":"PA","stars":4.5,"review_count":308,"is_open":1},{"business_id":"q0n4I-zqiI47xispOqc1lA","name":"Caffe Mona La Bistro","latitude":40.465725,"longitude":-79.95432,"address":"4200 Penn Ave","city":"Pittsburgh","state":"PA","stars":4.0,"review_count":316,"is_open":1},{"business_id":"D60IfSLfKA32Et3cvR-t3A","name":"Bob's Diner","latitude":40.3628902,"longitude":-80.0833415,"address":"1870 Painters Run Rd","city":"Pittsburgh","state":"PA","stars":3.5,"review_count":59,"is_open":1},{"business_id":"mLP-jIIRdoaYM7fJqqFurw","name":"Napoli Pizzeria","latitude":40.434399,"longitude":-79.9229828,"address":"2006 Murray Ave","city":"Pittsburgh","state":"PA","stars":4.0,"review_count":67,"is_open":1},{"business_id":"J9f-9Prw2YVM-fiZqv2fmQ","name":"Original Hot Dog Shop","latitude":40.442147,"longitude":-79.956513,"address":"3901 Forbes Ave","city":"Pittsburgh","state":"PA","stars":3.5,"review_count":243,"is_open":1},{"business_id":"E9Gnux898nomZK0fYErQVw","name":"Everyday Cafe","latitude":40.4533598855,"longitude":-79.8981681839,"address":"532 N Homewood Ave","city":"Pittsburgh","state":"PA","stars":4.5,"review_count":27,"is_open":1},{"business_id":"49sbCG7F2jvqJsfG6-N8Rw","name":"Spice Affair","latitude":40.4890868,"longitude":-79.900682,"address":"8 Brilliant Ave","city":"Pittsburgh","state":"PA","stars":4.5,"review_count":100,"is_open":1},{"business_id":"lRB4EvPM0L88f4meH9KcYQ","name":"Peanut Butter Jelly Time","latitude":40.462119,"longitude":-79.949462,"address":"4709 Liberty Ave","city":"Pittsburgh","state":"PA","stars":4.0,"review_count":47,"is_open":0},{"business_id":"pGwfOqNEL8FbMUFspJdAMA","name":"Patron Mexican Grill","latitude":40.4604074,"longitude":-79.9248643,"address":"133 S Highland Ave","city":"Pittsburgh","state":"PA","stars":3.5,"review_count":156,"is_open":1},{"business_id":"aHuGV6FS0j8_1_p9vFeNuA","name":"Cinco","latitude":40.361802,"longitude":-80.070182,"address":"1600 Painters Run Rd","city":"Pittsburgh","state":"PA","stars":3.0,"review_count":48,"is_open":0},{"business_id":"mRWNt7hxoFzo5XZaoSC7aA","name":"Cappy's Cafe","latitude":40.45109,"longitude":-79.9343681,"address":"5431 Walnut St","city":"Pittsburgh","state":"PA","stars":3.5,"review_count":77,"is_open":1},{"business_id":"2CNCcHA9txth664ALX1wvA","name":"Royal Caribbean","latitude":40.4602716,"longitude":-79.9251042,"address":"128 S Highland Ave","city":"Pittsburgh","state":"PA","stars":3.5,"review_count":23,"is_open":0},{"business_id":"vblct6rMen0wyOqGEy-pNQ","name":"Jersey Mike's Subs","latitude":40.5396997,"longitude":-80.0117312,"address":"7390 Mcknight Rd","city":"Pittsburgh","state":"PA","stars":3.0,"review_count":37,"is_open":1},{"business_id":"HThLR9ln5hLPL24-7TyWtA","name":"Musa Caribbean \/ Cajun Fare","latitude":40.4019969,"longitude":-80.0313946,"address":"2318 Broadway Ave","city":"Pittsburgh","state":"PA","stars":5.0,"review_count":75,"is_open":1},{"business_id":"nlEw8XVhQ5CTEr60xaE4Pg","name":"Ash Kris Pizza","latitude":40.4366326,"longitude":-79.953824,"address":"3507 Cable Pl","city":"Pittsburgh","state":"PA","stars":3.5,"review_count":5,"is_open":1},{"business_id":"QNn3lvwCBwNcQFPbjAtgdQ","name":"Fairway Grille","latitude":40.3540905,"longitude":-80.0146199,"address":"1530 Hamilton Rd","city":"Pittsburgh","state":"PA","stars":2.5,"review_count":45,"is_open":0},{"business_id":"74qMB94fHpKl6p6NkzG2ng","name":"Emiliano\u2019s Mexican Restaurant & Bar","latitude":40.453766,"longitude":-79.947335,"address":"4815 Centre Ave, Ste 101","city":"Pittsburgh","state":"PA","stars":4.0,"review_count":12,"is_open":1},{"business_id":"QI0PGXbGkIdInOOBeq6ieQ","name":"TJ Buffet Sushi and Grill","latitude":40.5226505128,"longitude":-80.0064798072,"address":"4801 McKnight Rd","city":"Pittsburgh","state":"PA","stars":3.0,"review_count":37,"is_open":0},{"business_id":"oS96aJIHFWcFAlGHKKXjaw","name":"La Gourmandine Bakery & Pastry Shop","latitude":40.4730974,"longitude":-79.9588647,"address":"4605 Butler St","city":"Pittsburgh","state":"PA","stars":4.5,"review_count":432,"is_open":1},{"business_id":"_7nELtYw3n2DzMN8252lhQ","name":"Village Tavern and Trattoria","latitude":40.4411580018,"longitude":-80.0337334703,"address":"424 S Main St","city":"Pittsburgh","state":"PA","stars":3.5,"review_count":51,"is_open":1},{"business_id":"_6C-yZCmIyOmPESJbwyaSQ","name":"Gluten Free Goat Bakery","latitude":40.4654288113,"longitude":-79.9450539513,"address":"4905 Penn Ave","city":"Pittsburgh","state":"PA","stars":4.0,"review_count":77,"is_open":1},{"business_id":"dCPyV8XCEyE7pyUgzOCDKA","name":"Chipotle Mexican Grill","latitude":40.4542363976,"longitude":-79.947433946,"address":"4800 Baum Blvd","city":"Pittsburgh","state":"PA","stars":3.5,"review_count":50,"is_open":1},{"business_id":"jxNdYI9sQmTkqfpTsmhGtg","name":"Panther Hollow Inn","latitude":40.4446841,"longitude":-79.9481068,"address":"4611 Forbes Ave","city":"Pittsburgh","state":"PA","stars":3.5,"review_count":28,"is_open":0},{"business_id":"VT8vUd-2s5IdvSNwhNHkpg","name":"California Coffee Bar","latitude":40.4807205,"longitude":-80.0415143,"address":"3619 California Ave","city":"Pittsburgh","state":"PA","stars":4.5,"review_count":49,"is_open":1},{"business_id":"4R5P-H4bfPjkocOY1W5SZA","name":"Thai Hana Restaurant","latitude":40.441237,"longitude":-80.003478,"address":"500 Liberty Ave","city":"Pittsburgh","state":"PA","stars":3.5,"review_count":9,"is_open":0},{"business_id":"oJsfjG1uh6jopK6Kc-3pdQ","name":"Cavo Nightclub","latitude":40.4515167,"longitude":-79.9849613,"address":"1916 Smallman St","city":"Pittsburgh","state":"PA","stars":3.5,"review_count":75,"is_open":1},{"business_id":"k7VQD0pbdFN0Ju0yNVrtZQ","name":"The Bloomfield Sandwich Shop","latitude":40.462632,"longitude":-79.950246,"address":"4613 Liberty Ave","city":"Pittsburgh","state":"PA","stars":4.0,"review_count":40,"is_open":0},{"business_id":"nMUSAPBxlvR8PBPDEsV52g","name":"Lebo Subs","latitude":40.3819604,"longitude":-80.0443604,"address":"632 Washington Rd","city":"Pittsburgh","state":"PA","stars":4.0,"review_count":57,"is_open":1},{"business_id":"BpJDI4Fj92lLNALQQeLvLg","name":"Slice On Broadway","latitude":40.4471068992,"longitude":-80.004138972,"address":"115 Federal St","city":"Pittsburgh","state":"PA","stars":4.0,"review_count":49,"is_open":1},{"business_id":"JTKzGJvIK9yuoUf-erV2qQ","name":"Bella Notte","latitude":40.4508375,"longitude":-79.9839077,"address":"1914 Penn Ave","city":"Pittsburgh","state":"PA","stars":3.5,"review_count":180,"is_open":1},{"business_id":"ZPAnqqAKLjg9uCN6Rk1lfg","name":"Pizzuvio","latitude":40.440094,"longitude":-80.0011218,"address":"268 Forbes Ave","city":"Pittsburgh","state":"PA","stars":4.5,"review_count":33,"is_open":0},{"business_id":"FB33W3bwg3ADcIJOcLLz0w","name":"Pittsburgh Sports Bar & Grill","latitude":40.365289,"longitude":-80.018701,"address":"3630 Library Rd","city":"Pittsburgh","state":"PA","stars":3.0,"review_count":13,"is_open":1},{"business_id":"6OV-xbmgjdXUZ80BdjXfJQ","name":"Ziggy's Tavern","latitude":40.5719693,"longitude":-80.0369749,"address":"9101 Perry Hwy","city":"Pittsburgh","state":"PA","stars":3.0,"review_count":10,"is_open":0},{"business_id":"d6zooCvFxThM1SGye7JJfQ","name":"Campus Deli","latitude":40.4368961,"longitude":-79.9550196,"address":"400 Semple St","city":"Pittsburgh","state":"PA","stars":3.5,"review_count":35,"is_open":1},{"business_id":"hcFSc0OHgZJybnjQBrL_8Q","name":"Everyday Noodles","latitude":40.438262,"longitude":-79.920082,"address":"5875 Forbes Ave","city":"Pittsburgh","state":"PA","stars":4.0,"review_count":704,"is_open":1},{"business_id":"eZaaYA5X3BmMTPWsOBvq8g","name":"Top Shabu Shabu","latitude":40.4412353,"longitude":-79.958016,"address":"114 Atwood St","city":"Pittsburgh","state":"PA","stars":3.5,"review_count":105,"is_open":0},{"business_id":"wjwtW0zepI-8JISDSYP9Gw","name":"Italian Village Pizza","latitude":40.4414139,"longitude":-79.9947082,"address":"600 Grant St","city":"Pittsburgh","state":"PA","stars":1.5,"review_count":3,"is_open":1},{"business_id":"38aN0fB_zHtkw1kb3lSj8g","name":"Michael's Pizza Bar & Restaurant","latitude":40.4262481,"longitude":-79.9681952,"address":"2612 Sarah St","city":"Pittsburgh","state":"PA","stars":4.0,"review_count":96,"is_open":1},{"business_id":"oRBHoK2gnLTzcc71oQeQsg","name":"Subway Restaurants","latitude":40.4500566,"longitude":-80.0181873,"address":"950 Ridge Ave","city":"Pittsburgh","state":"PA","stars":3.0,"review_count":7,"is_open":1},{"business_id":"0dRqzEG9-2QNnvJtdpdDZw","name":"Panera Bread","latitude":40.4560361,"longitude":-79.937436,"address":"5430 Centre Ave","city":"Pittsburgh","state":"PA","stars":2.5,"review_count":54,"is_open":1},{"business_id":"cpxobfqM8IuF78WUfrj9_Q","name":"Grandma B's","latitude":40.4486945,"longitude":-79.9705415,"address":"2537 Wylie Ave","city":"Pittsburgh","state":"PA","stars":4.5,"review_count":44,"is_open":1},{"business_id":"9Rl0amGdwWlqERmscG04wg","name":"Panther House Bar & Grill","latitude":40.4365121,"longitude":-79.9545716,"address":"418 Semple St","city":"Pittsburgh","state":"PA","stars":3.0,"review_count":7,"is_open":1},{"business_id":"SGapZBbSgSYY3fziaskULQ","name":"India Palace Cuisine","latitude":40.443060334,"longitude":-80.0022347105,"address":"137 6th St","city":"Pittsburgh","state":"PA","stars":3.0,"review_count":58,"is_open":1},{"business_id":"bjI3a8pqjEgz6AUfI3JHLA","name":"Tyma'z Mediteranean & Middle Eastern House","latitude":40.520825,"longitude":-80.026023,"address":"96 Rochester Rd","city":"Pittsburgh","state":"PA","stars":4.0,"review_count":16,"is_open":0},{"business_id":"s4M4QcJvxJ5IY0DQJo-sCA","name":"Leaf and Plate","latitude":40.4577813,"longitude":-79.9279191,"address":"5884 Ellsworth Ave, 1st Fl","city":"Pittsburgh","state":"PA","stars":5.0,"review_count":7,"is_open":0},{"business_id":"ZWbJlxV7sdxBBgyw_-4vVg","name":"Bai Ling Chinese Restaurant","latitude":40.3850883,"longitude":-79.9784211,"address":"2614 Brownsville Rd","city":"Pittsburgh","state":"PA","stars":5.0,"review_count":4,"is_open":0},{"business_id":"JJi7c7uiTzCqeWNTsldgXQ","name":"Red Tea House","latitude":40.3918384617,"longitude":-80.0670470873,"address":"1717 Cochran Rd","city":"Pittsburgh","state":"PA","stars":4.0,"review_count":78,"is_open":1},{"business_id":"T2jCFJO6DjtWIXkI1lcaOw","name":"City Cafe","latitude":40.472081,"longitude":-79.95886,"address":"4502 Butler St","city":"Pittsburgh","state":"PA","stars":3.5,"review_count":15,"is_open":0},{"business_id":"2KrRu2odf_53L90UQLKVvA","name":"Zoup!","latitude":40.4883414,"longitude":-79.8809845,"address":"1137 Freeport Rd","city":"Pittsburgh","state":"PA","stars":4.0,"review_count":22,"is_open":1},{"business_id":"h5XqYtEmRuQ6yI0IyG6oNQ","name":"Cibrone M & Sons Bakery","latitude":40.3659388,"longitude":-80.0132661,"address":"1231 Grove Rd","city":"Pittsburgh","state":"PA","stars":4.5,"review_count":21,"is_open":1},{"business_id":"j3YEV0H16fRaSiKh-ne00g","name":"Kiin Lao & Thai Eatery","latitude":40.4377594,"longitude":-79.9211285,"address":"5846 Forbes Ave","city":"Pittsburgh","state":"PA","stars":4.0,"review_count":16,"is_open":1},{"business_id":"FcXGZFrVPaKfe3wJZibfCw","name":"Caffe Davio","latitude":40.4274551,"longitude":-79.9691231,"address":"2516 E Carson St","city":"Pittsburgh","state":"PA","stars":4.0,"review_count":38,"is_open":0},{"business_id":"gZCpY4tmSctmHkvPipp3wg","name":"Leon's Caribbean Restaurant","latitude":40.4219059,"longitude":-79.9927969,"address":"823 E Warrington Ave","city":"Pittsburgh","state":"PA","stars":4.5,"review_count":53,"is_open":1},{"business_id":"hDD6-yk1yuuRIvfdtHsISg","name":"Nakama","latitude":40.4290767,"longitude":-79.9822127,"address":"1611 E Carson St","city":"Pittsburgh","state":"PA","stars":3.0,"review_count":377,"is_open":1},{"business_id":"5eKk8dA1QtKaQr_5i_SCRw","name":"Las Velas","latitude":40.4409462,"longitude":-80.0021048,"address":"21 Market Sq","city":"Pittsburgh","state":"PA","stars":3.5,"review_count":274,"is_open":1},{"business_id":"mweMYUxCsIZUtHVJa_4Z5w","name":"Dorido's Restaurant","latitude":40.3215296,"longitude":-79.9956002,"address":"6408 Brownsville Rd","city":"Pittsburgh","state":"PA","stars":3.5,"review_count":87,"is_open":1},{"business_id":"NR190YuOBx0W9fUWx6OlMQ","name":"Billu's Indian Grill On Wheels","latitude":40.440368,"longitude":-79.9836108,"address":"","city":"Pittsburgh","state":"PA","stars":4.0,"review_count":6,"is_open":1},{"business_id":"PRsiM1hkoAIb-e7ov8SMkA","name":"Sandpresso","latitude":40.4455125,"longitude":-79.9932478,"address":"1125 Penn Ave","city":"Pittsburgh","state":"PA","stars":4.0,"review_count":5,"is_open":0},{"business_id":"u-Xr6P0dHS5IF3HQEg5KoQ","name":"Vocelli Pizza","latitude":40.4539049,"longitude":-79.9488432,"address":"4740 Baum Blvd","city":"Pittsburgh","state":"PA","stars":2.0,"review_count":24,"is_open":1},{"business_id":"KzLjbXEDH1e1WrfzrrzZKw","name":"Mandarin Gourmet","latitude":40.4391496,"longitude":-80.0017417,"address":"305 Wood St","city":"Pittsburgh","state":"PA","stars":3.0,"review_count":62,"is_open":1},{"business_id":"u8pWT0002q-Y9GvrUwVFVw","name":"The Vault Taproom","latitude":40.4289536928,"longitude":-79.9842818454,"address":"1327 E Carson St","city":"Pittsburgh","state":"PA","stars":4.5,"review_count":58,"is_open":1},{"business_id":"xwqsbc0rvThKGVEMjPFmVw","name":"Silky's Crows Nest","latitude":40.4927642445,"longitude":-79.9185592217,"address":"19 River Rd","city":"Pittsburgh","state":"PA","stars":2.0,"review_count":37,"is_open":1},{"business_id":"rCiuu6yMQLR-JMrT2oTpSQ","name":"Olive Branch Mediterranean Cuisine","latitude":40.4374148,"longitude":-80.0001472,"address":"110 Smithfield St, 2nd Fl","city":"Pittsburgh","state":"PA","stars":5.0,"review_count":5,"is_open":1},{"business_id":"tmCLmE3yfILnCC1EwhJ8gA","name":"Panera Bread","latitude":40.456611,"longitude":-79.914994,"address":"136 Bakery Square Blvd","city":"Pittsburgh","state":"PA","stars":2.0,"review_count":47,"is_open":1},{"business_id":"aY8xiGLpTjIkz6FAJbCy7A","name":"Double Wide Grill","latitude":40.4286257397,"longitude":-79.9712989479,"address":"2339 E Carson St","city":"Pittsburgh","state":"PA","stars":3.0,"review_count":494,"is_open":1},{"business_id":"Lw2vlPixPe72lDp9Cx6GoA","name":"Wang's Kitchen","latitude":40.37317,"longitude":-79.97514,"address":"3625 Brownsville Rd","city":"Pittsburgh","state":"PA","stars":4.0,"review_count":49,"is_open":1},{"business_id":"93otbGHE0s0m-lU1osvg9w","name":"Rivertowne","latitude":40.4459595,"longitude":-80.0104984,"address":"337 N Shore Dr","city":"Pittsburgh","state":"PA","stars":3.0,"review_count":132,"is_open":0},{"business_id":"E0Rd3GEJeMEis5jfr4QPJg","name":"The Yard","latitude":40.446278,"longitude":-80.180888,"address":"670 Chauvet Dr","city":"Pittsburgh","state":"PA","stars":3.5,"review_count":61,"is_open":1},{"business_id":"mZYKqiK-9fzifbFbeEbP1w","name":"McCormick & Schmick's Seafood & Steaks","latitude":40.428137705,"longitude":-79.966480649,"address":"2667 Sidney St","city":"Pittsburgh","state":"PA","stars":3.0,"review_count":168,"is_open":1},{"business_id":"HjCCyjPiqg_cRMdwEzODUQ","name":"Ugly Dog Saloon","latitude":40.4269308,"longitude":-80.0548448,"address":"2351 Noblestown Rd","city":"Pittsburgh","state":"PA","stars":3.5,"review_count":39,"is_open":1},{"business_id":"S6dARuOrrOXd4xSiTHti8g","name":"Chengdu Gourmet","latitude":40.4295421035,"longitude":-79.9223725553,"address":"5840 Forward Ave","city":"Pittsburgh","state":"PA","stars":3.5,"review_count":161,"is_open":1},{"business_id":"eNsM5ezjhPQWI6XlUGrUhw","name":"Lin's Asian Fusion","latitude":40.428369,"longitude":-79.9768128,"address":"2018 E Carson St","city":"Pittsburgh","state":"PA","stars":3.5,"review_count":122,"is_open":1},{"business_id":"OY1G_vhUYJJ3HdHfOZ2wrQ","name":"The 509 Cafe","latitude":40.4256864,"longitude":-79.9420274,"address":"509 Greenfield Ave","city":"Pittsburgh","state":"PA","stars":4.0,"review_count":3,"is_open":0},{"business_id":"rXKzE4Iraz7vGWovWW-aBA","name":"Yuzu Kitchen","latitude":40.439707,"longitude":-80.001261,"address":"409 Wood St","city":"Pittsburgh","state":"PA","stars":4.0,"review_count":170,"is_open":1},{"business_id":"88ukmEdVxAC89elQsBaYsA","name":"Two Sisters","latitude":40.4629301,"longitude":-79.9240527,"address":"216 N Highland Ave","city":"Pittsburgh","state":"PA","stars":4.5,"review_count":117,"is_open":1},{"business_id":"AIbCGVTv_oPE3S957E47Lg","name":"Primanti Bros","latitude":40.4444063,"longitude":-80.0994699,"address":"4501 Steubenville Pike","city":"Pittsburgh","state":"PA","stars":3.5,"review_count":158,"is_open":1},{"business_id":"LrEjsBYlqXdig7x5DFz0ow","name":"Tango Food Truck","latitude":40.412217,"longitude":-79.9556501,"address":"E Carson St","city":"Pittsburgh","state":"PA","stars":4.5,"review_count":15,"is_open":1},{"business_id":"l_pR3x7v2mvE3luVdmGuoQ","name":"Orient Kitchen","latitude":40.4542791,"longitude":-79.9470228,"address":"4808 Baum Blvd","city":"Pittsburgh","state":"PA","stars":3.0,"review_count":73,"is_open":0},{"business_id":"d1-X_lnO4e00Xso0LF9Zgw","name":"Long John Silver's","latitude":40.5171366,"longitude":-80.0322114,"address":"807 W View Park Dr","city":"Pittsburgh","state":"PA","stars":1.0,"review_count":3,"is_open":0},{"business_id":"bSdLGMzfyNa5PcwH_00_CQ","name":"Jack's Pizza & Hoagies","latitude":40.545767,"longitude":-79.9020714,"address":"3565 Harts Run Rd","city":"Pittsburgh","state":"PA","stars":4.0,"review_count":5,"is_open":1},{"business_id":"jz4jg_OTw32IMr_sXFwj9Q","name":"Monte Cello's","latitude":40.5111209,"longitude":-79.9933539,"address":"2198 Babcock Blvd","city":"Pittsburgh","state":"PA","stars":4.0,"review_count":75,"is_open":1},{"business_id":"Ha9J5J_IVc_LQabC3tPLQQ","name":"Bite Bistro","latitude":40.4965988,"longitude":-80.0577113,"address":"565 Lincoln Ave","city":"Pittsburgh","state":"PA","stars":4.0,"review_count":14,"is_open":0},{"business_id":"B0JdEQoQjr9oka-_YyGZ8g","name":"Outback Steakhouse","latitude":40.5759448527,"longitude":-80.0262372225,"address":"9395 McKnight Rd","city":"Pittsburgh","state":"PA","stars":2.5,"review_count":92,"is_open":1},{"business_id":"eC0iLr5RxpZPmJ6NGSqijA","name":"Umi","latitude":40.4571033,"longitude":-79.9296345,"address":"5847 Ellsworth Ave","city":"Pittsburgh","state":"PA","stars":4.0,"review_count":152,"is_open":1},{"business_id":"sCyER_dSEpznCAkkMWa8GA","name":"Joey D's in the Park, RIDC","latitude":40.5019257,"longitude":-79.8604898,"address":"180 Gamma Dr","city":"Pittsburgh","state":"PA","stars":5.0,"review_count":5,"is_open":0},{"business_id":"QcxB4grIr-bLSqqydTV6Ag","name":"Millvale Diner","latitude":40.4820495757,"longitude":-79.9742754325,"address":"301 N Ave","city":"Pittsburgh","state":"PA","stars":3.5,"review_count":65,"is_open":1},{"business_id":"M70Jr9yUWCDfoTsZS3uq7A","name":"Eden Bistro","latitude":40.4511698,"longitude":-79.9345211,"address":"735 Copeland St","city":"Pittsburgh","state":"PA","stars":4.0,"review_count":136,"is_open":0},{"business_id":"qa6aqyXmFsOMLt___P6wLQ","name":"Forest Hills Coffee Co","latitude":40.418,"longitude":-79.8484835,"address":"2201 Ardmore Blvd","city":"Pittsburgh","state":"PA","stars":3.0,"review_count":6,"is_open":0},{"business_id":"VRMNW1GXYihRxEnr1UI8hA","name":"Boston Market","latitude":40.3475404,"longitude":-80.054769,"address":"1736 Washington Rd","city":"Pittsburgh","state":"PA","stars":4.5,"review_count":3,"is_open":0},{"business_id":"72s7cTvPgI_meydNhX-JMA","name":"Vincent's of Green Tree","latitude":40.4210420362,"longitude":-80.0501069554,"address":"333 Mansfield Ave","city":"Pittsburgh","state":"PA","stars":3.0,"review_count":110,"is_open":1},{"business_id":"ejaUQ1hYo7Q7xCL1HdPINw","name":"Church Brew Works","latitude":40.462118,"longitude":-79.96445,"address":"3525 Liberty Ave","city":"Pittsburgh","state":"PA","stars":3.5,"review_count":1129,"is_open":1},{"business_id":"QbuWKli8fme4O84t99UfSg","name":"The Mintt","latitude":40.4012123,"longitude":-80.0423887,"address":"3033 Banksville Rd","city":"Pittsburgh","state":"PA","stars":3.5,"review_count":133,"is_open":1},{"business_id":"aSb4vkaMh7K2lHhnV2UIag","name":"Turkish Kebab House","latitude":40.438175,"longitude":-79.922191,"address":"5819 Forbes Ave","city":"Pittsburgh","state":"PA","stars":4.5,"review_count":155,"is_open":1},{"business_id":"ZCCmGWQKSNU5FJchGoHw7w","name":"Bar Botanico","latitude":40.4713526,"longitude":-79.9600459,"address":"4325 Butler St","city":"Pittsburgh","state":"PA","stars":4.5,"review_count":7,"is_open":1},{"business_id":"__sXvAzVGUsK6AyzT19v6g","name":"Pizza & Pasta Villa","latitude":40.5109338,"longitude":-79.9461767,"address":"890 Butler St","city":"Pittsburgh","state":"PA","stars":1.5,"review_count":15,"is_open":0},{"business_id":"--ujyvoQlwVoBgMYtADiLA","name":"Primanti Bros","latitude":40.3238863,"longitude":-79.9437969,"address":"830 Clairton Blvd","city":"Pittsburgh","state":"PA","stars":3.5,"review_count":84,"is_open":1},{"business_id":"5-wiVRTpKwhz2wKxNS-JzA","name":"51 Wings and Things","latitude":40.3713729,"longitude":-79.9820868,"address":"4022 Saw Mill Run Blvd","city":"Pittsburgh","state":"PA","stars":4.0,"review_count":67,"is_open":1},{"business_id":"YF3MsPifKWOMZ75TBFE13A","name":"Don Pablo's","latitude":40.448227375,"longitude":-80.1775782455,"address":"140 Andrew Dr","city":"Pittsburgh","state":"PA","stars":2.5,"review_count":34,"is_open":0},{"business_id":"T-OuUSSzWgrMCv9TUX3epg","name":"McCoy's Pub & Grille","latitude":40.3496432,"longitude":-79.9957077,"address":"5027 Curry Rd","city":"Pittsburgh","state":"PA","stars":3.5,"review_count":5,"is_open":0},{"business_id":"HjrwseYzjupnpMdV4SaPWg","name":"Piazza Talarico and Papa Joe's Wine Cellar","latitude":40.4646337,"longitude":-79.9602715,"address":"3832 Penn Ave","city":"Pittsburgh","state":"PA","stars":4.5,"review_count":60,"is_open":1},{"business_id":"WQAQ6IrxRMz4U22Y79-CuA","name":"Brick-Side Eatery","latitude":40.4405525045,"longitude":-79.9613586813,"address":"3459 5th Ave, Fl 7","city":"Pittsburgh","state":"PA","stars":4.5,"review_count":10,"is_open":1},{"business_id":"CipRVpM7YzsE-9U9wf2YNQ","name":"Redfin Blues","latitude":40.4633888,"longitude":-79.977597,"address":"100 Waterfront Dr","city":"Pittsburgh","state":"PA","stars":3.0,"review_count":167,"is_open":1},{"business_id":"k8i9cLTEXNL3QgbZkcR-KQ","name":"Emsworth Inn","latitude":40.5129333,"longitude":-80.1039143,"address":"197 Hazelwood Ave","city":"Pittsburgh","state":"PA","stars":5.0,"review_count":3,"is_open":1},{"business_id":"9gNko6cFCMZbvy1zhJ7-Xg","name":"Fukuda","latitude":40.4608399,"longitude":-79.9477607,"address":"4770 Liberty Ave, Fl 1","city":"Pittsburgh","state":"PA","stars":4.0,"review_count":55,"is_open":0},{"business_id":"oF6fQH8H85jo7Uv-NXzaYQ","name":"Steel Towne Inn","latitude":40.4147841,"longitude":-79.865728,"address":"1251 Wilkins Ave","city":"Pittsburgh","state":"PA","stars":4.5,"review_count":3,"is_open":1},{"business_id":"TYrbVjf-8-rx3tDKQqqzwQ","name":"Fig & Waffle La Caffe","latitude":40.4510887855,"longitude":-79.9347394596,"address":"735 Copeland St","city":"Pittsburgh","state":"PA","stars":4.0,"review_count":14,"is_open":1},{"business_id":"9eqZNBLnNycOWQ2wQEwulQ","name":"The Flats on Carson","latitude":40.4289167733,"longitude":-79.9828482301,"address":"1500 E Carson St","city":"Pittsburgh","state":"PA","stars":2.5,"review_count":38,"is_open":1},{"business_id":"of-a3UqUN5iz-ttBf0knig","name":"Police Station Pizza","latitude":40.4529576476,"longitude":-80.1642039482,"address":"1124 Park Manor Blvd","city":"Pittsburgh","state":"PA","stars":3.5,"review_count":35,"is_open":0},{"business_id":"IKA-wA459qPdRh7Bgl90ow","name":"The Fire Side Public House","latitude":40.4603948,"longitude":-79.9194043,"address":"6290 Broad St","city":"Pittsburgh","state":"PA","stars":3.5,"review_count":188,"is_open":1},{"business_id":"MYyJ9orpiRq0prjVq4ku7w","name":"Pizza Fiesta","latitude":40.4370473,"longitude":-80.000453,"address":"14 Smithfield St","city":"Pittsburgh","state":"PA","stars":3.0,"review_count":57,"is_open":1},{"business_id":"C5zOHpwyA-snVGppkbUpQg","name":"Eat'n Park","latitude":40.3458424,"longitude":-79.9736453,"address":"5100 Clairton Blvd","city":"Pittsburgh","state":"PA","stars":3.5,"review_count":37,"is_open":1},{"business_id":"dCBAubKHRb2hVuAoRhEQMQ","name":"Liliput Coffee and Cafe","latitude":40.4559244,"longitude":-79.953763,"address":"477 Melwood Ave","city":"Pittsburgh","state":"PA","stars":4.5,"review_count":10,"is_open":0},{"business_id":"C6P4wUTuDOQNwCL_QrYapw","name":"Cafe Lola","latitude":40.4631030968,"longitude":-79.7052526474,"address":"2384 Golden Mile Hwy","city":"Pittsburgh","state":"PA","stars":3.0,"review_count":5,"is_open":0},{"business_id":"GE4ayzlAHlTJEYnRAojZyA","name":"Keystone Cafe & Deli","latitude":40.4417791829,"longitude":-79.9983272699,"address":"339 Sixth Ave, Ste 1","city":"Pittsburgh","state":"PA","stars":4.5,"review_count":13,"is_open":0},{"business_id":"qNyp4GMPiRqbY3kbbPju8w","name":"Boulevard Lounge","latitude":40.3919797,"longitude":-80.0139943,"address":"1150 Brookline Blvd","city":"Pittsburgh","state":"PA","stars":4.0,"review_count":5,"is_open":1},{"business_id":"xH4EuOcHpOJdbHUoJNfyGg","name":"Sree's Indian Truck","latitude":40.4417051054,"longitude":-79.9416196346,"address":"Margaret Morrison St","city":"Pittsburgh","state":"PA","stars":3.5,"review_count":3,"is_open":0},{"business_id":"M9JpXoyxm_ZFY1zVmHgwTA","name":"Au Bon Pain","latitude":40.4404759529,"longitude":-79.9990061671,"address":"347 6th Ave","city":"Pittsburgh","state":"PA","stars":3.5,"review_count":7,"is_open":0},{"business_id":"eRoOfy-lQso6N3GiUY_c3w","name":"Redbeard's On Sixth","latitude":40.4423244,"longitude":-80.0019849,"address":"144 6th St","city":"Pittsburgh","state":"PA","stars":3.0,"review_count":188,"is_open":1},{"business_id":"50UjA4nDdqypN-hBUOAPmQ","name":"Toast! Kitchen & Wine Bar","latitude":40.4552521,"longitude":-79.9435851,"address":"5102 Baum Blvd","city":"Pittsburgh","state":"PA","stars":3.5,"review_count":146,"is_open":0},{"business_id":"15RvAvPxUBl3HmnGMJdtTQ","name":"Osaka Sushi & Chinese Restaurant","latitude":40.3907468,"longitude":-80.0704386,"address":"2101 Green Tree Rd","city":"Pittsburgh","state":"PA","stars":3.5,"review_count":66,"is_open":1},{"business_id":"yZDUuT1zNgtGkUjYBaHb6g","name":"Damon's Grill & Sports Bar","latitude":40.441505,"longitude":-79.9951949,"address":"600 Grant St","city":"Pittsburgh","state":"PA","stars":3.0,"review_count":4,"is_open":0},{"business_id":"ccdcyzc1oSucd-qRlnYR0w","name":"New China Inn","latitude":40.4521688,"longitude":-79.9516977,"address":"4609 Centre Ave","city":"Pittsburgh","state":"PA","stars":2.5,"review_count":30,"is_open":1},{"business_id":"bCVRNEKQyrQqMRxvsiztyg","name":"Mendoza Express","latitude":40.416951,"longitude":-80.066054,"address":"812 Noblestown Rd","city":"Pittsburgh","state":"PA","stars":3.5,"review_count":60,"is_open":1},{"business_id":"RFCtxMNwO_8ONYnWNDxYqg","name":"Skinny Pete's Kitchen","latitude":40.501896,"longitude":-80.069952,"address":"538 California Ave","city":"Pittsburgh","state":"PA","stars":4.5,"review_count":27,"is_open":0},{"business_id":"Eg_M8eeu9SDEdbP7iUmVbQ","name":"The Porch at Schenley","latitude":40.442777,"longitude":-79.953151,"address":"221 Schenley Dr","city":"Pittsburgh","state":"PA","stars":3.5,"review_count":650,"is_open":1},{"business_id":"hcryG9RkmK9oCELYLHukiQ","name":"Supremo's Pizzeria","latitude":40.5440312025,"longitude":-80.0333410628,"address":"120 Three Degree Rd, Ste C","city":"Pittsburgh","state":"PA","stars":3.5,"review_count":11,"is_open":0},{"business_id":"1OrJ5VR2qYarPQfSRi4kOw","name":"Spring Garden Inn","latitude":40.482442,"longitude":-79.996011,"address":"3433 Spring Garden Ave","city":"Pittsburgh","state":"PA","stars":2.5,"review_count":3,"is_open":0},{"business_id":"On54MnSknSLMDSNnvUV4Ag","name":"Taverna 19","latitude":40.4507558,"longitude":-79.9851419,"address":"49 18th St","city":"Pittsburgh","state":"PA","stars":3.0,"review_count":11,"is_open":0},{"business_id":"kmq0Y15icHK36kpJyho_Zw","name":"Large Plain","latitude":40.5308984,"longitude":-80.0178079,"address":"3286 Babcock Blvd","city":"Pittsburgh","state":"PA","stars":4.0,"review_count":39,"is_open":1},{"business_id":"SmkYLXEYhzwUZdS6TAevHg","name":"Butcher and the Rye","latitude":40.442334,"longitude":-80.002066,"address":"212 6th St","city":"Pittsburgh","state":"PA","stars":4.5,"review_count":974,"is_open":1},{"business_id":"BsLyCu_lkEdkG42qmvZlnQ","name":"Plum Pan Asian Kitchen","latitude":40.4595304893,"longitude":-79.9255426413,"address":"5996 Centre Ave","city":"Pittsburgh","state":"PA","stars":3.5,"review_count":174,"is_open":0},{"business_id":"aKMpYHAW_949EKIa8Xu6nw","name":"Culture","latitude":40.4436333,"longitude":-80.0007051,"address":"130 7th St","city":"Pittsburgh","state":"PA","stars":3.5,"review_count":11,"is_open":0},{"business_id":"gfIVwp0RkM5yMa1u3mbB4Q","name":"Arnold's Tea","latitude":40.4536895,"longitude":-80.0004312,"address":"502 E Ohio St","city":"Pittsburgh","state":"PA","stars":4.5,"review_count":83,"is_open":1},{"business_id":"qf1iKvwsiJNQKgPGJPIVAA","name":"Flamers Charbroiled Burgers","latitude":40.3443045,"longitude":-80.0593825,"address":"1900 Washington Rd","city":"Pittsburgh","state":"PA","stars":4.0,"review_count":3,"is_open":1},{"business_id":"vg55SAkrEmuHpWfIMtJjBQ","name":"Legume","latitude":40.4503566,"longitude":-79.9508477,"address":"214 N Craig St","city":"Pittsburgh","state":"PA","stars":4.0,"review_count":397,"is_open":1},{"business_id":"Idow0ymZ7ptpoeVPwzqOPQ","name":"The Flame BBQ","latitude":40.5015764,"longitude":-79.9832494,"address":"1805 Babcock Blvd","city":"Pittsburgh","state":"PA","stars":3.0,"review_count":21,"is_open":1},{"business_id":"ziJsGjXvidzZWC1I0-SOSg","name":"Habitat Restaurant","latitude":40.441487,"longitude":-80.0016733,"address":"510 Market St","city":"Pittsburgh","state":"PA","stars":3.5,"review_count":150,"is_open":0},{"business_id":"dMnAXZ3XPMNgAQ9BwXCFBA","name":"Scratch Food & Beverage","latitude":40.4644877,"longitude":-79.9822923,"address":"1720 Lowrie St","city":"Pittsburgh","state":"PA","stars":4.0,"review_count":173,"is_open":1},{"business_id":"rlFEKTaUgQqN4O9ow3LO9w","name":"Atria's","latitude":40.3398124,"longitude":-79.9654559,"address":"10 Old Clairton Rd","city":"Pittsburgh","state":"PA","stars":4.0,"review_count":110,"is_open":1},{"business_id":"PqBZ88vOqctCc0fRm2sXQg","name":"17th Street Cafe","latitude":40.4293613,"longitude":-79.9817741,"address":"75 S 17th St","city":"Pittsburgh","state":"PA","stars":3.5,"review_count":34,"is_open":0},{"business_id":"qQvHYQ1uocuEnFcUdhxV_g","name":"The Pub Chip Shop","latitude":40.4284659,"longitude":-79.9793686,"address":"1830 E Carson St","city":"Pittsburgh","state":"PA","stars":4.5,"review_count":268,"is_open":1},{"business_id":"vIyxu2PK48X8GPJ7B-z9wg","name":"The Pickle Barrel","latitude":40.4289636,"longitude":-79.9851922,"address":"1301 E Carson St","city":"Pittsburgh","state":"PA","stars":4.0,"review_count":5,"is_open":0},{"business_id":"vIHEp4EbzDs8CtA-Tf3Mkg","name":"Signature Desserts","latitude":40.3684469,"longitude":-80.0130116,"address":"3360 Library Rd","city":"Pittsburgh","state":"PA","stars":3.0,"review_count":33,"is_open":1},{"business_id":"hD77eYBzX0yQfpAUMY8dEw","name":"Party Cake Shop","latitude":40.3945037,"longitude":-80.0215239,"address":"706 Brookline Blvd","city":"Pittsburgh","state":"PA","stars":4.0,"review_count":31,"is_open":1},{"business_id":"Jw9mNU1ibHioRdyGFTafYg","name":"The Original Giovanni\u2019s Pizza on 5th Ave","latitude":40.4383251,"longitude":-79.9848123,"address":"1504 5th Ave","city":"Pittsburgh","state":"PA","stars":3.5,"review_count":19,"is_open":1},{"business_id":"URpAp76v2SVBbDJr3Obasg","name":"Pittsburgh Pizza Point","latitude":40.476307,"longitude":-79.778563,"address":"7615 Saltsburg Rd","city":"Pittsburgh","state":"PA","stars":3.0,"review_count":7,"is_open":0},{"business_id":"UyEJouFTFxcmYaHouhSGFA","name":"Bombay Curry House","latitude":40.43855,"longitude":-79.9547383,"address":"346 Atwood St","city":"Pittsburgh","state":"PA","stars":2.5,"review_count":4,"is_open":0},{"business_id":"S-WbBty-kGOO3Fmwx3Jmlw","name":"Pink Box Bakery Cafe","latitude":40.4333842482,"longitude":-79.9231549469,"address":"2104 Murray Ave","city":"Pittsburgh","state":"PA","stars":4.0,"review_count":97,"is_open":1},{"business_id":"minFxQJgD6lyHndwU-_IUw","name":"Boston Market","latitude":40.495167,"longitude":-79.958717,"address":"300 Davis Blvd","city":"Pittsburgh","state":"PA","stars":2.5,"review_count":3,"is_open":0},{"business_id":"Lb17BCffIA3kLXMjA9UlgQ","name":"Poppy's Bistro and Pub","latitude":40.4612318,"longitude":-79.9484943,"address":"4744 Liberty Ave","city":"Pittsburgh","state":"PA","stars":2.5,"review_count":7,"is_open":0},{"business_id":"9x1bWbbSgFCMLJlJR8mezQ","name":"La Gondola Pizzeria & Restaurant","latitude":40.4400655,"longitude":-80.0025144,"address":"4 Market Sq","city":"Pittsburgh","state":"PA","stars":4.0,"review_count":59,"is_open":1},{"business_id":"XgkTmVrlHHO5g96AfOAfpw","name":"Le Lyonnais","latitude":40.4444445,"longitude":-79.996451,"address":"947 Penn Ave","city":"Pittsburgh","state":"PA","stars":3.5,"review_count":56,"is_open":0},{"business_id":"VVbp-2Bs5_MGrjboTwpSRA","name":"Venice Pizzeria","latitude":40.366106,"longitude":-79.9848855,"address":"4144 Saw Mill Run Blvd","city":"Pittsburgh","state":"PA","stars":3.5,"review_count":24,"is_open":1},{"business_id":"xoA1_vsxC0xD_fPgDZ2mbg","name":"V3 Flatbread Pizza","latitude":40.4422388,"longitude":-80.002739,"address":"11 Fifth Ave","city":"Pittsburgh","state":"PA","stars":4.0,"review_count":79,"is_open":1},{"business_id":"_vzNvnj8ob0hAk2QXEv3Mw","name":"Main Event - Pittsburgh","latitude":40.4457550849,"longitude":-80.1767381002,"address":"200 Quinn Dr","city":"Pittsburgh","state":"PA","stars":2.5,"review_count":57,"is_open":1},{"business_id":"GdB7us2H1YKmLwThnHl7jg","name":"Michael's Restaurant & Lounge","latitude":40.3855547,"longitude":-79.9674384,"address":"3052 Churchview Ave","city":"Pittsburgh","state":"PA","stars":2.0,"review_count":9,"is_open":0},{"business_id":"nWO956JzoKr1uKD3VIkp5A","name":"Au Bon Pain Co","latitude":40.4419737,"longitude":-80.0034017,"address":"120 5th Ave, Ste 210","city":"Pittsburgh","state":"PA","stars":3.5,"review_count":6,"is_open":0},{"business_id":"dyaSQBKagPYylOJxsU8CMA","name":"Jimmy Tsang's Chinese Restaurant","latitude":40.4571291,"longitude":-79.9334864,"address":"5700 Centre Ave","city":"Pittsburgh","state":"PA","stars":3.0,"review_count":11,"is_open":0},{"business_id":"z2o5wCs-O0ZjnSTVtVQfpw","name":"Pub Chip Shop Food Truck","latitude":40.4293034,"longitude":-79.9724245,"address":"","city":"Pittsburgh","state":"PA","stars":4.5,"review_count":7,"is_open":1},{"business_id":"b2ZukyGCS7xDlv0ZAlXdYg","name":"Alida's Woodfire Cucina","latitude":40.4626419,"longitude":-79.9677704,"address":"3345 Penn Ave, Ste 200","city":"Pittsburgh","state":"PA","stars":4.0,"review_count":57,"is_open":0},{"business_id":"FI1JaVkuiZdb23Ds-mpBeg","name":"Fortunes Coffee Roastery","latitude":40.4514312,"longitude":-79.983917,"address":"2005 Penn Ave","city":"Pittsburgh","state":"PA","stars":4.0,"review_count":11,"is_open":0},{"business_id":"Tr8TJnMoSgBvfZvmCx9-eQ","name":"The Franklin Inn","latitude":40.5783131,"longitude":-80.0781165,"address":"2313 Rochester Rd","city":"Pittsburgh","state":"PA","stars":3.5,"review_count":182,"is_open":1},{"business_id":"9MPLntyNzhdUXpGT-h0HUw","name":"Acorn Pittsburgh","latitude":40.4514229,"longitude":-79.9326639,"address":"5528 Walnut St","city":"Pittsburgh","state":"PA","stars":4.5,"review_count":148,"is_open":1},{"business_id":"Bg8xZT4-NsYLYd-WPIhgXw","name":"Station Street Hot Dogs","latitude":40.460424,"longitude":-79.919386,"address":"6290 Broad St","city":"Pittsburgh","state":"PA","stars":3.5,"review_count":106,"is_open":0},{"business_id":"aQKix0iMREiJsFGr7mH1mA","name":"Wendy's","latitude":40.4474531254,"longitude":-80.1534225986,"address":"6296 Steubenville Pk","city":"Pittsburgh","state":"PA","stars":1.0,"review_count":5,"is_open":1},{"business_id":"slaDx1ywy45wF7GgEp6e8g","name":"Happiness Is Homemade","latitude":40.415709,"longitude":-79.987577,"address":"208 Brownsville Rd","city":"Pittsburgh","state":"PA","stars":4.5,"review_count":4,"is_open":1},{"business_id":"u9tuI33E_9gU7guwbOdJVg","name":"Primanti Bros","latitude":40.4386444,"longitude":-79.9984856,"address":"411 Cherry Way","city":"Pittsburgh","state":"PA","stars":3.0,"review_count":9,"is_open":0},{"business_id":"mKoi3QV2d45Qm3iWt1aa3w","name":"The Doner Kebab House","latitude":40.4364494,"longitude":-79.9544242,"address":"424 Semple St","city":"Pittsburgh","state":"PA","stars":3.5,"review_count":4,"is_open":0},{"business_id":"1eJ7yIzSAjwC145fnHD5Xw","name":"Starbucks","latitude":40.452605,"longitude":-80.1644546561,"address":"1050 Park Manor Blvd","city":"Pittsburgh","state":"PA","stars":2.5,"review_count":32,"is_open":1},{"business_id":"wvDT67R5duF_hYx5iOXLaQ","name":"DeLuca's Diner","latitude":40.4533123615,"longitude":-80.1626436575,"address":"1110 Park Manor Blvd","city":"Pittsburgh","state":"PA","stars":3.5,"review_count":133,"is_open":1},{"business_id":"XMJpOti7qAamQFfHJwFBSQ","name":"Remedy Restaurant and Lounge","latitude":40.479006,"longitude":-79.955536,"address":"5121 Butler St","city":"Pittsburgh","state":"PA","stars":3.5,"review_count":55,"is_open":1},{"business_id":"8dAmtiVtZjiRTmDq9QAW5w","name":"Kabob-G Grill","latitude":40.3654729,"longitude":-80.0255984,"address":"3821 Willow Ave","city":"Pittsburgh","state":"PA","stars":4.5,"review_count":67,"is_open":1},{"business_id":"IakOnLeTFBvJvcxxBHQq_Q","name":"Olio Trattoria","latitude":40.44133,"longitude":-79.956892,"address":"3716 Forbes Ave","city":"Pittsburgh","state":"PA","stars":3.0,"review_count":10,"is_open":0},{"business_id":"GH_GGx54q-U_NZ_A3znakg","name":"Vincent's Pizza Park","latitude":40.4108232415,"longitude":-79.844874294,"address":"998 Ardmore Blvd","city":"Pittsburgh","state":"PA","stars":3.5,"review_count":137,"is_open":1},{"business_id":"IBGrQ6YUywBp1Hqu9c1LZQ","name":"Bocktown Beer and Grill","latitude":40.4462771905,"longitude":-80.1809763831,"address":"690 Chauvet Dr","city":"Pittsburgh","state":"PA","stars":4.0,"review_count":191,"is_open":0},{"business_id":"-nHkhiuerqmfBG3v2v9O-g","name":"Bruegger's Bagels","latitude":40.3441937,"longitude":-79.970963,"address":"5217 Clairton Blvd","city":"Pittsburgh","state":"PA","stars":2.5,"review_count":5,"is_open":0},{"business_id":"ztbLCSo15CMqt18D6f0x5A","name":"Lilly's Gourmet Pasta Express","latitude":40.4379499,"longitude":-79.9206186,"address":"5860 Forbes Ave","city":"Pittsburgh","state":"PA","stars":2.5,"review_count":9,"is_open":0},{"business_id":"YLnrLMUGa6PJZFaOs8etEQ","name":"F. Tambellini Ristorante","latitude":40.443577,"longitude":-80.000162,"address":"139 7th St","city":"Pittsburgh","state":"PA","stars":2.0,"review_count":19,"is_open":0},{"business_id":"Ac-DbrST8bF9Cpge5D9_Cg","name":"Pho Kim 88","latitude":40.3606177,"longitude":-80.0291028,"address":"4100 Library Rd","city":"Pittsburgh","state":"PA","stars":4.0,"review_count":167,"is_open":1},{"business_id":"XItYW5ul3OW_AqpT2nDbBQ","name":"Park Bruges","latitude":40.4761593,"longitude":-79.9205658,"address":"5801 Bryant St","city":"Pittsburgh","state":"PA","stars":4.0,"review_count":296,"is_open":1},{"business_id":"QbLCALa347d6D09WJ37HXQ","name":"Real McCoy Sandwich Shop","latitude":40.4285356,"longitude":-79.977217,"address":"2010 E Carson St","city":"Pittsburgh","state":"PA","stars":4.5,"review_count":10,"is_open":0},{"business_id":"p2Nr4d7-MS82opzRCNkbNA","name":"QDOBA Mexican Eats","latitude":40.4409974,"longitude":-79.9962147,"address":"601 Grant St","city":"Pittsburgh","state":"PA","stars":3.5,"review_count":10,"is_open":1},{"business_id":"dQj5DLZjeDK3KFysh1SYOQ","name":"Apteka","latitude":40.4656937,"longitude":-79.9493238,"address":"4606 Penn Ave","city":"Pittsburgh","state":"PA","stars":4.5,"review_count":301,"is_open":1},{"business_id":"2wU2cdWiKegJujTliMJx0w","name":"La Felice Pizza and Pasta","latitude":40.533501,"longitude":-80.0184733,"address":"3324 Babcock Blvd","city":"Pittsburgh","state":"PA","stars":3.5,"review_count":56,"is_open":1},{"business_id":"QQMHSov0KBlBSfb7PXOcXg","name":"Sapporo Japanese Steakhouse","latitude":40.4400036,"longitude":-80.0909106,"address":"4260 Steubenville Pike","city":"Pittsburgh","state":"PA","stars":4.0,"review_count":27,"is_open":1},{"business_id":"T4648Rp4gRKqKHVzQgQ3fA","name":"Ginza Korean & Japanese Restaurant","latitude":40.440304,"longitude":-79.956279,"address":"239 Atwood St","city":"Pittsburgh","state":"PA","stars":3.0,"review_count":13,"is_open":0},{"business_id":"1R0SfOQnSknw4wzrZGaFVw","name":"Soul Food on Hamilton","latitude":40.4539509,"longitude":-79.895583,"address":"7302 Hamilton Ave","city":"Pittsburgh","state":"PA","stars":4.5,"review_count":5,"is_open":0},{"business_id":"vWYK4XApgyT7mbtmNqIxxg","name":"Casa Rasta","latitude":40.460212,"longitude":-79.925355,"address":"130 S Highland Ave","city":"Pittsburgh","state":"PA","stars":2.5,"review_count":20,"is_open":0},{"business_id":"BvOUgBP0ougN-VkqCqlYwA","name":"Krazy Karen's Cafe & Galleria","latitude":40.4947471,"longitude":-79.9324749,"address":"1000 N Canal St","city":"Pittsburgh","state":"PA","stars":3.5,"review_count":3,"is_open":1},{"business_id":"iT9KMTR8NqYwSCW-zMUOxw","name":"Tai Pei","latitude":40.4876529256,"longitude":-79.8806163564,"address":"1124 Freeport Rd","city":"Pittsburgh","state":"PA","stars":3.5,"review_count":101,"is_open":1},{"business_id":"tdLzywYXCOmskX95V53G5g","name":"Bruegger's Bagels","latitude":40.3925209,"longitude":-80.061586,"address":"1644 Cochran Rd","city":"Pittsburgh","state":"PA","stars":3.0,"review_count":24,"is_open":1},{"business_id":"jO9gbncmBCExL_FvFKU5Ew","name":"The Grateful Deli & Catering Company","latitude":40.4655697,"longitude":-79.9557517,"address":"4065 Penn Ave","city":"Pittsburgh","state":"PA","stars":4.0,"review_count":8,"is_open":0},{"business_id":"yYyAdIxKBvFbUa19Kymq_Q","name":"Paparazzi Restaurant","latitude":40.4282768,"longitude":-79.9761227,"address":"2100 E Carson St","city":"Pittsburgh","state":"PA","stars":3.5,"review_count":5,"is_open":0},{"business_id":"B-eT-dKm_CkXD3BuMBGFrA","name":"KFC","latitude":40.4129887336,"longitude":-79.8566746926,"address":"278 Yost Blvd","city":"Pittsburgh","state":"PA","stars":2.0,"review_count":4,"is_open":1},{"business_id":"EzcrB9DhKtezASq7fZ6ZyA","name":"Oakland Bakery and Market","latitude":40.4438616753,"longitude":-79.9554495825,"address":"3925 5th Ave","city":"Pittsburgh","state":"PA","stars":4.0,"review_count":7,"is_open":0},{"business_id":"WapKKV44UnJ_BVfHfMMy6w","name":"Primanti Brothers","latitude":40.4957167,"longitude":-80.2414884,"address":"1000 Airport Blvd","city":"Pittsburgh","state":"PA","stars":4.0,"review_count":15,"is_open":1},{"business_id":"sFW80RuwnT1IQL3vNaBiBg","name":"Wood Stoked Oven","latitude":40.3675797,"longitude":-80.0171609,"address":"","city":"Pittsburgh","state":"PA","stars":4.0,"review_count":3,"is_open":1},{"business_id":"lKom12WnYEjH5FFemK3M1Q","name":"Primanti Bros","latitude":40.4507064819,"longitude":-79.9855880737,"address":"46 18th St","city":"Pittsburgh","state":"PA","stars":3.5,"review_count":1380,"is_open":1},{"business_id":"EZ9Uf-lSRtj1fvdMQlrwAw","name":"Thai Me Up","latitude":40.427086,"longitude":-79.973273,"address":"118 S 23rd St","city":"Pittsburgh","state":"PA","stars":3.5,"review_count":209,"is_open":1},{"business_id":"5S8KaaAIjqo2bJcVlMNW5w","name":"Sichuan House Chinese Restaurant","latitude":40.3923379,"longitude":-80.0662223,"address":"1717 Cochran Rd","city":"Pittsburgh","state":"PA","stars":3.5,"review_count":3,"is_open":0},{"business_id":"gNMkHi3V_YZLZihhwYFPCg","name":"Panera Bread","latitude":40.3593333319,"longitude":-80.0017954577,"address":"5301 Grove Rd","city":"Pittsburgh","state":"PA","stars":3.0,"review_count":21,"is_open":1},{"business_id":"lNuedAMNPFROMiI0YRTCAw","name":"SAKE Asian Cuisine & Sushi Bar","latitude":40.4272412,"longitude":-79.9648354,"address":"2773 Sidney St","city":"Pittsburgh","state":"PA","stars":3.0,"review_count":79,"is_open":0},{"business_id":"GgjzC6Ki7i4i_RG8pPVZnw","name":"Popeyes","latitude":40.4415876,"longitude":-79.9582278,"address":"107 Atwood St","city":"Pittsburgh","state":"PA","stars":3.5,"review_count":4,"is_open":0},{"business_id":"rLZDtOjCPhXZx1ldZKFzJA","name":"Lili Cafe","latitude":40.4574418,"longitude":-79.9658899,"address":"3138 Dobson St","city":"Pittsburgh","state":"PA","stars":4.0,"review_count":65,"is_open":0},{"business_id":"5X1stJTur_paJFZ9TTuNIw","name":"Vocelli Pizza","latitude":40.442327,"longitude":-80.002868,"address":"524 Penn Ave","city":"Pittsburgh","state":"PA","stars":2.5,"review_count":5,"is_open":0},{"business_id":"t6OSEZiX-w68k2f3gR47qw","name":"Big Guy's Pizza & Pasta","latitude":40.3955651,"longitude":-79.9872154,"address":"1914 Brownsville Rd","city":"Pittsburgh","state":"PA","stars":3.5,"review_count":3,"is_open":0},{"business_id":"rIj7fC2wwRr_2iVSIAtbQw","name":"Yinz Guys Pizza","latitude":40.3955651,"longitude":-79.9872154,"address":"1914 Brownsvillerd","city":"Pittsburgh","state":"PA","stars":3.5,"review_count":14,"is_open":0},{"business_id":"CJu3t6lqoJATXIZaH9sJug","name":"Arriviste Coffee Bar","latitude":40.4553616,"longitude":-79.9312134,"address":"5730 Ellsworth Ave","city":"Pittsburgh","state":"PA","stars":4.5,"review_count":81,"is_open":1},{"business_id":"E_IIblD1Vu9YSywrvs4vBw","name":"Pizza Milano","latitude":40.4430805,"longitude":-80.0026482,"address":"134 6th St","city":"Pittsburgh","state":"PA","stars":4.5,"review_count":14,"is_open":1},{"business_id":"tIjoGxi2r6QvREucvQwZpA","name":"The Dream BBQ","latitude":40.4530376642,"longitude":-79.8911726475,"address":"7600 N Braddock Ave","city":"Pittsburgh","state":"PA","stars":4.5,"review_count":31,"is_open":1},{"business_id":"JkWRqZ2gSYDdt8Dw1E8oyA","name":"Sojourn Catering & Deli","latitude":40.4274598,"longitude":-80.0554604,"address":"2350 Noblestown Rd","city":"Pittsburgh","state":"PA","stars":5.0,"review_count":10,"is_open":0},{"business_id":"L95ppCbcWAt4LUWrCiEvPg","name":"The Capital Grille","latitude":40.4407195879,"longitude":-80.0000391542,"address":"301 5th Ave","city":"Pittsburgh","state":"PA","stars":4.0,"review_count":317,"is_open":1},{"business_id":"FGL0dGh9450_SEtDNlU3Cg","name":"Gino Brothers Pizzeria & Bar","latitude":40.5388182726,"longitude":-79.835724227,"address":"55 Alpha Dr W","city":"Pittsburgh","state":"PA","stars":3.0,"review_count":40,"is_open":1},{"business_id":"jf_N8zWp30usaMLXdJs9Jg","name":"Wendy's","latitude":40.517685,"longitude":-80.0321249,"address":"802 W View Park Dr","city":"Pittsburgh","state":"PA","stars":1.5,"review_count":20,"is_open":0},{"business_id":"bITJXsOT4hCqahJc1dHMDQ","name":"My Big Fat Greek Gyro","latitude":40.4411343,"longitude":-80.0026106,"address":"431 Market St","city":"Pittsburgh","state":"PA","stars":3.0,"review_count":22,"is_open":0},{"business_id":"Toux3q1WwY2vNV5AhbR6wQ","name":"Cibo","latitude":40.432812,"longitude":-79.8937728,"address":"1103 S Braddock Ave","city":"Pittsburgh","state":"PA","stars":3.5,"review_count":44,"is_open":0},{"business_id":"kB_y2a5DqK6OH4xzCWBRcw","name":"Romulus Pizza al Taglio","latitude":40.4508934,"longitude":-79.9850882,"address":"108 19th St","city":"Pittsburgh","state":"PA","stars":4.0,"review_count":8,"is_open":1},{"business_id":"heYShXdxU_RVoDcGGGkn5Q","name":"Smithfield Cafe","latitude":40.442558,"longitude":-79.997214,"address":"639 Smithfield St","city":"Pittsburgh","state":"PA","stars":3.5,"review_count":17,"is_open":0},{"business_id":"FZpyIiCAsr7Twkw4tQeqPA","name":"Olive Garden Italian Restaurant","latitude":40.5532836,"longitude":-80.0193884,"address":"40 McIntyre Square Dr","city":"Pittsburgh","state":"PA","stars":3.5,"review_count":44,"is_open":1},{"business_id":"N_k0rBm3OcJlAexLlhGRiw","name":"Einstein Bros Bagels","latitude":40.4184859,"longitude":-80.045437,"address":"979 Greentree Rd","city":"Pittsburgh","state":"PA","stars":3.0,"review_count":30,"is_open":1},