{"keOzwoc28Iac5mA8FD93uA": {"name": "Bama's Southern Kitchen", "latitude": 40.3951787, "longitude": -80.0225039, "address": "600 Brookline Blvd", "city": "Pittsburgh", "state": "PA", "stars": 4.5, "review_count": 16, "is_open": 0}, "FAhFnSJn9owENi61iI8jwQ": {"name": "Leo. a public house", "latitude": 40.4540188664, "longitude": -80.0198856998, "address": "1207 Allegheny Ave", "city": "Pittsburgh", "state": "PA", "stars": 4.5, "review_count": 16, "is_open": 1}, "Aes4MuZLnFqglFJNMZxRbw": {"name": "Lydiah's Coffee House", "latitude": 40.4371691, "longitude": -79.9981261, "address": "200 Grant St", "city": "Pittsburgh", "state": "PA", "stars": 4.5, "review_count": 27, "is_open": 0}, "tuB82m4oIlKLyWeQjEF16g": {"name": "Tasty N Healthy", "latitude": 40.4646762, "longitude": -79.827253, "address": "11633 Penn Hills Dr", "city": "Pittsburgh", "state": "PA", "stars": 4.5, "review_count": 37, "is_open": 1}, "1zl7-8t8jQ4NX29qRp8soA": {"name": "City Fresh Pasta", "latitude": 40.4335076, "longitude": -79.9228533, "address": "2107 Murray Ave", "city": "Pittsburgh", "state": "PA", "stars": 4.5, "review_count": 28, "is_open": 0}, "a3ZqjElMgAe924sbXZVcvA": {"name": "Sciulli's Pizza", "latitude": 40.4391344, "longitude": -79.961805, "address": "3404 5th Ave", "city": "Pittsburgh", "state": "PA", "stars": 4.5, "review_count": 20, "is_open": 1}, "-8F04F54iDT6VgWPCgybug": {"name": "Ineffable Ca Phe", "latitude": 40.464681, "longitude": -79.959312, "address": "3920 Penn Ave", "city": "Pittsburgh", "state": "PA", "stars": 4.5, "review_count": 131, "is_open": 1}, "HGtJeZ5ifqRwknvsBlB8fQ": {"name": "Tocayo Taqueria & Tequila", "latitude": 40.451213, "longitude": -79.932284, "address": "810 Ivy St", "city": "Pittsburgh", "state": "PA", "stars": 4.5, "review_count": 94, "is_open": 1}, "pWJoOfYUWSkro0WNxHspFg": {"name": "Claudio's Pizzeria & Ristorante", "latitude": 40.3630141, "longitude": -80.0854621, "address": "1883 Painter's Run Rd", "city": "Pittsburgh", "state": "PA", "stars": 4.5, "review_count": 37, "is_open": 1}, "35KvoWbA3kEsdckaWqG3OA": {"name": "Masala House Indian Bistro", "latitude": 40.4552906, "longitude": -79.9436163, "address": "5102 Baum Blvd", "city": "Pittsburgh", "state": "PA", "stars": 4.5, "review_count": 106, "is_open": 1}, "7PRse3yCQbEprAj1DWrEQQ": {"name": "Dish Osteria and Bar", "latitude": 40.4275026, "longitude": -79.9822893, "address": "128 S 17th St", "city": "Pittsburgh", "state": "PA", "stars": 4.5, "review_count": 207, "is_open": 1}, "5oA6zlmJ4jQREDH6dNCq6w": {"name": "The Alcove", "latitude": 40.4266685097, "longitude": -80.040649866, "address": "875 Greentree Rd, Ste 106 Bldg 4", "city": "Pittsburgh", "state": "PA", "stars": 4.5, "review_count": 41, "is_open": 1}, "F9IJ3EddoyW89O0DFikPTQ": {"name": "Sunseri Jimmy & Nino", "latitude": 40.4509544, "longitude": -79.9845939, "address": "1901 Penn Ave", "city": "Pittsburgh", "state": "PA", "stars": 4.5, "review_count": 57, "is_open": 1}, "0pi1DQ3N8gC6jhdHfDWEMA": {"name": "MR Bulgogi", "latitude": 40.4720642, "longitude": -79.9136731, "address": "", "city": "Pittsburgh", "state": "PA", "stars": 4.5, "review_count": 21, "is_open": 1}, "3ed7T7HvUJUnPf6jDmys9A": {"name": "Fun Asian Bistro", "latitude": 40.4662589, "longitude": -79.8270294, "address": "11655 Frankstown Rd", "city": "Pittsburgh", "state": "PA", "stars": 5.0, "review_count": 56, "is_open": 1}, "z_RTK0MaxaRHRQ99hDL2QA": {"name": "Benny Fierro's", "latitude": 40.4284235, "longitude": -79.9788262, "address": "1906 E Carson St", "city": "Pittsburgh", "state": "PA", "stars": 4.5, "review_count": 130, "is_open": 1}, "i-2OzvZUDtvKCMq1vcRSZg": {"name": "Triangle Bar & Grill", "latitude": 40.4175818, "longitude": -79.8879542, "address": "2122 Monongahela Ave", "city": "Pittsburgh", "state": "PA", "stars": 4.5, "review_count": 121, "is_open": 1}, "dMLGSQlmo6MhLD18grRENA": {"name": "Better-Maid Donut", "latitude": 40.441551, "longitude": -80.0478744, "address": "1178 Steuben St", "city": "Pittsburgh", "state": "PA", "stars": 4.5, "review_count": 54, "is_open": 1}, "7z2x16M7IuG8KPfMsyVrKA": {"name": "Morcilla", "latitude": 40.4645572158, "longitude": -79.9661576054, "address": "3519 Butler St", "city": "Pittsburgh", "state": "PA", "stars": 4.5, "review_count": 301, "is_open": 1}, "DQmEQkOhR4AwifvRPKqz_g": {"name": "Sushi & Rolls", "latitude": 40.4383265, "longitude": -79.9990769, "address": "301 Grant St, Ste 3", "city": "Pittsburgh", "state": "PA", "stars": 4.5, "review_count": 44, "is_open": 1}, "TqUFwP0mQJBPFHql0tLVsQ": {"name": "The Original Gyro", "latitude": 40.3649005, "longitude": -80.017896, "address": "3611 Library Rd", "city": "Pittsburgh", "state": "PA", "stars": 4.5, "review_count": 49, "is_open": 1}, "QlSpPzc4Oy05ic-PsoYH4g": {"name": "Streets On Carson", "latitude": 40.428606088, "longitude": -79.986632131, "address": "1120 E Carson St", "city": "Pittsburgh", "state": "PA", "stars": 4.5, "review_count": 134, "is_open": 1}, "PBmMvDows5HWIqrEVvNfQQ": {"name": "Istanbul Sofra", "latitude": 40.4395831126, "longitude": -79.897459209, "address": "7600 Forbes Ave", "city": "Pittsburgh", "state": "PA", "stars": 4.5, "review_count": 322, "is_open": 0}, "MjD_bzVtkAIviFsNFGy7Zg": {"name": "Dormont Dogs", "latitude": 40.3955087, "longitude": -80.0351502, "address": "2911 Glenmore Ave", "city": "Pittsburgh", "state": "PA", "stars": 4.5, "review_count": 38, "is_open": 0}, "FV5o9VV0yTU2Kt2bmjlHbA": {"name": "Bona Terra Restaurant", "latitude": 40.4945944, "longitude": -79.9332111, "address": "908 Main St", "city": "Pittsburgh", "state": "PA", "stars": 4.5, "review_count": 28, "is_open": 0}, "PA0UJYogQTd5MIuKMs3tfA": {"name": "It's Greek To Me", "latitude": 40.3919796, "longitude": -80.0173011, "address": "1011 Brookline Blvd", "city": "Pittsburgh", "state": "PA", "stars": 4.5, "review_count": 20, "is_open": 0}, "a2qlFwIy9vUvfUb4EnQNmA": {"name": "Randita's Organic Vegan Cafe", "latitude": 40.490451, "longitude": -79.9048406, "address": "207 Commercial Ave", "city": "Pittsburgh", "state": "PA", "stars": 4.5, "review_count": 41, "is_open": 0}, "woXlprCuowrLJswWere3TQ": {"name": "t\u00e4k\u014d", "latitude": 40.4422285653, "longitude": -80.0019846969, "address": "214 6th St", "city": "Pittsburgh", "state": "PA", "stars": 4.5, "review_count": 1466, "is_open": 1}, "tcnu9ivUsuQUNiz944bpOA": {"name": "Kouskous Express", "latitude": 40.3813039, "longitude": -80.0439306, "address": "665 Washington Rd", "city": "Pittsburgh", "state": "PA", "stars": 4.5, "review_count": 35, "is_open": 0}, "Fozo0B-y42EhRMomR0K5vQ": {"name": "Waffallonia", "latitude": 40.4377485, "longitude": -79.9228228, "address": "1709 Murray Ave", "city": "Pittsburgh", "state": "PA", "stars": 4.5, "review_count": 308, "is_open": 1}, "E9Gnux898nomZK0fYErQVw": {"name": "Everyday Cafe", "latitude": 40.4533598855, "longitude": -79.8981681839, "address": "532 N Homewood Ave", "city": "Pittsburgh", "state": "PA", "stars": 4.5, "review_count": 27, "is_open": 1}, "49sbCG7F2jvqJsfG6-N8Rw": {"name": "Spice Affair", "latitude": 40.4890868, "longitude": -79.900682, "address": "8 Brilliant Ave", "city": "Pittsburgh", "state": "PA", "stars": 4.5, "review_count": 100, "is_open": 1}, "HThLR9ln5hLPL24-7TyWtA": {"name": "Musa Caribbean / Cajun Fare", "latitude": 40.4019969, "longitude": -80.0313946, "address": "2318 Broadway Ave", "city": "Pittsburgh", "state": "PA", "stars": 5.0, "review_count": 75, "is_open": 1}, "oS96aJIHFWcFAlGHKKXjaw": {"name": "La Gourmandine Bakery & Pastry Shop", "latitude": 40.4730974, "longitude": -79.9588647, "address": "4605 Butler St", "city": "Pittsburgh", "state": "PA", "stars": 4.5, "review_count": 432, "is_open": 1}, "VT8vUd-2s5IdvSNwhNHkpg": {"name": "California Coffee Bar", "latitude": 40.4807205, "longitude": -80.0415143, "address": "3619 California Ave", "city": "Pittsburgh", "state": "PA", "stars": 4.5, "review_count": 49, "is_open": 1}, "ZPAnqqAKLjg9uCN6Rk1lfg": {"name": "Pizzuvio", "latitude": 40.440094, "longitude": -80.0011218, "address": "268 Forbes Ave", "city": "Pittsburgh", "state": "PA", "stars": 4.5, "review_count": 33, "is_open": 0}, "cpxobfqM8IuF78WUfrj9_Q": {"name": "Grandma B's", "latitude": 40.4486945, "longitude": -79.9705415, "address": "2537 Wylie Ave", "city": "Pittsburgh", "state": "PA", "stars": 4.5, "review_count": 44, "is_open": 1}, "h5XqYtEmRuQ6yI0IyG6oNQ": {"name": "Cibrone M & Sons Bakery", "latitude": 40.3659388, "longitude": -80.0132661, "address": "1231 Grove Rd", "city": "Pittsburgh", "state": "PA", "stars": 4.5, "review_count": 21, "is_open": 1}, "gZCpY4tmSctmHkvPipp3wg": {"name": "Leon's Caribbean Restaurant", "latitude": 40.4219059, "longitude": -79.9927969, "address": "823 E Warrington Ave", "city": "Pittsburgh", "state": "PA", "stars": 4.5, "review_count": 53, "is_open": 1}, "u8pWT0002q-Y9GvrUwVFVw": {"name": "The Vault Taproom", "latitude": 40.4289536928, "longitude": -79.9842818454, "address": "1327 E Carson St", "city": "Pittsburgh", "state": "PA", "stars": 4.5, "review_count": 58, "is_open": 1}, "88ukmEdVxAC89elQsBaYsA": {"name": "Two Sisters", "latitude": 40.4629301, "longitude": -79.9240527, "address": "216 N Highland Ave", "city": "Pittsburgh", "state": "PA", "stars": 4.5, "review_count": 117, "is_open": 1}, "LrEjsBYlqXdig7x5DFz0ow": {"name": "Tango Food Truck", "latitude": 40.412217, "longitude": -79.9556501, "address": "E Carson St", "city": "Pittsburgh", "state": "PA", "stars": 4.5, "review_count": 15, "is_open": 1}, "aSb4vkaMh7K2lHhnV2UIag": {"name": "Turkish Kebab House", "latitude": 40.438175, "longitude": -79.922191, "address": "5819 Forbes Ave", "city": "Pittsburgh", "state": "PA", "stars": 4.5, "review_count": 155, "is_open": 1}, "HjrwseYzjupnpMdV4SaPWg": {"name": "Piazza Talarico and Papa Joe's Wine Cellar", "latitude": 40.4646337, "longitude": -79.9602715, "address": "3832 Penn Ave", "city": "Pittsburgh", "state": "PA", "stars": 4.5, "review_count": 60, "is_open": 1}, "GE4ayzlAHlTJEYnRAojZyA": {"name": "Keystone Cafe & Deli", "latitude": 40.4417791829, "longitude": -79.9983272699, "address": "339 Sixth Ave, Ste 1", "city": "Pittsburgh", "state": "PA", "stars": 4.5, "review_count": 13, "is_open": 0}, "RFCtxMNwO_8ONYnWNDxYqg": {"name": "Skinny Pete's Kitchen", "latitude": 40.501896, "longitude": -80.069952, "address": "538 California Ave", "city": "Pittsburgh", "state": "PA", "stars": 4.5, "review_count": 27, "is_open": 0}, "SmkYLXEYhzwUZdS6TAevHg": {"name": "Butcher and the Rye", "latitude": 40.442334, "longitude": -80.002066, "address": "212 6th St", "city": "Pittsburgh", "state": "PA", "stars": 4.5, "review_count": 974, "is_open": 1}, "gfIVwp0RkM5yMa1u3mbB4Q": {"name": "Arnold's Tea", "latitude": 40.4536895, "longitude": -80.0004312, "address": "502 E Ohio St", "city": "Pittsburgh", "state": "PA", "stars": 4.5, "review_count": 83, "is_open": 1}, "qQvHYQ1uocuEnFcUdhxV_g": {"name": "The Pub Chip Shop", "latitude": 40.4284659, "longitude": -79.9793686, "address": "1830 E Carson St", "city": "Pittsburgh", "state": "PA", "stars": 4.5, "review_count": 268, "is_open": 1}, "9MPLntyNzhdUXpGT-h0HUw": {"name": "Acorn Pittsburgh", "latitude": 40.4514229, "longitude": -79.9326639, "address": "5528 Walnut St", "city": "Pittsburgh", "state": "PA", "stars": 4.5, "review_count": 148, "is_open": 1}, "8dAmtiVtZjiRTmDq9QAW5w": {"name": "Kabob-G Grill", "latitude": 40.3654729, "longitude": -80.0255984, "address": "3821 Willow Ave", "city": "Pittsburgh", "state": "PA", "stars": 4.5, "review_count": 67, "is_open": 1}, "dQj5DLZjeDK3KFysh1SYOQ": {"name": "Apteka", "latitude": 40.4656937, "longitude": -79.9493238, "address": "4606 Penn Ave", "city": "Pittsburgh", "state": "PA", "stars": 4.5, "review_count": 301, "is_open": 1}, "CJu3t6lqoJATXIZaH9sJug": {"name": "Arriviste Coffee Bar", "latitude": 40.4553616, "longitude": -79.9312134, "address": "5730 Ellsworth Ave", "city": "Pittsburgh", "state": "PA", "stars": 4.5, "review_count": 81, "is_open": 1}, "E_IIblD1Vu9YSywrvs4vBw": {"name": "Pizza Milano", "latitude": 40.4430805, "longitude": -80.0026482, "address": "134 6th St", "city": "Pittsburgh", "state": "PA", "stars": 4.5, "review_count": 14, "is_open": 1}, "tIjoGxi2r6QvREucvQwZpA": {"name": "The Dream BBQ", "latitude": 40.4530376642, "longitude": -79.8911726475, "address": "7600 N Braddock Ave", "city": "Pittsburgh", "state": "PA", "stars": 4.5, "review_count": 31, "is_open": 1}, "sZnBCxEZ7kDVf2MwKSNUjw": {"name": "Pabellon", "latitude": 40.4021, "longitude": -80.0414641, "address": "2957 Banksville Rd", "city": "Pittsburgh", "state": "PA", "stars": 4.5, "review_count": 74, "is_open": 1}, "VaQhUU3P4Z5A3oYPsEMbkw": {"name": "Tazza D'oro", "latitude": 40.4748883, "longitude": -79.9188657, "address": "1125 N Highland Ave", "city": "Pittsburgh", "state": "PA", "stars": 4.5, "review_count": 165, "is_open": 1}, "oq8qksFNfHVyQwcZsQIN8A": {"name": "Bombay Arepa Grill", "latitude": 40.4388057764, "longitude": -79.9984563681, "address": "411 Cherry Way", "city": "Pittsburgh", "state": "PA", "stars": 4.5, "review_count": 23, "is_open": 0}, "x5G0GUkGnlWtM49Qe4nHog": {"name": "Palmyra Mediterrean Cuisine", "latitude": 40.436941, "longitude": -80.0005229, "address": "10 Smithfield St", "city": "Pittsburgh", "state": "PA", "stars": 4.5, "review_count": 61, "is_open": 1}, "yGwEJqqI9oLsRuliqDRAlg": {"name": "Shop-n-Go Deli", "latitude": 40.3627166, "longitude": -79.9075972, "address": "6001 Buttermilk Hollow Rd", "city": "Pittsburgh", "state": "PA", "stars": 4.5, "review_count": 14, "is_open": 1}, "uRybQLCYWkC6N19MhaHf_w": {"name": "Taiwanese Bistro Cafe 33", "latitude": 40.4376110828, "longitude": -79.9191114697, "address": "1711 Shady Ave", "city": "Pittsburgh", "state": "PA", "stars": 4.5, "review_count": 267, "is_open": 1}, "-x2NjuDTiphKwCixSrv_SQ": {"name": "El Milagro", "latitude": 40.411087, "longitude": -80.025049, "address": "1542 Beechview Ave", "city": "Pittsburgh", "state": "PA", "stars": 4.5, "review_count": 43, "is_open": 0}, "xK4K5OwcYU0UjrWwEVHRCw": {"name": "RedWood Cafe", "latitude": 40.38023, "longitude": -80.04489, "address": "698 Washington Rd", "city": "Pittsburgh", "state": "PA", "stars": 4.5, "review_count": 18, "is_open": 0}, "-U_0rpIpGpOi-tokc91HUQ": {"name": "Istanbul Grille", "latitude": 40.4328001, "longitude": -79.8937709, "address": "1103 S Braddock Ave", "city": "Pittsburgh", "state": "PA", "stars": 4.5, "review_count": 120, "is_open": 1}, "qVhFe0aIoNSBxfLReS3-PQ": {"name": "Kevin's Deli", "latitude": 40.447311, "longitude": -79.951394, "address": "4415 5th Ave, Ste 120", "city": "Pittsburgh", "state": "PA", "stars": 4.5, "review_count": 55, "is_open": 1}, "OAsYaD7nLC2kDuqO4uaoIQ": {"name": "Badamo's Pizza", "latitude": 40.4558035304, "longitude": -80.00658983, "address": "1106 Federal St", "city": "Pittsburgh", "state": "PA", "stars": 4.5, "review_count": 76, "is_open": 1}, "7mOWMhlibS62hedb1m5A3Q": {"name": "The Summit", "latitude": 40.4307117137, "longitude": -80.0074910503, "address": "200 Shiloh St", "city": "Pittsburgh", "state": "PA", "stars": 4.5, "review_count": 171, "is_open": 1}, "QIahrchu9mUW8DGZla8c7w": {"name": "Schorr Bakery", "latitude": 40.5194773, "longitude": -80.0326429, "address": "433 Perry Hwy", "city": "Pittsburgh", "state": "PA", "stars": 4.5, "review_count": 21, "is_open": 0}, "7_vGbkiXM_eyVtIxmc0rFQ": {"name": "Living Juicy", "latitude": 40.4580184, "longitude": -79.9275787, "address": "5892 Ellsworth Ave", "city": "Pittsburgh", "state": "PA", "stars": 4.5, "review_count": 13, "is_open": 0}, "aDHD7nASfqiQBB6YXy2aGA": {"name": "The Pretzel Shop", "latitude": 40.4280867, "longitude": -79.9722434, "address": "2316 E Carson St", "city": "Pittsburgh", "state": "PA", "stars": 4.5, "review_count": 109, "is_open": 1}, "NoF90rswXBHESSyDaWeKKA": {"name": "Proper Brick Oven & Tap Room", "latitude": 40.4435995, "longitude": -80.0003448, "address": "139 7th St", "city": "Pittsburgh", "state": "PA", "stars": 4.5, "review_count": 676, "is_open": 1}, "WthUXmfVevQPMZ_LB2-q-A": {"name": "La Prima Espresso Co", "latitude": 40.4516426, "longitude": -79.982805, "address": "205 21st St", "city": "Pittsburgh", "state": "PA", "stars": 4.5, "review_count": 138, "is_open": 1}, "5H1gvB-TB_sHWasXdS64Uw": {"name": "Prestogeorge Fine Foods", "latitude": 40.4501956, "longitude": -79.985719, "address": "1719 Penn Ave", "city": "Pittsburgh", "state": "PA", "stars": 4.5, "review_count": 77, "is_open": 1}, "zjOfUAyqyH_BPe7EkFBrEQ": {"name": "The New York Hot Dog Shop", "latitude": 40.570918, "longitude": -80.0376689, "address": "9022 Old Perry Hwy", "city": "Pittsburgh", "state": "PA", "stars": 4.5, "review_count": 36, "is_open": 1}, "nk7BE6tOEdhNcbQcaEtGCw": {"name": "Szmidt's Old World Deli", "latitude": 40.4434132, "longitude": -79.9961509, "address": "957 Liberty Ave", "city": "Pittsburgh", "state": "PA", "stars": 4.5, "review_count": 21, "is_open": 0}, "1qYCUtw6_ehv7u_FxiE8IA": {"name": "Iron Born Pizza", "latitude": 40.4519643, "longitude": -79.9840432, "address": "2016 Smallman St", "city": "Pittsburgh", "state": "PA", "stars": 4.5, "review_count": 105, "is_open": 0}, "g0vVEWvHbKBTvFYGyvhiSg": {"name": "Food For Thought Deli", "latitude": 40.449658, "longitude": -79.9505185, "address": "194 N Craig St", "city": "Pittsburgh", "state": "PA", "stars": 4.5, "review_count": 43, "is_open": 1}, "5nfeycwKUJKpb40JWlA9jw": {"name": "Josie's Sweets and Treats", "latitude": 40.3947999626, "longitude": -80.0342698395, "address": "2897 W Liberty Ave", "city": "Pittsburgh", "state": "PA", "stars": 4.5, "review_count": 13, "is_open": 1}, "BcLFIr4wtd3GQ3fnz15yDQ": {"name": "DiAnoia's Eatery", "latitude": 40.454949, "longitude": -79.9786993, "address": "2549 Penn Ave", "city": "Pittsburgh", "state": "PA", "stars": 4.5, "review_count": 626, "is_open": 1}, "mnI_n7A8sxgOSmtgI3wzQQ": {"name": "Amazing Cafe", "latitude": 40.4286788, "longitude": -79.9831142, "address": "1506 E Carson St", "city": "Pittsburgh", "state": "PA", "stars": 4.5, "review_count": 97, "is_open": 0}, "WZDQqw960DaMWDyPbtRFtA": {"name": "Dancing Crab Thai Noodle House", "latitude": 40.428244, "longitude": -79.975153, "address": "2126 E Carson St", "city": "Pittsburgh", "state": "PA", "stars": 4.5, "review_count": 185, "is_open": 1}, "TzZrOcJR_GavjZPSOYiVmQ": {"name": "Aspendo's Turkish Kebab House", "latitude": 40.3813382, "longitude": -80.0439852, "address": "663 Washington Rd", "city": "Pittsburgh", "state": "PA", "stars": 4.5, "review_count": 14, "is_open": 1}, "S8urdN6ACnRQUm-7o9An8w": {"name": "Altius", "latitude": 40.438556, "longitude": -80.019299, "address": "1230 Grandview Ave", "city": "Pittsburgh", "state": "PA", "stars": 4.5, "review_count": 590, "is_open": 1}, "ehX704h8SSm8hFaYVyBuAA": {"name": "Pad Thai Noodle", "latitude": 40.4607487, "longitude": -79.9477661, "address": "4770 Liberty Ave", "city": "Pittsburgh", "state": "PA", "stars": 4.5, "review_count": 57, "is_open": 1}, "L_ibZRB6OAQCnQuA3jluyQ": {"name": "Kous Kous Cafe", "latitude": 40.381418, "longitude": -80.04418, "address": "665 Washington Rd", "city": "Pittsburgh", "state": "PA", "stars": 4.5, "review_count": 54, "is_open": 0}, "0OkfU0vDBprsIEd5hWuhAQ": {"name": "Simple Gourmet", "latitude": 40.4179157, "longitude": -79.8485663, "address": "2203 1/2 Ardmore Blvd", "city": "Pittsburgh", "state": "PA", "stars": 5.0, "review_count": 41, "is_open": 0}, "eVfiw0hygDAz0wwrD9f_zQ": {"name": "Porked East Liberty", "latitude": 40.4629299, "longitude": -79.9237957, "address": "220 N Highland Ave", "city": "Pittsburgh", "state": "PA", "stars": 4.5, "review_count": 28, "is_open": 0}, "Q7OsHUJgkPHuHNTDBJqPag": {"name": "Roots Natural Kitchen", "latitude": 40.4407677, "longitude": -79.9578317, "address": "3610 Forbes Ave.", "city": "Pittsburgh", "state": "PA", "stars": 4.5, "review_count": 89, "is_open": 1}, "adhGGZw7x_Gary5ZwNibbg": {"name": "Namaste Momo Corner", "latitude": 40.3669815, "longitude": -79.9843965, "address": "4114 Saw Mill Run Blvd", "city": "Pittsburgh", "state": "PA", "stars": 5.0, "review_count": 28, "is_open": 1}, "dLc1d1zwd1Teu2QED5TmlA": {"name": "Noodlehead", "latitude": 40.457748, "longitude": -79.925494, "address": "242 S Highland Ave", "city": "Pittsburgh", "state": "PA", "stars": 4.5, "review_count": 1341, "is_open": 1}, "D6vRifMTw7hxUZCpNHknsw": {"name": "Soul Food Connection", "latitude": 40.4425442, "longitude": -79.8854781, "address": "819 Wood St", "city": "Pittsburgh", "state": "PA", "stars": 4.5, "review_count": 13, "is_open": 1}, "rLNIlmJ71srkLoMFfGMvyQ": {"name": "Le Petit Cafe", "latitude": 40.428345, "longitude": -79.977958, "address": "2004 E Carson St", "city": "Pittsburgh", "state": "PA", "stars": 4.5, "review_count": 54, "is_open": 1}, "lFSF5XRwn-ibJLj5efDIjg": {"name": "Union Pie Co", "latitude": 40.3955651, "longitude": -79.9872154, "address": "1914 Brownsville Rd", "city": "Pittsburgh", "state": "PA", "stars": 4.5, "review_count": 33, "is_open": 1}, "v-scZMU6jhnmV955RSzGJw": {"name": "No. 1 Sushi Sushi", "latitude": 40.441062, "longitude": -80.002126, "address": "436 Market St", "city": "Pittsburgh", "state": "PA", "stars": 4.5, "review_count": 130, "is_open": 1}, "ts4ZmG1Fde5UfQDDskR5eQ": {"name": "Arby's", "latitude": 40.4425343, "longitude": -79.998702, "address": "808 Liberty Ave", "city": "Pittsburgh", "state": "PA", "stars": 4.5, "review_count": 15, "is_open": 1}, "id0K2DhGNocMRMoBcvCsyg": {"name": "Senyai Thai Kitchen", "latitude": 40.4576253, "longitude": -79.9288277, "address": "5865 Ellsworth Ave", "city": "Pittsburgh", "state": "PA", "stars": 4.5, "review_count": 203, "is_open": 1}, "rgohunOzrrrgdZcxkQzCgQ": {"name": "Huszar", "latitude": 40.4567312, "longitude": -79.9988965, "address": "627 E North Ave", "city": "Pittsburgh", "state": "PA", "stars": 4.5, "review_count": 77, "is_open": 1}, "jpbnJhXkq2mFsWoSX2eCeg": {"name": "Sahara Restaurant & Grill", "latitude": 40.4395623, "longitude": -79.8972515, "address": "7600 Forbes Ave", "city": "Pittsburgh", "state": "PA", "stars": 4.5, "review_count": 23, "is_open": 1}, "TjJdpI5XX2zwHmXQbnEWeQ": {"name": "Gyros N'at", "latitude": 40.4043052902, "longitude": -79.8703792884, "address": "512 Braddock Ave", "city": "Pittsburgh", "state": "PA", "stars": 5.0, "review_count": 17, "is_open": 1}, "8cyyRk-cqecyB1ctnRsR1A": {"name": "Lola Bistro", "latitude": 40.453668, "longitude": -80.0169094, "address": "1100 Galveston Ave", "city": "Pittsburgh", "state": "PA", "stars": 4.5, "review_count": 68, "is_open": 1}, "Q4WmBfRD6rcTSXVZqjKC5Q": {"name": "Mount Everest Sushi", "latitude": 40.4415916, "longitude": -79.957276, "address": "128 Oakland Ave", "city": "Pittsburgh", "state": "PA", "stars": 4.5, "review_count": 210, "is_open": 1}, "xcmmTXhuMx2fZF2Bt69F4w": {"name": "Point Brugge Caf\u00e9", "latitude": 40.4500419, "longitude": -79.9138882, "address": "401 Hastings St", "city": "Pittsburgh", "state": "PA", "stars": 4.5, "review_count": 590, "is_open": 1}, "2d9yZ11uVa83OEQWxe4vlQ": {"name": "Conicella Pizza", "latitude": 40.4252406, "longitude": -79.9429526, "address": "422 Greenfield Ave", "city": "Pittsburgh", "state": "PA", "stars": 4.5, "review_count": 41, "is_open": 0}, "rVqw2DVJwZnZ1FV-ZYa-Mw": {"name": "Casa Brasil", "latitude": 40.4756756928, "longitude": -79.9197259864, "address": "5904 Bryant St", "city": "Pittsburgh", "state": "PA", "stars": 4.5, "review_count": 34, "is_open": 1}, "LhfKAGpQ12pgvQRqg-2wmw": {"name": "Salem's Market & Grill", "latitude": 40.4585262, "longitude": -79.9736024, "address": "2923 Penn Ave", "city": "Pittsburgh", "state": "PA", "stars": 4.5, "review_count": 237, "is_open": 1}, "kDgVrhKYBk2jOdByahN44w": {"name": "Con Alma", "latitude": 40.457775, "longitude": -79.9279106, "address": "5884 Ellsworth Ave", "city": "Pittsburgh", "state": "PA", "stars": 4.5, "review_count": 55, "is_open": 1}, "lnd23oqCb7v8lt9zd4K8sg": {"name": "Gasoline Street Coffee", "latitude": 40.4353844922, "longitude": -79.995624918, "address": "643 1st Ave", "city": "Pittsburgh", "state": "PA", "stars": 4.5, "review_count": 58, "is_open": 1}, "RoSo1r-ATvtgxd6sNJvzpg": {"name": "La Gourmandine Bakery", "latitude": 40.4398530683, "longitude": -80.0005890989, "address": "308 Forbes Ave", "city": "Pittsburgh", "state": "PA", "stars": 4.5, "review_count": 60, "is_open": 1}, "mw3ALoGuH-MC1U2BUuTtkQ": {"name": "Which Came First", "latitude": 40.4515085, "longitude": -80.0060399, "address": "200 Children's Way", "city": "Pittsburgh", "state": "PA", "stars": 4.5, "review_count": 37, "is_open": 1}, "ndT140pWrEvBnMDb5k4ljg": {"name": "Ribs N Bread", "latitude": 40.4528416, "longitude": -79.9493702, "address": "4707 Centre Ave", "city": "Pittsburgh", "state": "PA", "stars": 4.5, "review_count": 16, "is_open": 1}, "xCmFGgpTkf77fNCrvkDBsA": {"name": "Thai Terrace", "latitude": 40.4307358, "longitude": -79.8840794, "address": "247 Edgewood Ave", "city": "Pittsburgh", "state": "PA", "stars": 4.5, "review_count": 28, "is_open": 1}, "aZdHskuurZJXQ6C7oiqP_g": {"name": "Johnny's Diner", "latitude": 40.433881, "longitude": -80.031424, "address": "1900 Woodville Ave", "city": "Pittsburgh", "state": "PA", "stars": 4.5, "review_count": 30, "is_open": 1}, "lGshF26IzmWtvrCN3bfsew": {"name": "Caf\u00e9 412", "latitude": 40.4416964, "longitude": -80.0330876, "address": "400 S Main St", "city": "Pittsburgh", "state": "PA", "stars": 5.0, "review_count": 33, "is_open": 1}, "u0F9WJbECpg5fEesAx94xA": {"name": "The Colombian Spot", "latitude": 40.428796, "longitude": -79.976795, "address": "2019 E Carson St", "city": "Pittsburgh", "state": "PA", "stars": 4.5, "review_count": 116, "is_open": 1}, "M-uo9HTEJEx7cS0eCsQyUg": {"name": "The Inn on Negley", "latitude": 40.4533266, "longitude": -79.9314642, "address": "703 S Negley Ave", "city": "Pittsburgh", "state": "PA", "stars": 4.5, "review_count": 53, "is_open": 1}, "u4sTiCzVeIHZY8OlaL346Q": {"name": "Gaucho Parrilla Argentina", "latitude": 40.449043, "longitude": -79.987573, "address": "1601 Penn Ave", "city": "Pittsburgh", "state": "PA", "stars": 4.5, "review_count": 1949, "is_open": 1}, "eCBHpk_jwbaxf1Q6uH3moA": {"name": "The Greek Gourmet", "latitude": 40.432838, "longitude": -79.9232072, "address": "2130 Murray Ave", "city": "Pittsburgh", "state": "PA", "stars": 4.5, "review_count": 80, "is_open": 0}, "D9xr-6Io3hPOh5ZHFRVPTA": {"name": "Gabriella's Gourmet On the Go", "latitude": 40.4296601264, "longitude": -79.9977401644, "address": "301 E Carson St", "city": "Pittsburgh", "state": "PA", "stars": 4.5, "review_count": 18, "is_open": 1}, "qHseX2NHeUUedIgs_VasZA": {"name": "La Palapa, Traditional Mexican Kitchen", "latitude": 40.428196, "longitude": -79.973514, "address": "2224 E Carson St", "city": "Pittsburgh", "state": "PA", "stars": 4.5, "review_count": 270, "is_open": 1}, "fHH836GXPlnwnJL14ZpGRw": {"name": "Forbes Tavern", "latitude": 40.4398048471, "longitude": -80.000440143, "address": "310 Forbes Ave", "city": "Pittsburgh", "state": "PA", "stars": 4.5, "review_count": 69, "is_open": 1}, "2hOU75OoYSid_aMUEvjhVQ": {"name": "Benkovitz Seafoods", "latitude": 40.4534775, "longitude": -79.9822567, "address": "2300 Smallman St", "city": "Pittsburgh", "state": "PA", "stars": 4.5, "review_count": 20, "is_open": 0}, "drquCq18pgKu1lv1UzJJAQ": {"name": "Siempre Algo", "latitude": 40.4535713, "longitude": -80.0010646, "address": "414 E Ohio St", "city": "Pittsburgh", "state": "PA", "stars": 5.0, "review_count": 58, "is_open": 1}, "VC_gC9AzJb1kKsiy1sHVLw": {"name": "Sultry", "latitude": 40.4520554, "longitude": -79.9837546, "address": "54 21st St", "city": "Pittsburgh", "state": "PA", "stars": 4.5, "review_count": 13, "is_open": 1}, "zWFuGjtmzekVBTL0muNsXw": {"name": "Applewood Smoke Burger", "latitude": 40.4764695, "longitude": -79.9206803, "address": "5721 Bryant St", "city": "Pittsburgh", "state": "PA", "stars": 4.5, "review_count": 83, "is_open": 1}, "MPbzeBX4f98CgK0ih1rLVw": {"name": "Bulldog Pub", "latitude": 40.4867643947, "longitude": -79.9268399793, "address": "1818 Morningside Ave", "city": "Pittsburgh", "state": "PA", "stars": 4.5, "review_count": 63, "is_open": 1}, "Yewf5KT9c-z8oc2-GeF06g": {"name": "JJPOK\u00c9", "latitude": 40.4413562584, "longitude": -79.9580711117, "address": "110 Atwood St", "city": "Pittsburgh", "state": "PA", "stars": 4.5, "review_count": 18, "is_open": 1}, "n_knxbqwchwrpp1cZ8AZSw": {"name": "Showcase BBQ", "latitude": 40.4580929, "longitude": -79.9059706, "address": "6800 Frankstown Ave", "city": "Pittsburgh", "state": "PA", "stars": 4.5, "review_count": 106, "is_open": 1}, "cKDql3YTCVyh2ljA21yE2A": {"name": "Curbside Coffeehouse", "latitude": 40.494897645, "longitude": -79.8591932164, "address": "405 Freeport Rd", "city": "Pittsburgh", "state": "PA", "stars": 4.5, "review_count": 102, "is_open": 1}, "slMjKmGTnufGx6ZWR6Mg3A": {"name": "Carson Street Deli & Craft Beer Bar", "latitude": 40.4289085, "longitude": -79.9831107, "address": "1507 E Carson St", "city": "Pittsburgh", "state": "PA", "stars": 4.5, "review_count": 138, "is_open": 1}, "AY3Cxky3L3aNbRo_o4YRgg": {"name": "De Fer Coffee & Tea", "latitude": 40.4517992695, "longitude": -79.9844576619, "address": "2002 Smallman St", "city": "Pittsburgh", "state": "PA", "stars": 4.5, "review_count": 109, "is_open": 1}, "lPcKVCwnnx54lJR5BXFbKQ": {"name": "Hidden Harbor", "latitude": 40.4376509, "longitude": -79.9195142, "address": "1708 Shady Ave", "city": "Pittsburgh", "state": "PA", "stars": 4.5, "review_count": 180, "is_open": 1}, "_PKa6Dj06Q2AHKGkpJ7GnA": {"name": "Z-Best BBQ", "latitude": 40.4388749, "longitude": -79.9875623, "address": "1315 5th Ave", "city": "Pittsburgh", "state": "PA", "stars": 4.5, "review_count": 52, "is_open": 1}, "3D6Uck9QSdxZKFstf5DGlg": {"name": "Blue Sparrow Food Truck", "latitude": 40.4667702, "longitude": -79.9640557, "address": "3800 Butler St", "city": "Pittsburgh", "state": "PA", "stars": 5.0, "review_count": 42, "is_open": 1}, "K2C8dSx9215LLcIzHL959Q": {"name": "The Twisted Frenchman", "latitude": 40.460597, "longitude": -79.927045, "address": "5925 Baum Blvd", "city": "Pittsburgh", "state": "PA", "stars": 4.5, "review_count": 156, "is_open": 1}, "VNyrLWOqd8o6RdKs0I6Fwg": {"name": "Handel's Homemade Ice Cream & Yogurt", "latitude": 40.5690151082, "longitude": -80.0250333721, "address": "9020 St Simon Way", "city": "Pittsburgh", "state": "PA", "stars": 4.5, "review_count": 34, "is_open": 1}, "Muzk_Dwk7Ai-ibmj6irrIg": {"name": "Diners 2+1", "latitude": 40.437278, "longitude": -79.923033, "address": "1722 Murray Ave 1FL", "city": "Pittsburgh", "state": "PA", "stars": 5.0, "review_count": 101, "is_open": 1}, "qJ-V22xGzV6IKNWA8c_Nnw": {"name": "Mantsch Blue Bonnet Bakery", "latitude": 40.4085091329, "longitude": -79.9077538069, "address": "338 E 8th Ave", "city": "Pittsburgh", "state": "PA", "stars": 4.5, "review_count": 14, "is_open": 1}, "czJKX4DmZR_1JeRmPcnmbQ": {"name": "Las Palmas Carniceria", "latitude": 40.3945796, "longitude": -80.0217308, "address": "700 Brookline Blvd", "city": "Pittsburgh", "state": "PA", "stars": 4.5, "review_count": 232, "is_open": 1}, "OPcGFLP_mRt9yvgP3ALXOQ": {"name": "Totopo Mexican Kitchen and Bar", "latitude": 40.380953115, "longitude": -80.0445051302, "address": "660 Washington Rd", "city": "Pittsburgh", "state": "PA", "stars": 4.5, "review_count": 457, "is_open": 1}, "RBiJRcNC7NoDf-XYMFrCBg": {"name": "Jean-Marc Chatellier's French Bakery", "latitude": 40.4813341, "longitude": -79.9749699, "address": "213 North Ave", "city": "Pittsburgh", "state": "PA", "stars": 4.5, "review_count": 160, "is_open": 1}, "uXjc2pnnhHXL-gXYYP0nWg": {"name": "Jose' Ole' Mexican Grill", "latitude": 40.4557916164, "longitude": -80.161762102, "address": "6535 Robinson Ctr Dr", "city": "Pittsburgh", "state": "PA", "stars": 4.5, "review_count": 13, "is_open": 0}, "mseBBgYcqyv6T1sfrXI-XQ": {"name": "Tavern 51", "latitude": 40.3572346, "longitude": -79.9810824, "address": "4604 Clairton Blvd", "city": "Pittsburgh", "state": "PA", "stars": 4.5, "review_count": 39, "is_open": 1}, "3eivq15AzsACPuA5AyZUTA": {"name": "The Pittsburgh PO Boy", "latitude": 40.4538223914, "longitude": -79.9802848729, "address": "", "city": "Pittsburgh", "state": "PA", "stars": 4.5, "review_count": 26, "is_open": 1}, "anMopnoKLimdtD4miKInBw": {"name": "North Shore Deli", "latitude": 40.4535473, "longitude": -79.9992608, "address": "539 E Ohio St", "city": "Pittsburgh", "state": "PA", "stars": 5.0, "review_count": 33, "is_open": 1}, "d_xS_AZ1uqO1XHY3V51qtA": {"name": "Caf\u00e9 Raymond", "latitude": 40.4519239, "longitude": -79.9831656, "address": "2103 Penn Ave", "city": "Pittsburgh", "state": "PA", "stars": 4.5, "review_count": 72, "is_open": 0}, "OjXXfBcsaGMcXJ5In6pJcQ": {"name": "Thai Gourmet", "latitude": 40.4631879, "longitude": -79.9514861, "address": "4505 Liberty Ave", "city": "Pittsburgh", "state": "PA", "stars": 4.5, "review_count": 196, "is_open": 1}, "Een2yret0IwJUpHLwcxtRg": {"name": "Arancini House", "latitude": 40.3824016, "longitude": -80.043744, "address": "615 Washington Rd", "city": "Pittsburgh", "state": "PA", "stars": 4.5, "review_count": 81, "is_open": 1}, "9xjAQ9VlK6e46xy_iLzXqg": {"name": "Kavsar Restaurant", "latitude": 40.4289202, "longitude": -80.0074459, "address": "16 Southern Ave", "city": "Pittsburgh", "state": "PA", "stars": 4.5, "review_count": 148, "is_open": 1}, "guGPP-3ZsXdLNjtZDnR7tw": {"name": "Hog's Head Bar & Grill", "latitude": 40.4824117, "longitude": -79.9961753, "address": "3433 Spring Garden Rd", "city": "Pittsburgh", "state": "PA", "stars": 4.5, "review_count": 83, "is_open": 1}, "ckbDWYPT8TP7etP0WHU2Yg": {"name": "Blaze Fast Fire'd Pizza", "latitude": 40.440493, "longitude": -80.149205, "address": "290 Settlers Ridge Center Dr", "city": "Pittsburgh", "state": "PA", "stars": 4.5, "review_count": 209, "is_open": 1}, "1yQvJ-By1zO7HzSYhSlz1w": {"name": "Pauline's Caribbean Soul Cuisine", "latitude": 40.4561256, "longitude": -80.0065359, "address": "1204 Federal St", "city": "Pittsburgh", "state": "PA", "stars": 4.5, "review_count": 18, "is_open": 1}, "3o5qY488gag2vi-xWeGGFg": {"name": "Friendship Perk and Brew", "latitude": 40.4620144, "longitude": -79.94068, "address": "300 South Pacific Ave", "city": "Pittsburgh", "state": "PA", "stars": 4.5, "review_count": 81, "is_open": 1}, "v3rXLmTCX6ZFR6kIYTY2fg": {"name": "Istanbul Grille", "latitude": 40.4423622, "longitude": -80.0002018, "address": "673 Liberty Ave", "city": "Pittsburgh", "state": "PA", "stars": 4.5, "review_count": 44, "is_open": 0}, "7zWoldq0uQV73BjoTM3G5w": {"name": "Allegro Hearth Bakery", "latitude": 40.4338421543, "longitude": -79.9230824102, "address": "2034 Murray Ave", "city": "Pittsburgh", "state": "PA", "stars": 4.5, "review_count": 79, "is_open": 1}, "FG8atOE15c8IoQH_hEb9zA": {"name": "Geppetto Cafe", "latitude": 40.4700478, "longitude": -79.9608717, "address": "4121 Butler St", "city": "Pittsburgh", "state": "PA", "stars": 4.5, "review_count": 245, "is_open": 1}, "XWRhaOGnRwHk-FICdbcCfA": {"name": "Nancy's Revival", "latitude": 40.4421292, "longitude": -79.8862475, "address": "616 South Ave", "city": "Pittsburgh", "state": "PA", "stars": 4.5, "review_count": 51, "is_open": 1}, "YWLkcMOx6YmCxDlLjBG8eA": {"name": "Great Harvest Bread Co", "latitude": 40.4591763496, "longitude": -79.9182679558, "address": "6401 Penn Ave", "city": "Pittsburgh", "state": "PA", "stars": 4.5, "review_count": 43, "is_open": 1}, "3dyO9LrC9x-qJ2ZpbL9FZA": {"name": "Soju", "latitude": 40.46536, "longitude": -79.94431, "address": "4923 Penn Ave", "city": "Pittsburgh", "state": "PA", "stars": 4.5, "review_count": 112, "is_open": 1}, "lo-GEcfXVGrDSDLtR5gI5w": {"name": "Veltre's Pizza", "latitude": 40.4224899, "longitude": -79.8649727, "address": "1268 Brinton Rd", "city": "Pittsburgh", "state": "PA", "stars": 4.5, "review_count": 31, "is_open": 1}, "9_B3nY3KlHW1WDvOeMk9GA": {"name": "The Other Place", "latitude": 40.390324, "longitude": -80.074412, "address": "2500 Swallow Hill Rd", "city": "Pittsburgh", "state": "PA", "stars": 4.5, "review_count": 25, "is_open": 1}, "AanIRR6tCCgIO7OibuvE5A": {"name": "Pittsburgh Sandwich Society", "latitude": 40.4417703, "longitude": -80.0870155, "address": "", "city": "Pittsburgh", "state": "PA", "stars": 4.5, "review_count": 25, "is_open": 1}, "SHlfx41Mo4dk2WR1VyT2_Q": {"name": "Adda Coffee & Tea House", "latitude": 40.4587819424, "longitude": -79.9252286378, "address": "200 South Highland Ave", "city": "Pittsburgh", "state": "PA", "stars": 4.5, "review_count": 122, "is_open": 1}, "EmU5D6GKbokldlA-IZvYrA": {"name": "Muddy Cup", "latitude": 40.3954256, "longitude": -80.0344659, "address": "1412 Potomac Ave", "city": "Pittsburgh", "state": "PA", "stars": 4.5, "review_count": 19, "is_open": 1}, "x_c-KatYu_utcgl_n0LAbg": {"name": "Teutonia M\u00e4nnerchor", "latitude": 40.4551916, "longitude": -79.995014, "address": "857 Phineas St", "city": "Pittsburgh", "state": "PA", "stars": 4.5, "review_count": 15, "is_open": 1}, "Zz2AwpjN3HA1-L_XUC5R9g": {"name": "Driftwood Oven", "latitude": 40.4658865, "longitude": -79.9652774, "address": "3615 Butler St", "city": "Pittsburgh", "state": "PA", "stars": 4.5, "review_count": 128, "is_open": 1}, "wUrnir4yQj4Lnta-jdqqxQ": {"name": "Taza 21", "latitude": 40.4363638, "longitude": -79.922875, "address": "1827 Murray Ave", "city": "Pittsburgh", "state": "PA", "stars": 4.5, "review_count": 53, "is_open": 0}, "Srl3TFbOAfa-9_1m_wK6xQ": {"name": "Nobby's Pizzeria", "latitude": 40.369034, "longitude": -80.0851376, "address": "373 Vanadium Rd", "city": "Pittsburgh", "state": "PA", "stars": 4.5, "review_count": 33, "is_open": 1}, "ZYcBEhCSfbLOUM9JbHB9FA": {"name": "Corner Mercantile", "latitude": 40.440203, "longitude": -80.000422, "address": "472 Wood St", "city": "Pittsburgh", "state": "PA", "stars": 4.5, "review_count": 48, "is_open": 1}, "Iko1Ic3XzHJb8UoZmpfmOw": {"name": "Cannon Coffee", "latitude": 40.3934598, "longitude": -80.0201357, "address": "802 Brookline Blvd", "city": "Pittsburgh", "state": "PA", "stars": 4.5, "review_count": 39, "is_open": 0}, "MoFGxMGtYiofRi_iVIyApQ": {"name": "Mediterranean Cuisine Catering & Delivery", "latitude": 40.4287478, "longitude": -79.9767834, "address": "2021 E Carson St", "city": "Pittsburgh", "state": "PA", "stars": 4.5, "review_count": 15, "is_open": 1}, "VgWvHMs5TJ2lr0ec2DaMtQ": {"name": "Bae Bae's Kitchen", "latitude": 40.4435133921, "longitude": -79.9961381391, "address": "951 Liberty Ave", "city": "Pittsburgh", "state": "PA", "stars": 4.5, "review_count": 378, "is_open": 1}, "bQImV5TqJ719-YU1rhTYzA": {"name": "Chevere", "latitude": 40.438872, "longitude": -79.99889, "address": "411 Cherry Way", "city": "Pittsburgh", "state": "PA", "stars": 4.5, "review_count": 15, "is_open": 0}, "t-6tdxRaz7s9a0sf94Tguw": {"name": "Impressionz", "latitude": 40.4623454064, "longitude": -79.9241651595, "address": "6008 Broad St", "city": "Pittsburgh", "state": "PA", "stars": 4.5, "review_count": 29, "is_open": 0}, "ndzT1maiVwpz-7VFFzAb5Q": {"name": "Eddie V's Prime Seafood", "latitude": 40.43994, "longitude": -79.996847, "address": "501 Grant St", "city": "Pittsburgh", "state": "PA", "stars": 4.5, "review_count": 209, "is_open": 1}, "VxRlBe2wjtycFWSZm1orTA": {"name": "Piper's Pub", "latitude": 40.4284268, "longitude": -79.9794308, "address": "1828 E Carson St", "city": "Pittsburgh", "state": "PA", "stars": 4.5, "review_count": 393, "is_open": 1}, "i7xGGm_Rjb4AHxkGPJr4WA": {"name": "California Taco Shop", "latitude": 40.5109338, "longitude": -79.9461767, "address": "890 Butler St", "city": "Pittsburgh", "state": "PA", "stars": 4.5, "review_count": 42, "is_open": 1}, "jVaDrytDdOmkQX9moPWHTA": {"name": "The Burgh Bites Truck", "latitude": 40.4737114, "longitude": -79.9612368, "address": "", "city": "Pittsburgh", "state": "PA", "stars": 5.0, "review_count": 41, "is_open": 1}, "hG-DApl-ua15fbIqav7-IA": {"name": "Kaffeehaus", "latitude": 40.4576435214, "longitude": -79.9952916428, "address": "1022 Chestnut St", "city": "Pittsburgh", "state": "PA", "stars": 4.5, "review_count": 14, "is_open": 1}, "_AAzQeNJ4E2HIxM50qdwBA": {"name": "Alfred's Deli & Market", "latitude": 40.4567492, "longitude": -79.9683822, "address": "3041 Brereton St", "city": "Pittsburgh", "state": "PA", "stars": 5.0, "review_count": 13, "is_open": 0}, "3zR3Uj23aXY1V3L2qt1t6w": {"name": "Our Little Secret Cafe & Catering", "latitude": 40.337554, "longitude": -79.977042, "address": "332 Curry Hollow Rd", "city": "Pittsburgh", "state": "PA", "stars": 4.5, "review_count": 82, "is_open": 1}, "iuOK9_SBaJ5y0xzu4Fy4IQ": {"name": "Threadbare Cider House", "latitude": 40.460489, "longitude": -79.988898, "address": "1291 Spring Garden Ave", "city": "Pittsburgh", "state": "PA", "stars": 4.5, "review_count": 87, "is_open": 1}, "TsCq0UqOrKJ_ZJx7KKwKkA": {"name": "Pasqualino's Pizza & Pasta", "latitude": 40.4825761, "longitude": -79.8197598, "address": "13032 Frankstown Rd", "city": "Pittsburgh", "state": "PA", "stars": 4.5, "review_count": 49, "is_open": 1}, "H5PdoEWleg9uDU67ZAy6JA": {"name": "Mixtape", "latitude": 40.4654464, "longitude": -79.9448679, "address": "4907 Penn Ave", "city": "Pittsburgh", "state": "PA", "stars": 4.5, "review_count": 81, "is_open": 1}, "bKj_nnb2wyXduNoFXDeR9w": {"name": "Zuppas Delicatessen", "latitude": 40.5368092448, "longitude": -79.8428670079, "address": "2585 Freeport Rd", "city": "Pittsburgh", "state": "PA", "stars": 4.5, "review_count": 15, "is_open": 1}, "37PlKoT60Qfo_G8V2NRfCQ": {"name": "LaScola's Italian Ice & Custard", "latitude": 40.4760308932, "longitude": -79.9195376784, "address": "1218 N Euclid Ave", "city": "Pittsburgh", "state": "PA", "stars": 5.0, "review_count": 22, "is_open": 1}, "GNa1y5-b7u_5ary42o8-LQ": {"name": "Istanbul Grille", "latitude": 40.4416716211, "longitude": -79.9979904477, "address": "339 Sixth Ave", "city": "Pittsburgh", "state": "PA", "stars": 4.5, "review_count": 22, "is_open": 1}, "zR8n9zX3AMcksUI641DjfQ": {"name": "Deli On North Avenue", "latitude": 40.4557148, "longitude": -80.0064228, "address": "4 E North Ave", "city": "Pittsburgh", "state": "PA", "stars": 4.5, "review_count": 33, "is_open": 1}, "0Q7-i7KHlzBoejEKbW5DUQ": {"name": "Mayfly Market and Deli", "latitude": 40.45724, "longitude": -80.00958, "address": "1327 Arch St", "city": "Pittsburgh", "state": "PA", "stars": 4.5, "review_count": 18, "is_open": 1}, "PvtAsnMf-oeNmkvdwRmEpw": {"name": "Yoli's Pizza", "latitude": 40.3148776125, "longitude": -79.9784474706, "address": "1216 Cochrans Mill Rd", "city": "Pittsburgh", "state": "PA", "stars": 4.5, "review_count": 49, "is_open": 0}, "MKd_EUD0PG__cOfIbeqYAg": {"name": "T\u00e9 Caf\u00e9", "latitude": 40.4345656, "longitude": -79.9230317, "address": "2000 Murray Ave", "city": "Pittsburgh", "state": "PA", "stars": 4.5, "review_count": 117, "is_open": 1}, "v2gPWZrBYvD6m78fu4mnCA": {"name": "Krista's Cantina", "latitude": 40.4670683, "longitude": -80.034429, "address": "2650 California Ave", "city": "Pittsburgh", "state": "PA", "stars": 4.5, "review_count": 20, "is_open": 1}, "Iam7tYWhssw_rscSBkeRIQ": {"name": "Fiori's Pizzaria", "latitude": 40.405245, "longitude": -80.018538, "address": "103 Capital Ave", "city": "Pittsburgh", "state": "PA", "stars": 4.5, "review_count": 344, "is_open": 1}, "Cg5hUSWUwFImqO4beH1Zyg": {"name": "Jamison's On West Liberty", "latitude": 40.390853, "longitude": -80.0392499, "address": "3113 W Liberty Ave", "city": "Pittsburgh", "state": "PA", "stars": 4.5, "review_count": 43, "is_open": 1}, "gXpGMGBAv1lfQEcPOzahag": {"name": "Madonna's Mediterranean Cuisine", "latitude": 40.4389554, "longitude": -79.9993319, "address": "408 Smithfield St", "city": "Pittsburgh", "state": "PA", "stars": 4.5, "review_count": 113, "is_open": 1}, "A5Xd85djipsW546Bq6qIYA": {"name": "Sesame Garden", "latitude": 40.430520655, "longitude": -80.0075236051, "address": "202 Shiloh St", "city": "Pittsburgh", "state": "PA", "stars": 4.5, "review_count": 86, "is_open": 1}, "mJAqx7wK33gFt4MjN_1aDg": {"name": "Michigan & Trumbull", "latitude": 40.4515085, "longitude": -80.0060399, "address": "200 Children's Way", "city": "Pittsburgh", "state": "PA", "stars": 4.5, "review_count": 71, "is_open": 0}, "ZiEn3McAAbapzyAV0c6qWg": {"name": "Groceria Italiana", "latitude": 40.4618803, "longitude": -79.9485296, "address": "237 Cedarville St", "city": "Pittsburgh", "state": "PA", "stars": 4.5, "review_count": 38, "is_open": 0}, "iXnHrmTw-r6LNzC2MjjrWQ": {"name": "Casa Rasta", "latitude": 40.405401, "longitude": -80.0301225, "address": "2102 Broadway Ave", "city": "Pittsburgh", "state": "PA", "stars": 4.5, "review_count": 23, "is_open": 0}, "ymbe8nqpYVCIpfgVl5MjYQ": {"name": "Khalil's II", "latitude": 40.4544679, "longitude": -79.9481463, "address": "4757 Baum Blvd", "city": "Pittsburgh", "state": "PA", "stars": 4.5, "review_count": 28, "is_open": 1}, "Apn6Qly16cIUxgB1dYUvjg": {"name": "Don's Diner", "latitude": 40.4716476, "longitude": -80.037313, "address": "1729 Eckert St", "city": "Pittsburgh", "state": "PA", "stars": 5.0, "review_count": 32, "is_open": 1}, "_FH3osvpPRnMv-K2u6ZM3w": {"name": "Peppi's", "latitude": 40.4516113, "longitude": -80.0174885, "address": "927 Western Ave", "city": "Pittsburgh", "state": "PA", "stars": 4.5, "review_count": 130, "is_open": 1}, "0MR1J0U8uOXtvZlHV-johQ": {"name": "Kickback Pinball Cafe", "latitude": 40.4712221, "longitude": -79.9598367, "address": "4326 Butler St", "city": "Pittsburgh", "state": "PA", "stars": 4.5, "review_count": 54, "is_open": 1}, "hQ551hmTLbxTuMRXYGRJJg": {"name": "Spilly's Bar-B-Q", "latitude": 40.3494878204, "longitude": -79.9756316, "address": "4871 Clairton Blvd", "city": "Pittsburgh", "state": "PA", "stars": 4.5, "review_count": 59, "is_open": 1}, "0IfrcGbFzQvn9w8bl9GKDg": {"name": "North Hills Grill", "latitude": 40.520825, "longitude": -80.026023, "address": "96 Rochester Rd, 1st floor", "city": "Pittsburgh", "state": "PA", "stars": 4.5, "review_count": 40, "is_open": 0}, "inRKr1zy12CoZmnK-0IRBQ": {"name": "Parker's PGH", "latitude": 40.3952468, "longitude": -80.0224334, "address": "600 Brookline Blvd", "city": "Pittsburgh", "state": "PA", "stars": 4.5, "review_count": 81, "is_open": 0}, "RKVYQ00LvK0_FO6Ll7lvOg": {"name": "Muddy Waters Oyster Bar", "latitude": 40.4602070145, "longitude": -79.925226, "address": "130 S Highland Ave", "city": "Pittsburgh", "state": "PA", "stars": 4.5, "review_count": 534, "is_open": 1}, "TcCWYYL6FxBTT6KrxabwRg": {"name": "Edgar's Best Tacos", "latitude": 40.455585, "longitude": -79.977913, "address": "108 S 19th St", "city": "Pittsburgh", "state": "PA", "stars": 4.5, "review_count": 79, "is_open": 1}, "G-GcMq-iVEENhjG3z1lZhA": {"name": "Wood Fired Flatbreads", "latitude": 40.5610745, "longitude": -80.0394123, "address": "", "city": "Pittsburgh", "state": "PA", "stars": 4.5, "review_count": 13, "is_open": 1}, "MKYcOZSpMwJK7uwacK13EA": {"name": "Smallman Galley", "latitude": 40.4521777, "longitude": -79.9837408, "address": "54 21st St", "city": "Pittsburgh", "state": "PA", "stars": 4.5, "review_count": 575, "is_open": 1}, "MLVnaAgR3FD2O9mBTKDqoQ": {"name": "Pasha Cafe Lounge", "latitude": 40.4510208759, "longitude": -79.9320307374, "address": "808 Ivy St", "city": "Pittsburgh", "state": "PA", "stars": 4.5, "review_count": 124, "is_open": 1}, "z2RiCl_iU-8bM4Lj1zNL8g": {"name": "Green Forest Churrascaria", "latitude": 40.446357054, "longitude": -79.826819346, "address": "655 Rodi Rd, Ste 1", "city": "Pittsburgh", "state": "PA", "stars": 4.5, "review_count": 179, "is_open": 1}, "qWMGMCPQoyRq7NpQ78ntmg": {"name": "Caf\u00e9 Cravings", "latitude": 40.4318531, "longitude": -80.015665, "address": "402 Bigham St", "city": "Pittsburgh", "state": "PA", "stars": 4.5, "review_count": 43, "is_open": 1}, "GUriQoD_GHo6DNJlR1_CrA": {"name": "Nox's Tavern and Grille", "latitude": 40.4924883, "longitude": -79.8626474, "address": "720 Blaw Ave", "city": "Pittsburgh", "state": "PA", "stars": 4.5, "review_count": 55, "is_open": 1}, "ytU-tGhd5ZW9ouWW6JHpMg": {"name": "Jolina's Mediterranean Cuisine", "latitude": 40.392146, "longitude": -80.0172701, "address": "1011 Brookline Blvd", "city": "Pittsburgh", "state": "PA", "stars": 5.0, "review_count": 44, "is_open": 1}, "U8s4-JWjZ7bNSlVEX9JEYw": {"name": "City Fresh Pasta", "latitude": 40.451062, "longitude": -80.005186, "address": "100 S Commons", "city": "Pittsburgh", "state": "PA", "stars": 4.5, "review_count": 27, "is_open": 1}, "hbipF-PtqC2RI70Aqx4mlA": {"name": "The Warren Bar and Burrow", "latitude": 40.4426526, "longitude": -79.9998171, "address": "245 7th St", "city": "Pittsburgh", "state": "PA", "stars": 4.5, "review_count": 112, "is_open": 1}, "SKEG2ym9YgM9F9EQ_pPuIw": {"name": "Halal Pitt - NOW OPEN", "latitude": 40.4425127, "longitude": -79.9574645, "address": "Fifth Ave & S Bouquet St. Pittsburgh PA 15213", "city": "Pittsburgh", "state": "PA", "stars": 4.5, "review_count": 13, "is_open": 1}, "qThJY-H6Fo8HvfdIvwrjiw": {"name": "Yeung's House", "latitude": 40.5206579, "longitude": -80.0333287, "address": "463 Perry Hwy", "city": "Pittsburgh", "state": "PA", "stars": 4.5, "review_count": 64, "is_open": 1}, "0bjFYstj8USMzEV4ZQldjA": {"name": "Redhawk Coffee", "latitude": 40.4407077, "longitude": -79.9586246, "address": "120 Meyran Ave", "city": "Pittsburgh", "state": "PA", "stars": 5.0, "review_count": 151, "is_open": 1}, "sc__kdcFV4IcNTfBx1707w": {"name": "P&G's Pamela's Diner", "latitude": 40.4519715, "longitude": -79.9836571, "address": "60 21st St", "city": "Pittsburgh", "state": "PA", "stars": 4.5, "review_count": 610, "is_open": 1}, "gAe_dOlcAd6tEXDUXNiwOA": {"name": "Bird On The Run", "latitude": 40.460241, "longitude": -79.925332, "address": "128 S Highland Ave", "city": "Pittsburgh", "state": "PA", "stars": 4.5, "review_count": 206, "is_open": 1}, "g7OwoWQ_haDYnfmhCYMvSg": {"name": "Deli on Butler Street", "latitude": 40.46967, "longitude": -79.960889, "address": "4110 Butler St", "city": "Pittsburgh", "state": "PA", "stars": 4.5, "review_count": 77, "is_open": 1}, "UOhDVL_aIimyHAFGOa1QGA": {"name": "Cilantro & Ajo", "latitude": 40.428776684, "longitude": -79.9896927988, "address": "901 E Carson St", "city": "Pittsburgh", "state": "PA", "stars": 4.5, "review_count": 97, "is_open": 1}, "i_1ORltzRXvf9H2rvfS-Ag": {"name": "Gali's Gyro And Grill", "latitude": 40.339547, "longitude": -79.961537, "address": "71-73 Clairton Blvd", "city": "Pittsburgh", "state": "PA", "stars": 4.5, "review_count": 78, "is_open": 1}, "cHcYk5bJn3Nh9ARJjQVq8Q": {"name": "Turkish Grille", "latitude": 40.4521037, "longitude": -79.9506159, "address": "272 Melwood Ave", "city": "Pittsburgh", "state": "PA", "stars": 4.5, "review_count": 100, "is_open": 1}, "ijyjZNaqThPYv71djFq7Yg": {"name": "Arepittas", "latitude": 40.4387403, "longitude": -79.9984561, "address": "412 Cherry Way", "city": "Pittsburgh", "state": "PA", "stars": 5.0, "review_count": 30, "is_open": 1}, "L0DJ7-GUDMLIlIR-7vykvQ": {"name": "Merante's Gifts", "latitude": 40.4619011, "longitude": -79.9490237, "address": "4723 Liberty Ave", "city": "Pittsburgh", "state": "PA", "stars": 4.5, "review_count": 17, "is_open": 1}, "-7PX_FOoCwktlunImRyZdg": {"name": "Pizza Taglio", "latitude": 40.460287, "longitude": -79.92509, "address": "126 S Highland Ave", "city": "Pittsburgh", "state": "PA", "stars": 4.5, "review_count": 163, "is_open": 1}, "wtDLILBaj5BGEbYvWGfNUw": {"name": "Duck Donuts", "latitude": 40.34697, "longitude": -80.056874, "address": "100 Siena Dr, Ste 220", "city": "Pittsburgh", "state": "PA", "stars": 4.5, "review_count": 87, "is_open": 1}, "EXF-imcOSptiuzlirPjljA": {"name": "Oya Sushi & Korean Grill", "latitude": 40.3694983, "longitude": -80.0351415, "address": "325 Mt Lebanon Blvd", "city": "Pittsburgh", "state": "PA", "stars": 4.5, "review_count": 114, "is_open": 1}, "b4Atbd4V8UKEoXzhbL-o5g": {"name": "Leaf & Bean", "latitude": 40.4521302, "longitude": -79.9818887, "address": "2200 Penn Ave", "city": "Pittsburgh", "state": "PA", "stars": 4.5, "review_count": 71, "is_open": 1}, "SDjbz2bE_5QosSaEIlmScA": {"name": "52nd Street Market", "latitude": 40.4787953, "longitude": -79.9519381, "address": "601 52nd St", "city": "Pittsburgh", "state": "PA", "stars": 5.0, "review_count": 21, "is_open": 1}, "5bF1zC3aEqiwYEkkdcWxKQ": {"name": "Lock & Dam Dog Shop", "latitude": 40.4880474, "longitude": -79.9200024, "address": "7331 Butler St", "city": "Pittsburgh", "state": "PA", "stars": 4.5, "review_count": 36, "is_open": 1}, "sGLdSwi3zKNM3c3f5Ep8jw": {"name": "Gloria Jeans Coffees", "latitude": 40.3424447895, "longitude": -80.0559294722, "address": "301 S Hills Vlg, Ste 378", "city": "Pittsburgh", "state": "PA", "stars": 4.5, "review_count": 15, "is_open": 1}, "CVfiajCyFamUrvN0eKE_XA": {"name": "Bertrand", "latitude": 40.3937332, "longitude": -80.0633067, "address": "1910 Cochran Rd", "city": "Pittsburgh", "state": "PA", "stars": 5.0, "review_count": 54, "is_open": 1}, "vNQkym5qZ-E-4AJ4IQ5JEg": {"name": "Alla Famiglia", "latitude": 40.4216209, "longitude": -79.9934403, "address": "804 E Warrington Ave", "city": "Pittsburgh", "state": "PA", "stars": 4.5, "review_count": 265, "is_open": 1}, "rreIYrzI9U052p7nN_qogA": {"name": "Pittsburgh Poke", "latitude": 40.441237, "longitude": -80.003478, "address": "500 Liberty Ave", "city": "Pittsburgh", "state": "PA", "stars": 4.5, "review_count": 127, "is_open": 1}, "497iuIdzSZqEVZ_iTnp-Jg": {"name": "Moonlite Cafe", "latitude": 40.3954604, "longitude": -80.0229235, "address": "530 Brookline Blvd", "city": "Pittsburgh", "state": "PA", "stars": 4.5, "review_count": 45, "is_open": 1}, "rrysQBMgpCqhDZuM34vvwg": {"name": "Santoro's Pizzeria Italiana", "latitude": 40.3658059, "longitude": -80.0251276, "address": "3805 Willow Ave", "city": "Pittsburgh", "state": "PA", "stars": 4.5, "review_count": 58, "is_open": 1}, "M5Dc39uXDsFzcAGl_ijDzw": {"name": "GoodFellas Restaurant & Tavern", "latitude": 40.422497, "longitude": -79.8873228, "address": "1915 McCague St", "city": "Pittsburgh", "state": "PA", "stars": 4.5, "review_count": 25, "is_open": 1}, "C7pOdQZU641kwnr162-Y8Q": {"name": "Iron Born Pizza", "latitude": 40.4800728, "longitude": -79.9736998, "address": "413 Grant Ave", "city": "Pittsburgh", "state": "PA", "stars": 4.5, "review_count": 54, "is_open": 1}, "YwXqGKiD9axunX1VlJMIsA": {"name": "Bitter Ends Luncheonette", "latitude": 40.4625541, "longitude": -79.9503411, "address": "4613 Liberty Ave", "city": "Pittsburgh", "state": "PA", "stars": 4.5, "review_count": 76, "is_open": 1}, "zAzRDBl14oqhATB5KCMhXg": {"name": "Frankie's Extra Long", "latitude": 40.4649905, "longitude": -79.9658521, "address": "3535 Butler St", "city": "Pittsburgh", "state": "PA", "stars": 4.5, "review_count": 28, "is_open": 1}, "_dqtEOTelXt9tfmP_9Ar6w": {"name": "Wesley's Delicatessen & Catering", "latitude": 40.4394403, "longitude": -80.0009542, "address": "307 Fourth Ave", "city": "Pittsburgh", "state": "PA", "stars": 4.5, "review_count": 24, "is_open": 0}, "Oy9xDxD-JtUzSurhOhboLg": {"name": "Waffallonia", "latitude": 40.4431216753, "longitude": -79.9531468322, "address": "4212 Forbes Ave", "city": "Pittsburgh", "state": "PA", "stars": 4.5, "review_count": 68, "is_open": 0}, "5crOt_2vpHfFeGOrEeROQA": {"name": "Brunoise Restaurant", "latitude": 40.4520554, "longitude": -79.9837546, "address": "54 21st St", "city": "Pittsburgh", "state": "PA", "stars": 4.5, "review_count": 19, "is_open": 0}, "9yRS-SNzkfmThx2JJoilwA": {"name": "Dobra Tea", "latitude": 40.4349648, "longitude": -79.9228082, "address": "1937 Murray Ave", "city": "Pittsburgh", "state": "PA", "stars": 4.5, "review_count": 195, "is_open": 1}, "rbZ4AHL1LV8KGW9NDGbI9w": {"name": "Flowers In the Attic", "latitude": 40.4769006, "longitude": -79.7823842, "address": "7505 Saltsburg Rd", "city": "Pittsburgh", "state": "PA", "stars": 4.5, "review_count": 37, "is_open": 1}, "Z2NIEKTVVP2nEmOF4jNxqQ": {"name": "Millie's Homemade Ice Cream", "latitude": 40.4578745, "longitude": -79.9253581, "address": "232 S Highland Ave", "city": "Pittsburgh", "state": "PA", "stars": 4.5, "review_count": 370, "is_open": 1}, "bXCWON2Me0o86qvAb-XZPQ": {"name": "B52 Cafe", "latitude": 40.4804345, "longitude": -79.9541429, "address": "5202 Butler St", "city": "Pittsburgh", "state": "PA", "stars": 4.5, "review_count": 258, "is_open": 1}, "nbKdzlGl5Rl6lB8F5g97ag": {"name": "Gary's Restaurant", "latitude": 40.3856314, "longitude": -79.9784459, "address": "2605 Brownsville Rd", "city": "Pittsburgh", "state": "PA", "stars": 4.5, "review_count": 13, "is_open": 1}, "sdh27i5q0EcAKagBDNQw3A": {"name": "Poulet Bleu", "latitude": 40.464581, "longitude": -79.9661945, "address": "3517 Butler St", "city": "Pittsburgh", "state": "PA", "stars": 4.5, "review_count": 226, "is_open": 1}, "g3yEgUCb6IIM1eVCKP5dWw": {"name": "Nepali Asian Restaurant", "latitude": 40.392438, "longitude": -79.987222, "address": "2122 Brownsville Rd", "city": "Pittsburgh", "state": "PA", "stars": 5.0, "review_count": 20, "is_open": 1}, "T9va11v5HvQDnEXO9k838A": {"name": "Yovi's", "latitude": 40.4413090845, "longitude": -80.0028008223, "address": "477 Graeme St Market Sq", "city": "Pittsburgh", "state": "PA", "stars": 4.5, "review_count": 83, "is_open": 1}, "37nmwiVBQC-ahTZ0L2ZRyA": {"name": "Sugar Spell Scoops", "latitude": 40.4948542, "longitude": -79.932109, "address": "1014 N Canal St", "city": "Pittsburgh", "state": "PA", "stars": 5.0, "review_count": 23, "is_open": 1}, "EDg6FM7MYcNMoqrSoWXUUw": {"name": "Baby Loves Tacos", "latitude": 40.4628562, "longitude": -79.9515691, "address": "4508 Liberty Ave", "city": "Pittsburgh", "state": "PA", "stars": 4.5, "review_count": 117, "is_open": 1}, "CLCumtBtaxl5ziuycMDkAg": {"name": "Refucilo Winery", "latitude": 40.451687, "longitude": -80.016726, "address": "907 Western Ave", "city": "Pittsburgh", "state": "PA", "stars": 5.0, "review_count": 19, "is_open": 1}, "gkR_X3INE6Rr-TuM4ynhzQ": {"name": "Cinderlands Foederhouse", "latitude": 40.4664949, "longitude": -79.9648079, "address": "3705 Butler St", "city": "Pittsburgh", "state": "PA", "stars": 4.5, "review_count": 156, "is_open": 1}, "j3IBjxYKwh__BhA25KDeZw": {"name": "Sweet Peaches", "latitude": 40.421766, "longitude": -79.9959259, "address": "639 E Warrington Ave", "city": "Pittsburgh", "state": "PA", "stars": 4.5, "review_count": 19, "is_open": 0}, "S8VRQCBrbZI04zjCOc1RAA": {"name": "Las Palmas", "latitude": 40.4389681, "longitude": -79.9552124, "address": "326 Atwood St", "city": "Pittsburgh", "state": "PA", "stars": 4.5, "review_count": 225, "is_open": 1}, "nXlKHnArL3_vugmnytsEYQ": {"name": "Crested Duck Charcuterie", "latitude": 40.4103895, "longitude": -80.0243631, "address": "1603 Broadway Ave", "city": "Pittsburgh", "state": "PA", "stars": 4.5, "review_count": 37, "is_open": 0}, "dBCDRobULrxeSDvQyudcKQ": {"name": "Onion Maiden", "latitude": 40.4218809, "longitude": -79.9959611, "address": "639 E Warrington Ave", "city": "Pittsburgh", "state": "PA", "stars": 4.5, "review_count": 166, "is_open": 1}, "C9kxpolRlQcqwtx7DYggmA": {"name": "Pita My Shawarma", "latitude": 40.4406248, "longitude": -79.9958864, "address": "", "city": "Pittsburgh", "state": "PA", "stars": 4.5, "review_count": 14, "is_open": 1}, "GVPEk8fvR7_46_5lYch_4A": {"name": "Salim's Middle Eastern Food Store", "latitude": 40.4527796, "longitude": -79.9495128, "address": "4705 Centre Ave", "city": "Pittsburgh", "state": "PA", "stars": 4.5, "review_count": 62, "is_open": 1}, "VSNUFYBQ_wOFmRXZ8SeQ4w": {"name": "S&D Polish Deli", "latitude": 40.4523578, "longitude": -79.9820206, "address": "2204 Penn Ave", "city": "Pittsburgh", "state": "PA", "stars": 4.5, "review_count": 231, "is_open": 1}, "Yf0rRaOWWGrqvTQ2B3dE0Q": {"name": "E Town Bar and Grille", "latitude": 40.4953228, "longitude": -79.9451201, "address": "304 Butler St", "city": "Pittsburgh", "state": "PA", "stars": 4.5, "review_count": 45, "is_open": 1}, "OwGCYIwyIHPMfLVOT_7-1g": {"name": "Sam's Sun Sandwich", "latitude": 40.3849545, "longitude": -79.978469, "address": "2616 Brownsville Rd", "city": "Pittsburgh", "state": "PA", "stars": 4.5, "review_count": 39, "is_open": 1}, "vmR1bRA2liNwwxsUKS1k3w": {"name": "T-Swirl Crepe", "latitude": 40.437483, "longitude": -79.9231457, "address": "1714 Murray Ave", "city": "Pittsburgh", "state": "PA", "stars": 4.5, "review_count": 81, "is_open": 1}, "4FyNb9zmHWf57oy24l3Lzg": {"name": "Larder of East End", "latitude": 40.459257, "longitude": -79.9117928, "address": "147 Julius St", "city": "Pittsburgh", "state": "PA", "stars": 4.5, "review_count": 16, "is_open": 1}, "_ucDskZqK5w1QHkoA_nlRw": {"name": "Doce Taqueria", "latitude": 40.4286123, "longitude": -79.9851236, "address": "1302 East Carson St", "city": "Pittsburgh", "state": "PA", "stars": 4.5, "review_count": 281, "is_open": 1}, "-DUQQsE2QvFIuqO5EiChQA": {"name": "The Korner Pub", "latitude": 40.387046, "longitude": -80.0440863, "address": "4 Bower Hill Rd", "city": "Pittsburgh", "state": "PA", "stars": 4.5, "review_count": 18, "is_open": 1}, "jalA5zHW8ZfY3RSPG7oDxQ": {"name": "Cafe Du Jour", "latitude": 40.4288822, "longitude": -79.987139, "address": "1107 E Carson St", "city": "Pittsburgh", "state": "PA", "stars": 4.5, "review_count": 190, "is_open": 1}, "tpJrlhn5QPI0ehDyYjN7qg": {"name": "Szmidt's Old World Deli", "latitude": 40.4257412, "longitude": -79.9420186, "address": "509 Greenfield Ave", "city": "Pittsburgh", "state": "PA", "stars": 4.5, "review_count": 88, "is_open": 0}, "LH9YFarEKe_ByAl6xeeegQ": {"name": "The Original BSB\u2019s - Avalon", "latitude": 40.5036656, "longitude": -80.0618465, "address": "344 Union Ave", "city": "Pittsburgh", "state": "PA", "stars": 4.5, "review_count": 105, "is_open": 1}, "fOiEnLJk4qnp8j7onjvm4A": {"name": "Alquisiras Paleteria", "latitude": 40.4053716, "longitude": -80.0301538, "address": "2056 Broadway Ave", "city": "Pittsburgh", "state": "PA", "stars": 4.5, "review_count": 14, "is_open": 1}, "aF_x0B6UhX5YRe0LAdtUOQ": {"name": "Treats \u2018N Beans", "latitude": 40.4407395, "longitude": -79.9587585, "address": "118 Meyran Ave", "city": "Pittsburgh", "state": "PA", "stars": 4.5, "review_count": 31, "is_open": 1}, "OR5zHbM31BGqxbZhIT1oYw": {"name": "Porked", "latitude": 40.370043, "longitude": -79.9127375, "address": "5203 Interboro Ave", "city": "Pittsburgh", "state": "PA", "stars": 5.0, "review_count": 30, "is_open": 1}, "xZfPdAYeimiruXuGR4nSUA": {"name": "East End Food Co-Op", "latitude": 40.4481991, "longitude": -79.8954753, "address": "7516 Meade St", "city": "Pittsburgh", "state": "PA", "stars": 4.5, "review_count": 112, "is_open": 1}, "TbDd4tvXevqZt_9cwgw9sQ": {"name": "Azorean Cafe", "latitude": 40.4620671, "longitude": -79.949227, "address": "4715 Liberty Ave", "city": "Pittsburgh", "state": "PA", "stars": 4.5, "review_count": 76, "is_open": 1}, "vGbzUluZ-vEPaIPPcUR8oQ": {"name": "Bistro To Go", "latitude": 40.4532176, "longitude": -80.0010393, "address": "415 E Ohio St, Ste A", "city": "Pittsburgh", "state": "PA", "stars": 4.5, "review_count": 76, "is_open": 1}, "idM0hDe_Pp2IeYgH0DIIBw": {"name": "The Big Idea Bookstore and Cafe", "latitude": 40.4601392, "longitude": -79.9467527, "address": "4812 Liberty Ave", "city": "Pittsburgh", "state": "PA", "stars": 4.5, "review_count": 24, "is_open": 1}, "7I_xWHdCaH-CtZLQGkhsjg": {"name": "Pear and the Pickle", "latitude": 40.4667266, "longitude": -79.9823581, "address": "1800 Rialto St", "city": "Pittsburgh", "state": "PA", "stars": 4.5, "review_count": 118, "is_open": 1}, "FLmAxYnkZtWybuOmxVgyQA": {"name": "Mezza 663 Grill", "latitude": 40.3813382, "longitude": -80.0439852, "address": "663 Washington Rd", "city": "Pittsburgh", "state": "PA", "stars": 4.5, "review_count": 36, "is_open": 0}, "dQwH07r6eSfY5cU4McyLFA": {"name": "Dad's Pub & Grub", "latitude": 40.428938, "longitude": -79.874795, "address": "1050 Brinton Rd", "city": "Pittsburgh", "state": "PA", "stars": 4.5, "review_count": 20, "is_open": 1}, "LkPQmCF3k6iDqBLY7bsE5Q": {"name": "The Blind Pig", "latitude": 40.4282556, "longitude": -79.9740374, "address": "2210 E Carson St", "city": "Pittsburgh", "state": "PA", "stars": 4.5, "review_count": 18, "is_open": 0}, "6Az5aA5sdrqwfJjnS8TROQ": {"name": "Night Market Gourmet", "latitude": 40.441257, "longitude": -79.95815, "address": "114 Atwood St", "city": "Pittsburgh", "state": "PA", "stars": 4.5, "review_count": 35, "is_open": 1}, "nbsjdiUunohQX1JAxsqpMw": {"name": "Good L'oven", "latitude": 40.5383026877, "longitude": -80.049893707, "address": "318 Sewickley Oakmont Rd", "city": "Pittsburgh", "state": "PA", "stars": 5.0, "review_count": 24, "is_open": 1}, "m59upQj5qUn-termmtxTYQ": {"name": "The Coop Chicken and Waffles", "latitude": 40.4475255, "longitude": -79.9933976, "address": "", "city": "Pittsburgh", "state": "PA", "stars": 4.5, "review_count": 30, "is_open": 1}, "-7teXSpi9nqy58WUd-8yfw": {"name": "Pittsburgh Pretzel Cafe", "latitude": 40.331517, "longitude": -79.986757, "address": "5624 Brownsville Rd", "city": "Pittsburgh", "state": "PA", "stars": 4.5, "review_count": 13, "is_open": 0}, "1hCKJqPC9uLIXavNKVudAg": {"name": "Cop Out Pierogies", "latitude": 40.4961958, "longitude": -79.9440482, "address": "350 Butler St", "city": "Pittsburgh", "state": "PA", "stars": 4.5, "review_count": 96, "is_open": 1}, "k3WyM7vM-4nKxJQaFBdwJA": {"name": "The Italian Bread Place & Deli", "latitude": 40.4262926363, "longitude": -80.0566652736, "address": "2381 Noblestown Rd", "city": "Pittsburgh", "state": "PA", "stars": 4.5, "review_count": 15, "is_open": 0}, "7WHwaWg5uW3oWsEXLzQ25w": {"name": "Groceria Merante", "latitude": 40.4365708987, "longitude": -79.9553876064, "address": "3454 Bates St", "city": "Pittsburgh", "state": "PA", "stars": 5.0, "review_count": 34, "is_open": 1}, "eQAp73ks6V6VmsAbZX4RJA": {"name": "Mission BBQ", "latitude": 40.4480044, "longitude": -80.1590415, "address": "6541 Steubenville Pike", "city": "Pittsburgh", "state": "PA", "stars": 4.5, "review_count": 160, "is_open": 1}, "xQqCpVu52dCZlsoYoKRykA": {"name": "Caff\u00e8 d'Amore Coffeeshop", "latitude": 40.4827896, "longitude": -79.950919, "address": "5400 Butler St", "city": "Pittsburgh", "state": "PA", "stars": 4.5, "review_count": 50, "is_open": 1}, "6RbCJLiwNYwS6ab9vzD_zg": {"name": "Pitaland", "latitude": 40.3948572, "longitude": -80.0221115, "address": "620 Brookline Blvd", "city": "Pittsburgh", "state": "PA", "stars": 4.5, "review_count": 113, "is_open": 1}, "1dHCtT1rb9Q1jcmYTg8OSw": {"name": "Supper on Penn", "latitude": 40.446092, "longitude": -79.9922071, "address": "1211 Penn Ave", "city": "Pittsburgh", "state": "PA", "stars": 4.5, "review_count": 22, "is_open": 1}, "D_pwairtGGR0V_w2xx5XeA": {"name": "Alihan's Mediterranean Cuisine", "latitude": 40.44326, "longitude": -80.00257, "address": "124 6th St", "city": "Pittsburgh", "state": "PA", "stars": 4.5, "review_count": 230, "is_open": 1}, "Pj0nNvgiNkJkJ3-2_w6Urw": {"name": "Everest Kitchen", "latitude": 40.368082, "longitude": -79.984102, "address": "4042 Saw Mill Run Blvd", "city": "Pittsburgh", "state": "PA", "stars": 4.5, "review_count": 13, "is_open": 1}, "wcA-pfNAmxRJC9N2IcJX3w": {"name": "Mattress Factory Cafe", "latitude": 40.456982, "longitude": -80.012309, "address": "500 Sampsonia Way", "city": "Pittsburgh", "state": "PA", "stars": 4.5, "review_count": 17, "is_open": 1}, "uV2HVSRXJMqGsF9Br2VnvQ": {"name": "Constellation Coffee", "latitude": 40.4656647775, "longitude": -79.9557438844, "address": "4059 Penn Ave, Fl 1", "city": "Pittsburgh", "state": "PA", "stars": 4.5, "review_count": 108, "is_open": 1}, "pPyg8s0O8JB7bDCaCj398w": {"name": "East End Brewing Taproom", "latitude": 40.4509048171, "longitude": -79.9849490505, "address": "102 19th St", "city": "Pittsburgh", "state": "PA", "stars": 4.5, "review_count": 49, "is_open": 0}, "cdwJYqlp_NjS1w5Tz4J5dw": {"name": "Artisan", "latitude": 40.4653383, "longitude": -79.9438735, "address": "5001 Penn Ave", "city": "Pittsburgh", "state": "PA", "stars": 5.0, "review_count": 35, "is_open": 1}, "A96UMn--KouLcMO6DUi8Ng": {"name": "Family Restaurant", "latitude": 40.3850657503, "longitude": -79.9783793092, "address": "2614 Brownsville Rd", "city": "Pittsburgh", "state": "PA", "stars": 5.0, "review_count": 36, "is_open": 0}, "_XlO-uEB3ZMA19Q8Ljbipw": {"name": "Umbrella Cafe", "latitude": 40.443476602, "longitude": -79.9961047049, "address": "951 Liberty Ave", "city": "Pittsburgh", "state": "PA", "stars": 4.5, "review_count": 64, "is_open": 0}, "yT1Ad3auuw1jAJEZHr7Yqw": {"name": "Mercurio\u2019s", "latitude": 40.4897259, "longitude": -79.8738199, "address": "1335 Freeport Rd", "city": "Pittsburgh", "state": "PA", "stars": 4.5, "review_count": 14, "is_open": 1}, "rBko32y5vK13SD_sW3AG_g": {"name": "Colony Caf\u00e9", "latitude": 40.4455105, "longitude": -79.9932528, "address": "1125 Penn Ave", "city": "Pittsburgh", "state": "PA", "stars": 4.5, "review_count": 107, "is_open": 1}, "4mYS-4UOjTKgsf0tX1_IkQ": {"name": "Banh Mi & Ti", "latitude": 40.4721452731, "longitude": -79.958936443, "address": "4502 Butler St", "city": "Pittsburgh", "state": "PA", "stars": 4.5, "review_count": 252, "is_open": 1}, "HVCSprTj_USR9HxIeoffZA": {"name": "Zeke's Coffee", "latitude": 40.461374, "longitude": -79.924053, "address": "6015 Penn Ave", "city": "Pittsburgh", "state": "PA", "stars": 4.5, "review_count": 123, "is_open": 1}, "Uh6EhbFKgQlhVpfvnqsfHA": {"name": "BreadWorks", "latitude": 40.4621686, "longitude": -80.0190648, "address": "2110 Brighton Rd", "city": "Pittsburgh", "state": "PA", "stars": 4.5, "review_count": 33, "is_open": 1}, "UWi2CNiSSHrgsKfiI6qQDw": {"name": "Rocchio's Italian Deli", "latitude": 40.3953652, "longitude": -80.0343585, "address": "1408 Potomac Ave", "city": "Pittsburgh", "state": "PA", "stars": 5.0, "review_count": 18, "is_open": 1}, "pv__91LMXAbNX50NgeO55g": {"name": "Sumi's Cakery", "latitude": 40.4331538, "longitude": -79.9228308, "address": "2119 Murray Ave", "city": "Pittsburgh", "state": "PA", "stars": 4.5, "review_count": 82, "is_open": 1}, "jpn329BeGpfAa9n1uPYOrA": {"name": "Cucina Vitale", "latitude": 40.4274367, "longitude": -79.9691357, "address": "2516 E Carson St", "city": "Pittsburgh", "state": "PA", "stars": 4.5, "review_count": 111, "is_open": 1}, "2wCzZUwcqRRBrAtBBYxnog": {"name": "Frankstown Wood Fired Pizza", "latitude": 40.482177, "longitude": -79.821922, "address": "12911 Frankstown Rd", "city": "Pittsburgh", "state": "PA", "stars": 4.5, "review_count": 28, "is_open": 1}, "VPaEJyi2hZJ6Bc2nBlhqEw": {"name": "Food Shoppe", "latitude": 40.4415476, "longitude": -79.9206368, "address": "5878 Northumberland St", "city": "Pittsburgh", "state": "PA", "stars": 4.5, "review_count": 17, "is_open": 1}}